[{"Latitude":"56.5994864","Longitude":"25.6416172","Name":"'Mūra Buļļu ceļš'"},{"Latitude":"55.8230802","Longitude":"27.0324622","Name":"(RKP Kaplava)"},{"Latitude":"55.9490240","Longitude":"26.5295494","Name":"-"},{"Latitude":"56.6313954","Longitude":"25.6938122","Name":"."},{"Latitude":"57.1325559","Longitude":"27.2980130","Name":"1 celiņš"},{"Latitude":"55.8564824","Longitude":"26.5537853","Name":"1 maija iela"},{"Latitude":"57.3367900","Longitude":"25.1340235","Name":"1-3"},{"Latitude":"57.3060298","Longitude":"25.0976262","Name":"1-4"},{"Latitude":"57.3802410","Longitude":"24.4101104","Name":"1. Centra iela"},{"Latitude":"57.3775778","Longitude":"24.4103315","Name":"1. Dienvidu iela"},{"Latitude":"55.8861826","Longitude":"26.4958518","Name":"1. Oficieru iela"},{"Latitude":"57.3861127","Longitude":"24.4110175","Name":"1. Rietumu iela"},{"Latitude":"57.3847164","Longitude":"24.4242418","Name":"1. Ziemeļu iela"},{"Latitude":"56.6077609","Longitude":"21.0403563","Name":"1. iela"},{"Latitude":"56.9823012","Longitude":"23.8418639","Name":"1. līnija"},{"Latitude":"56.4633430","Longitude":"22.8993090","Name":"1. maija iela"},{"Latitude":"56.6101868","Longitude":"26.7509567","Name":"1. maija laukums"},{"Latitude":"55.8858363","Longitude":"26.5235871","Name":"1. pasažieru iela"},{"Latitude":"55.8661258","Longitude":"26.5346006","Name":"1. preču iela"},{"Latitude":"57.3122733","Longitude":"24.4429930","Name":"1. šķērsiela"},{"Latitude":"57.0065111","Longitude":"24.4932100","Name":"1. šķērslīnija"},{"Latitude":"56.8005522","Longitude":"24.6123906","Name":"1.maija gatve"},{"Latitude":"57.1363455","Longitude":"27.3067042","Name":"10 celiņš"},{"Latitude":"57.3868955","Longitude":"24.4141828","Name":"10. Ziemeļu iela"},{"Latitude":"57.4785080","Longitude":"22.6206308","Name":"10. dambis"},{"Latitude":"56.6133408","Longitude":"21.0392118","Name":"10. iela"},{"Latitude":"56.7848086","Longitude":"23.9199141","Name":"10. līnija"},{"Latitude":"57.1366903","Longitude":"27.3077418","Name":"11 celiņš"},{"Latitude":"57.3863020","Longitude":"24.4132872","Name":"11. Ziemeļu iela"},{"Latitude":"56.6139417","Longitude":"21.0394225","Name":"11. iela"},{"Latitude":"56.7840973","Longitude":"23.9188436","Name":"11. līnija"},{"Latitude":"56.9444125","Longitude":"24.1094253","Name":"11. novembra krastmala"},{"Latitude":"57.1378037","Longitude":"27.3076310","Name":"12 celiņš"},{"Latitude":"57.3863573","Longitude":"24.4120550","Name":"12. Ziemeļu iela"},{"Latitude":"57.2838825","Longitude":"24.4482600","Name":"12. iela"},{"Latitude":"56.7870570","Longitude":"23.9184074","Name":"12. līnija"},{"Latitude":"57.1383066","Longitude":"27.3084413","Name":"13 celiņš"},{"Latitude":"56.6147055","Longitude":"21.0430672","Name":"13. iela"},{"Latitude":"56.9469605","Longitude":"24.1176864","Name":"13. janvāra iela"},{"Latitude":"56.7870896","Longitude":"23.9174907","Name":"13. līnija"},{"Latitude":"57.1382347","Longitude":"27.3118696","Name":"14 celiņš"},{"Latitude":"56.6147118","Longitude":"21.0479100","Name":"14. iela"},{"Latitude":"56.5067650","Longitude":"25.8680734","Name":"14. jūnija iela"},{"Latitude":"56.7871255","Longitude":"23.9165986","Name":"14. līnija"},{"Latitude":"56.5380414","Longitude":"21.0753548","Name":"14. novembra bulvāris"},{"Latitude":"56.6155271","Longitude":"21.0460817","Name":"15. iela"},{"Latitude":"57.3002635","Longitude":"24.4284894","Name":"15. līnija"},{"Latitude":"56.6157543","Longitude":"21.0487562","Name":"16. iela"},{"Latitude":"57.2995716","Longitude":"24.4279160","Name":"16. līnija"},{"Latitude":"56.6167212","Longitude":"21.0462129","Name":"17. iela"},{"Latitude":"56.9894730","Longitude":"23.8747279","Name":"17. līnija"},{"Latitude":"56.6172787","Longitude":"21.0472298","Name":"18. iela"},{"Latitude":"56.9898683","Longitude":"23.8768692","Name":"18. līnija"},{"Latitude":"56.5419560","Longitude":"27.7135543","Name":"18. novembra"},{"Latitude":"55.8653951","Longitude":"26.5208082","Name":"18. novembra iela"},{"Latitude":"55.8953554","Longitude":"27.1644797","Name":"18. novembra laukums"},{"Latitude":"56.6069986","Longitude":"21.0481794","Name":"19. iela"},{"Latitude":"56.9895703","Longitude":"23.8796334","Name":"19. līnija"},{"Latitude":"56.6440819","Longitude":"25.4322698","Name":"1905. gada iela"},{"Latitude":"56.9513587","Longitude":"24.1100654","Name":"1991. gada barikāžu laukums"},{"Latitude":"57.1323345","Longitude":"27.2999833","Name":"2 celiņš"},{"Latitude":"57.3813932","Longitude":"24.4090045","Name":"2. Centra iela"},{"Latitude":"57.3765111","Longitude":"24.4092254","Name":"2. Dienvidu iela"},{"Latitude":"55.8867959","Longitude":"26.4939059","Name":"2. Oficieru iela"},{"Latitude":"57.3785371","Longitude":"24.4055769","Name":"2. Rietumu iela"},{"Latitude":"57.3860252","Longitude":"24.4234007","Name":"2. Ziemeļu iela"},{"Latitude":"56.6082934","Longitude":"21.0410311","Name":"2. iela"},{"Latitude":"57.3076647","Longitude":"24.4287945","Name":"2. līnija"},{"Latitude":"55.8903349","Longitude":"26.5268257","Name":"2. pasažieru iela"},{"Latitude":"55.8818050","Longitude":"26.5298553","Name":"2. preču iela"},{"Latitude":"57.3128742","Longitude":"24.4429236","Name":"2. šķērsiela"},{"Latitude":"57.1290820","Longitude":"27.2494016","Name":"2.Eezrmalas līnija"},{"Latitude":"56.6076212","Longitude":"21.0482469","Name":"20. iela"},{"Latitude":"56.9915251","Longitude":"23.8806952","Name":"20. līnija"},{"Latitude":"55.9924381","Longitude":"26.8911339","Name":"20130523"},{"Latitude":"57.2809225","Longitude":"24.4468446","Name":"21. iela"},{"Latitude":"56.9905781","Longitude":"23.8842055","Name":"21. līnija"},{"Latitude":"56.6088870","Longitude":"21.0485697","Name":"22. iela"},{"Latitude":"56.9911029","Longitude":"23.8869499","Name":"22. līnija"},{"Latitude":"57.2326963","Longitude":"24.4125356","Name":"22.iela"},{"Latitude":"56.6094816","Longitude":"21.0488452","Name":"23. iela"},{"Latitude":"56.6099494","Longitude":"21.0507879","Name":"24. iela"},{"Latitude":"56.9908317","Longitude":"23.8906907","Name":"24. līnija"},{"Latitude":"56.6105816","Longitude":"21.0508719","Name":"25. iela"},{"Latitude":"56.9934369","Longitude":"23.8896345","Name":"25. līnija"},{"Latitude":"56.6110853","Longitude":"21.0520955","Name":"26. iela"},{"Latitude":"56.6119966","Longitude":"21.0491387","Name":"27. iela"},{"Latitude":"56.9936500","Longitude":"23.8928362","Name":"27. līnija"},{"Latitude":"56.6125194","Longitude":"21.0503302","Name":"28. iela"},{"Latitude":"56.9929028","Longitude":"23.8948583","Name":"28. līnija"},{"Latitude":"56.6133160","Longitude":"21.0488638","Name":"29. iela"},{"Latitude":"57.1332645","Longitude":"27.3001523","Name":"3 celiņš"},{"Latitude":"57.3803561","Longitude":"24.4078672","Name":"3. Centra iela"},{"Latitude":"57.3771743","Longitude":"24.4080087","Name":"3. Dienvidu liela"},{"Latitude":"57.3859171","Longitude":"24.4221838","Name":"3. Ziemeļu iela"},{"Latitude":"57.2824782","Longitude":"24.4404144","Name":"3. iela"},{"Latitude":"57.3072130","Longitude":"24.4285799","Name":"3. līnija"},{"Latitude":"57.3134438","Longitude":"24.4431112","Name":"3. šķērsiela"},{"Latitude":"57.1303541","Longitude":"27.2479716","Name":"3.Ezermalas līnija"},{"Latitude":"56.6140020","Longitude":"21.0481203","Name":"30. iela"},{"Latitude":"56.9933501","Longitude":"23.8968159","Name":"30. līnija"},{"Latitude":"56.6142582","Longitude":"21.0523211","Name":"31. iela"},{"Latitude":"56.9935425","Longitude":"23.8976595","Name":"31. līnija"},{"Latitude":"56.6148065","Longitude":"21.0539168","Name":"32. iela"},{"Latitude":"56.6153718","Longitude":"21.0540662","Name":"33. iela"},{"Latitude":"56.9939830","Longitude":"23.8992765","Name":"33. līnija"},{"Latitude":"56.6158344","Longitude":"21.0562238","Name":"34. iela"},{"Latitude":"56.6166772","Longitude":"21.0540756","Name":"35. iela"},{"Latitude":"57.2331460","Longitude":"24.4146552","Name":"35.iela"},{"Latitude":"56.6173226","Longitude":"21.0538073","Name":"36. iela"},{"Latitude":"57.1332392","Longitude":"27.3018078","Name":"4 celiņš"},{"Latitude":"57.3785259","Longitude":"24.4067654","Name":"4. Centra iela"},{"Latitude":"57.3753543","Longitude":"24.4069625","Name":"4. Dienvidu iela"},{"Latitude":"57.3859399","Longitude":"24.4210028","Name":"4. Ziemeļu iela"},{"Latitude":"56.6093583","Longitude":"21.0426331","Name":"4. iela"},{"Latitude":"57.3065734","Longitude":"24.4286055","Name":"4. līnija"},{"Latitude":"57.3140116","Longitude":"24.4432561","Name":"4. šķērsiela"},{"Latitude":"57.1302047","Longitude":"27.2471823","Name":"4.Ezermalas līnija"},{"Latitude":"57.1338814","Longitude":"27.3024665","Name":"5 celiņš"},{"Latitude":"57.3858325","Longitude":"24.4197905","Name":"5. Ziemeļu iela"},{"Latitude":"56.6103756","Longitude":"21.0381815","Name":"5. iela"},{"Latitude":"57.3058730","Longitude":"24.4303958","Name":"5. līnija"},{"Latitude":"57.3143643","Longitude":"24.4431411","Name":"5. šķērsiela"},{"Latitude":"57.1297355","Longitude":"27.2457358","Name":"5.Ezermalas līnija"},{"Latitude":"57.1354788","Longitude":"27.3014813","Name":"6 celiņš"},{"Latitude":"56.6106905","Longitude":"21.0412201","Name":"6. iela"},{"Latitude":"57.3053236","Longitude":"24.4302350","Name":"6. līnija"},{"Latitude":"57.1291314","Longitude":"27.2452929","Name":"6.Ezermalas līnija"},{"Latitude":"57.1356718","Longitude":"27.3028570","Name":"7 celiņš"},{"Latitude":"57.3854930","Longitude":"24.4172191","Name":"7. Ziemeļu iela"},{"Latitude":"56.6110876","Longitude":"21.0430383","Name":"7. iela"},{"Latitude":"57.3047037","Longitude":"24.4301102","Name":"7. līnija"},{"Latitude":"57.3149089","Longitude":"24.4429236","Name":"7. šķērsiela"},{"Latitude":"57.1289349","Longitude":"27.2444881","Name":"7.Ezermalas līnija"},{"Latitude":"57.1352100","Longitude":"27.3052586","Name":"8 celiņš"},{"Latitude":"57.3854734","Longitude":"24.4160461","Name":"8. Ziemeļu iela"},{"Latitude":"56.6117097","Longitude":"21.0428782","Name":"8. iela"},{"Latitude":"57.3040590","Longitude":"24.4299663","Name":"8. līnija"},{"Latitude":"57.5053389","Longitude":"24.7260240","Name":"8. marta iela"},{"Latitude":"57.1287256","Longitude":"27.2437621","Name":"8.Ezermalas līnija"},{"Latitude":"57.1339858","Longitude":"27.3088726","Name":"9 celiņš"},{"Latitude":"57.3871486","Longitude":"24.4153010","Name":"9. Ziemeļu iela"},{"Latitude":"56.7856731","Longitude":"23.9210730","Name":"9. līnija"},{"Latitude":"57.2403323","Longitude":"22.5735933","Name":"9. maija iela"},{"Latitude":"57.1283115","Longitude":"27.2431757","Name":"9.Ezermalas līnija"},{"Latitude":"56.6122908","Longitude":"21.0429833","Name":"9.iela"},{"Latitude":"56.3393726","Longitude":"25.5518386","Name":"A. Brodeles iela"},{"Latitude":"56.5459356","Longitude":"27.7342817","Name":"A. Jurdža iela"},{"Latitude":"56.5002267","Longitude":"21.0034218","Name":"A. Klints iela"},{"Latitude":"57.3888238","Longitude":"21.5518244","Name":"A. Pumpura iela"},{"Latitude":"57.3914043","Longitude":"21.5532173","Name":"A. Puškina iela"},{"Latitude":"56.9712768","Longitude":"26.3096079","Name":"A. Saulieša iela"},{"Latitude":"56.3789190","Longitude":"22.5647862","Name":"A. Vienažindžio g."},{"Latitude":"56.9717815","Longitude":"26.3073873","Name":"A. Vitola iela"},{"Latitude":"56.9369518","Longitude":"22.9235919","Name":"A008"},{"Latitude":"56.9575300","Longitude":"22.8500608","Name":"A012"},{"Latitude":"55.8774662","Longitude":"26.4919553","Name":"A13"},{"Latitude":"56.6929777","Longitude":"26.1284706","Name":"A3 Aburti-Upesdzīšļi"},{"Latitude":"56.6790091","Longitude":"26.0890453","Name":"A4 Sāviena-Ķunci"},{"Latitude":"56.5885119","Longitude":"25.6024965","Name":"A6 - Brīvkapi"},{"Latitude":"56.5949238","Longitude":"25.6000302","Name":"A6 - Maldas"},{"Latitude":"56.6087686","Longitude":"25.5302387","Name":"A6 - Porieši"},{"Latitude":"56.5952326","Longitude":"25.5484322","Name":"A6 112km - Eglītes - Rīteru kapi"},{"Latitude":"56.5852160","Longitude":"25.5827179","Name":"A6 112km - Pieši - Vārpas"},{"Latitude":"57.7710852","Longitude":"26.0465064","Name":"Aasa"},{"Latitude":"56.9661502","Longitude":"22.0045176","Name":"Abavas iela"},{"Latitude":"57.0800412","Longitude":"22.4726862","Name":"Abavciems — Veģi"},{"Latitude":"55.7544676","Longitude":"26.7902831","Name":"Abiteļu iela"},{"Latitude":"58.0420500","Longitude":"25.3661240","Name":"Abja-Paluoja — Läti piir"},{"Latitude":"57.0022565","Longitude":"24.2693279","Name":"Aboras iela"},{"Latitude":"56.9443160","Longitude":"24.1304582","Name":"Abrenes iela"},{"Latitude":"57.1569226","Longitude":"25.9578029","Name":"Abrupe — Jēči — Gatarta"},{"Latitude":"56.8728035","Longitude":"24.1283715","Name":"Absolventu iela"},{"Latitude":"57.5179051","Longitude":"25.4495709","Name":"Abula iela"},{"Latitude":"56.9791614","Longitude":"24.1485823","Name":"Abulas iela"},{"Latitude":"56.9371289","Longitude":"24.2864763","Name":"Acones iela"},{"Latitude":"57.3250008","Longitude":"24.4481372","Name":"Acāliju iela"},{"Latitude":"56.9678318","Longitude":"21.9622499","Name":"Adatu iela"},{"Latitude":"57.0298831","Longitude":"24.0344686","Name":"Admirāļu iela"},{"Latitude":"56.9209732","Longitude":"24.0829347","Name":"Adulienas iela"},{"Latitude":"56.8763498","Longitude":"21.6003531","Name":"Adze — Gudenieki — Ēdole"},{"Latitude":"56.9424182","Longitude":"24.2345148","Name":"Afeldu iela"},{"Latitude":"56.1201342","Longitude":"27.0197514","Name":"Aglonas iela"},{"Latitude":"57.2908225","Longitude":"25.2797762","Name":"Agras iela"},{"Latitude":"56.6573434","Longitude":"23.6568893","Name":"Agroķīmiķu iela"},{"Latitude":"57.4212191","Longitude":"24.6928104","Name":"Agru iela"},{"Latitude":"57.4360690","Longitude":"21.7887425","Name":"Agu dambis"},{"Latitude":"57.7757497","Longitude":"26.0358727","Name":"Aia"},{"Latitude":"56.8959911","Longitude":"24.5050674","Name":"Ainas iela"},{"Latitude":"56.9644545","Longitude":"24.1900520","Name":"Ainavas iela"},{"Latitude":"56.3949200","Longitude":"24.1959600","Name":"Ainavu iela"},{"Latitude":"57.7482572","Longitude":"24.9268222","Name":"Ainaži — Matīši"},{"Latitude":"56.9867151","Longitude":"24.2354766","Name":"Ainažu iela"},{"Latitude":"57.8369752","Longitude":"24.7435071","Name":"Ainažu šosēja"},{"Latitude":"57.0572028","Longitude":"24.1034607","Name":"Airu iela"},{"Latitude":"56.8959135","Longitude":"24.1241092","Name":"Airītes iela"},{"Latitude":"56.6441229","Longitude":"21.4802909","Name":"Aistere — Rāva — Avoti"},{"Latitude":"56.9542473","Longitude":"24.0725146","Name":"Aisteres iela"},{"Latitude":"56.9368738","Longitude":"24.1573975","Name":"Aiviekstes iela"},{"Latitude":"56.5377273","Longitude":"25.7174589","Name":"Aizkraukle — Jēkabpils"},{"Latitude":"56.9751661","Longitude":"24.1857361","Name":"Aizkraukles iela"},{"Latitude":"56.6116136","Longitude":"25.2674658","Name":"Aizkraukles stacija - Aizkraukle"},{"Latitude":"56.8890946","Longitude":"26.4900268","Name":"Aizkuja — Meirāni"},{"Latitude":"55.8877646","Longitude":"26.5494810","Name":"Aizpilsētas iela"},{"Latitude":"56.9753902","Longitude":"24.1944721","Name":"Aizpriežu iela"},{"Latitude":"56.6352178","Longitude":"21.6741091","Name":"Aizpute — Kalvene"},{"Latitude":"56.8005534","Longitude":"21.4985515","Name":"Aizpute — Saka"},{"Latitude":"56.6597897","Longitude":"21.5595417","Name":"Aizpute-Ilmāja"},{"Latitude":"56.9590017","Longitude":"21.9460722","Name":"Aizputes iela"},{"Latitude":"56.9846804","Longitude":"24.1479941","Name":"Aizsaules iela"},{"Latitude":"56.9717396","Longitude":"24.1942425","Name":"Aizsila iela"},{"Latitude":"56.8603948","Longitude":"24.2869393","Name":"Aizsprosta iela"},{"Latitude":"56.8974440","Longitude":"22.8188698","Name":"Aizstrauši — Starpiņas"},{"Latitude":"56.6928154","Longitude":"23.8058564","Name":"Aizupe"},{"Latitude":"56.8534312","Longitude":"22.7800594","Name":"Aizupe — Alkšņi — Strutele — Auziņas"},{"Latitude":"56.6270627","Longitude":"23.2680842","Name":"Aizupes iela"},{"Latitude":"56.9493662","Longitude":"24.1836610","Name":"Aizvaru iela"},{"Latitude":"57.0721961","Longitude":"24.1060194","Name":"Aizvēja iela"},{"Latitude":"57.1046308","Longitude":"24.1930167","Name":"Aizvēju iela"},{"Latitude":"56.3451084","Longitude":"21.6904308","Name":"Aizvīķi — Gramzda"},{"Latitude":"55.8659328","Longitude":"26.5801942","Name":"Akademiķa Graftio iela"},{"Latitude":"56.6469235","Longitude":"23.7306788","Name":"Akadēmijas iela"},{"Latitude":"56.9400866","Longitude":"24.1997469","Name":"Akadēmiķa Mstislava Keldiša iela"},{"Latitude":"56.9563093","Longitude":"24.1246630","Name":"Akas iela"},{"Latitude":"56.9330299","Longitude":"24.0982958","Name":"Akaču iela"},{"Latitude":"57.3186666","Longitude":"25.2812977","Name":"Akmens iela"},{"Latitude":"56.9445046","Longitude":"24.1010786","Name":"Akmens tilts"},{"Latitude":"57.3453167","Longitude":"24.6619036","Name":"Akmentiņu iela"},{"Latitude":"57.4657548","Longitude":"21.6896000","Name":"Akmeņdziru ceļš"},{"Latitude":"57.7295845","Longitude":"24.4152295","Name":"Akmeņkalni — Lauvas — Ķekari"},{"Latitude":"56.8721868","Longitude":"24.1855769","Name":"Akmeņsalas iela"},{"Latitude":"56.6626242","Longitude":"23.7963479","Name":"Akmeņu ceļš"},{"Latitude":"56.9385153","Longitude":"24.0951557","Name":"Akmeņu iela"},{"Latitude":"56.9175154","Longitude":"24.2114317","Name":"Aknīstes iela"},{"Latitude":"56.9452360","Longitude":"24.1894589","Name":"Akotu iela"},{"Latitude":"56.5986409","Longitude":"23.6894288","Name":"Aku ceļš"},{"Latitude":"57.2847019","Longitude":"24.4178622","Name":"Akācijas iela"},{"Latitude":"56.9517014","Longitude":"21.9771589","Name":"Akāciju aleja"},{"Latitude":"56.5968364","Longitude":"25.6340790","Name":"Akāciju iela"},{"Latitude":"57.5248254","Longitude":"22.3770587","Name":"Alakstes dambis"},{"Latitude":"56.9608516","Longitude":"24.1492769","Name":"Alauksta iela"},{"Latitude":"57.0520138","Longitude":"24.0678711","Name":"Albatrosu iela"},{"Latitude":"56.9517952","Longitude":"23.6362940","Name":"Alberta Kronenberga iela"},{"Latitude":"56.9590043","Longitude":"24.1098642","Name":"Alberta iela"},{"Latitude":"57.4394604","Longitude":"27.1151567","Name":"Aldara iela"},{"Latitude":"56.9504224","Longitude":"24.1064679","Name":"Aldaru iela"},{"Latitude":"56.4783000","Longitude":"25.8774157","Name":"Aldaunas iela"},{"Latitude":"57.0563223","Longitude":"24.3340435","Name":"Alderu ceļš"},{"Latitude":"57.0409093","Longitude":"24.3333086","Name":"Alderu iela"},{"Latitude":"57.3374488","Longitude":"25.1404908","Name":"Alejas iela"},{"Latitude":"56.9448980","Longitude":"24.0207505","Name":"Aleksandra Bieziņa iela"},{"Latitude":"56.9425990","Longitude":"24.0829075","Name":"Aleksandra Grīna bulvāris"},{"Latitude":"56.4805541","Longitude":"25.8816990","Name":"Aleksandra Grīna iela"},{"Latitude":"57.3912743","Longitude":"21.5697475","Name":"Aleksandra iela"},{"Latitude":"56.9625180","Longitude":"24.1480878","Name":"Aleksandra Čaka iela"},{"Latitude":"56.8653785","Longitude":"24.1302793","Name":"Alekseja iela"},{"Latitude":"56.9927809","Longitude":"24.1257622","Name":"Alekša iela"},{"Latitude":"56.9547669","Longitude":"23.6696175","Name":"Alfrēda Amtmaņa-Briedīša iela"},{"Latitude":"57.2716124","Longitude":"24.4251028","Name":"Alfrēda Kalniņa iela"},{"Latitude":"56.8879225","Longitude":"24.0284285","Name":"Alises iela"},{"Latitude":"56.6074469","Longitude":"25.6165252","Name":"Alkšņi - Ozolkalns"},{"Latitude":"57.2710215","Longitude":"24.7439408","Name":"Alkšņi — Lēdurga — Ausmas — Mārstagi"},{"Latitude":"56.4677807","Longitude":"22.9166015","Name":"Alkšņu iela"},{"Latitude":"56.9977173","Longitude":"24.1210738","Name":"Allažu iela"},{"Latitude":"57.7794856","Longitude":"26.0449837","Name":"Allika"},{"Latitude":"56.1208607","Longitude":"27.0128011","Name":"Aloiza Broka iela"},{"Latitude":"57.7552954","Longitude":"24.9183856","Name":"Aloja — Stūri"},{"Latitude":"57.8417738","Longitude":"24.8306751","Name":"Aloja — Vīķi"},{"Latitude":"56.9665021","Longitude":"24.1321221","Name":"Alojas iela"},{"Latitude":"57.1616760","Longitude":"21.5754498","Name":"Alsunga — Tērande — Ziras"},{"Latitude":"56.9187931","Longitude":"24.0764145","Name":"Alsungas iela"},{"Latitude":"56.9894212","Longitude":"24.2266563","Name":"Alsupes iela"},{"Latitude":"57.4330679","Longitude":"27.0314000","Name":"Alsviķu iela"},{"Latitude":"56.9271729","Longitude":"24.0798671","Name":"Altonavas iela"},{"Latitude":"56.8498037","Longitude":"26.2150886","Name":"Alunāna iela"},{"Latitude":"57.5226725","Longitude":"25.3781107","Name":"Alvila Freimaņa iela"},{"Latitude":"56.3942844","Longitude":"24.7742294","Name":"Alytaus g."},{"Latitude":"56.3956927","Longitude":"24.7726303","Name":"Alyvų g."},{"Latitude":"57.0689859","Longitude":"24.3432500","Name":"Alīdas iela"},{"Latitude":"56.9605467","Longitude":"23.1858980","Name":"Alīnes iela"},{"Latitude":"56.9461748","Longitude":"24.0682666","Name":"Alīses iela"},{"Latitude":"57.4302847","Longitude":"26.9842743","Name":"Alūksne — Ape"},{"Latitude":"57.1991154","Longitude":"26.7651503","Name":"Alūksne — Kalniena — Gulbene"},{"Latitude":"57.3427878","Longitude":"27.4615162","Name":"Alūksne — Liepna"},{"Latitude":"57.4417987","Longitude":"27.1790061","Name":"Alūksne — Zaiceva"},{"Latitude":"57.5026560","Longitude":"27.0714195","Name":"Alūksne — Ziemeri — Veclaicene"},{"Latitude":"56.9689725","Longitude":"24.0991945","Name":"Alūksnes iela"},{"Latitude":"57.3182020","Longitude":"25.2672507","Name":"Amatas iela"},{"Latitude":"56.4622970","Longitude":"22.8967873","Name":"Amatnieku iela"},{"Latitude":"56.9495510","Longitude":"24.1078469","Name":"Amatu iela"},{"Latitude":"57.3725178","Longitude":"22.5874375","Name":"Ambrakas iela"},{"Latitude":"57.3753328","Longitude":"22.2295791","Name":"Amele — Stikli"},{"Latitude":"57.0073439","Longitude":"24.2727407","Name":"Amoliņa iela"},{"Latitude":"57.3140113","Longitude":"24.4166612","Name":"Amoliņu iela"},{"Latitude":"56.9679255","Longitude":"23.7561955","Name":"Amulas iela"},{"Latitude":"56.9388425","Longitude":"24.0764087","Name":"Amālijas iela"},{"Latitude":"57.5266434","Longitude":"22.0313241","Name":"Ance — Trumpi"},{"Latitude":"56.8827085","Longitude":"24.1620617","Name":"Ances iela"},{"Latitude":"56.9896726","Longitude":"24.2899534","Name":"Andas iela"},{"Latitude":"56.8745620","Longitude":"24.8276032","Name":"Andersona ceļš"},{"Latitude":"56.2887552","Longitude":"26.7329580","Name":"Andreja Paulāna iela"},{"Latitude":"56.4973110","Longitude":"25.8531480","Name":"Andreja Pormaļa iela"},{"Latitude":"56.9566456","Longitude":"24.1107022","Name":"Andreja Pumpura iela"},{"Latitude":"56.9363641","Longitude":"24.2028846","Name":"Andreja Saharova iela"},{"Latitude":"56.8218856","Longitude":"24.5752187","Name":"Andreja Upīša iela"},{"Latitude":"56.8058918","Longitude":"24.6246036","Name":"Andreja iela"},{"Latitude":"56.9664860","Longitude":"24.0958898","Name":"Andrejostas iela"},{"Latitude":"57.8408470","Longitude":"25.4611221","Name":"Andricēni–Nurmi"},{"Latitude":"56.9604609","Longitude":"24.1986896","Name":"Andromedas gatve"},{"Latitude":"57.0628585","Longitude":"24.3137952","Name":"Andromēdas iela"},{"Latitude":"56.1695739","Longitude":"27.4633970","Name":"Andrupene — Kondraši"},{"Latitude":"56.0745823","Longitude":"27.9312647","Name":"Andžāni — Leimaņi — Punduri"},{"Latitude":"56.8252008","Longitude":"24.4053015","Name":"Anemones ceļš"},{"Latitude":"56.8149878","Longitude":"24.6582709","Name":"Anemoņu iela"},{"Latitude":"57.0553129","Longitude":"24.3591425","Name":"Anetes iela"},{"Latitude":"56.9499210","Longitude":"24.1020307","Name":"Anglikāņu iela"},{"Latitude":"57.0283620","Longitude":"24.1111149","Name":"Anitas iela"},{"Latitude":"57.0368759","Longitude":"26.7176605","Name":"Ankupene–Daukste–Ligo"},{"Latitude":"56.4540550","Longitude":"22.9020922","Name":"Annas Brigaderes iela"},{"Latitude":"57.0010909","Longitude":"24.1680388","Name":"Annas Sakses iela"},{"Latitude":"56.9628918","Longitude":"24.1303400","Name":"Annas iela"},{"Latitude":"56.8917497","Longitude":"24.8156066","Name":"Annas stiga"},{"Latitude":"56.7144103","Longitude":"23.0426873","Name":"Annenieki — Jaunpils"},{"Latitude":"57.3214073","Longitude":"24.4297538","Name":"Anniņas iela"},{"Latitude":"56.9563092","Longitude":"24.0088096","Name":"Anniņmuižas bulvāris"},{"Latitude":"56.9494494","Longitude":"24.0086210","Name":"Anniņmuižas iela"},{"Latitude":"56.9164953","Longitude":"24.1139657","Name":"Antenas iela"},{"Latitude":"56.9998672","Longitude":"23.4120367","Name":"Antiņciems-Smārde"},{"Latitude":"56.9598311","Longitude":"24.1134235","Name":"Antonijas iela"},{"Latitude":"56.9033899","Longitude":"24.7553662","Name":"Anziķa ceļš"},{"Latitude":"56.5295039","Longitude":"27.3177999","Name":"Ančupānu iela"},{"Latitude":"57.2835788","Longitude":"24.4545149","Name":"Anīsa iela"},{"Latitude":"57.0745285","Longitude":"26.7658938","Name":"Anķupene — Daukste — Līgo"},{"Latitude":"57.2459594","Longitude":"22.5840804","Name":"Anša Lerha-Puškaiša iela"},{"Latitude":"56.7864708","Longitude":"23.2449110","Name":"Anša-Lerha Puškaiša bulvāris"},{"Latitude":"56.6889064","Longitude":"22.5689970","Name":"Apakšstacijas iela"},{"Latitude":"56.8974594","Longitude":"24.7628449","Name":"Apaļkoku ceļš"},{"Latitude":"56.3914236","Longitude":"24.7626238","Name":"Apaščios g."},{"Latitude":"56.9591950","Longitude":"26.3123857","Name":"Apbraucamais ceļš nr. 1"},{"Latitude":"56.9682761","Longitude":"26.2878181","Name":"Apbraucamais ceļš nr. 2"},{"Latitude":"56.9783311","Longitude":"26.3173971","Name":"Apbraucamais ceļš nr. 3"},{"Latitude":"56.6103861","Longitude":"23.2779640","Name":"Apbūviešu iela"},{"Latitude":"57.4599212","Longitude":"26.6798953","Name":"Ape — Ādams"},{"Latitude":"57.4313520","Longitude":"27.0346657","Name":"Apes"},{"Latitude":"57.4327810","Longitude":"27.0336331","Name":"Apes iela"},{"Latitude":"56.9184404","Longitude":"24.0776725","Name":"Apguldes iela"},{"Latitude":"56.4490403","Longitude":"23.2734370","Name":"Apguldes stacija — Bukaiši"},{"Latitude":"57.2998647","Longitude":"24.4219699","Name":"Apiņu iela"},{"Latitude":"56.8872744","Longitude":"24.0634275","Name":"Aplociņu iela"},{"Latitude":"57.0251498","Longitude":"24.1308636","Name":"Aplokciema iela"},{"Latitude":"56.9701520","Longitude":"21.9606514","Name":"Aploku iela"},{"Latitude":"56.9344516","Longitude":"24.1849827","Name":"Apmetņu iela"},{"Latitude":"56.6107164","Longitude":"23.6824171","Name":"Apoga iela"},{"Latitude":"57.0885470","Longitude":"24.3732282","Name":"Apogu iela"},{"Latitude":"57.1183631","Longitude":"24.2343147","Name":"Aprikožu iela"},{"Latitude":"56.7358390","Longitude":"21.3731850","Name":"Apriķi — Cīrava — Medze"},{"Latitude":"56.9247961","Longitude":"24.0774876","Name":"Apriķu iela"},{"Latitude":"57.5223611","Longitude":"25.3372770","Name":"Apsīšu Jēkaba iela"},{"Latitude":"56.9985217","Longitude":"24.1185392","Name":"Aptiekas iela"},{"Latitude":"56.9412728","Longitude":"24.0205498","Name":"Apuzes iela"},{"Latitude":"56.9212819","Longitude":"24.4220708","Name":"Apvedceļš - Jauncekule"},{"Latitude":"57.3843821","Longitude":"21.5997501","Name":"Apvedtilts"},{"Latitude":"57.7782404","Longitude":"25.9947992","Name":"Apvienības iela"},{"Latitude":"57.0627727","Longitude":"24.1396768","Name":"Apļa iela"},{"Latitude":"56.8761618","Longitude":"23.9411107","Name":"Apšu iela"},{"Latitude":"57.3031431","Longitude":"25.2371656","Name":"Apūtas iela"},{"Latitude":"56.8717578","Longitude":"24.1499584","Name":"Araišu iela"},{"Latitude":"55.8976110","Longitude":"26.5269404","Name":"Arendoles iela"},{"Latitude":"57.1488491","Longitude":"24.2882970","Name":"Argona iela"},{"Latitude":"56.9504813","Longitude":"24.1166397","Name":"Arhitektu iela"},{"Latitude":"56.9628907","Longitude":"24.1258813","Name":"Aristida Briāna iela"},{"Latitude":"56.5863516","Longitude":"23.6661649","Name":"Armijas iela"},{"Latitude":"56.9241295","Longitude":"24.0925271","Name":"Armitsteda iela"},{"Latitude":"57.0009210","Longitude":"24.2675322","Name":"Armērijas iela"},{"Latitude":"56.4985161","Longitude":"20.9998236","Name":"Arnolda iela"},{"Latitude":"55.8806012","Longitude":"26.5457853","Name":"Arodu iela"},{"Latitude":"56.9524363","Longitude":"24.2408392","Name":"Aronas iela"},{"Latitude":"56.9515644","Longitude":"21.9987698","Name":"Aroniju aleja"},{"Latitude":"57.3136135","Longitude":"25.1539781","Name":"Aroniju iela"},{"Latitude":"55.8928349","Longitude":"27.1817458","Name":"Aronsona iela"},{"Latitude":"56.9508976","Longitude":"24.1028323","Name":"Arsenāla iela"},{"Latitude":"56.8632672","Longitude":"24.1377359","Name":"Artas iela"},{"Latitude":"56.9575332","Longitude":"24.1422429","Name":"Artilērijas iela"},{"Latitude":"57.0029697","Longitude":"24.0291505","Name":"Artura Galindoma iela"},{"Latitude":"56.9554804","Longitude":"23.6907278","Name":"Artūra iela"},{"Latitude":"55.8512893","Longitude":"26.5237681","Name":"Arāju iela"},{"Latitude":"56.9740529","Longitude":"24.1213453","Name":"Arēnas iela"},{"Latitude":"57.1841189","Longitude":"25.2225717","Name":"Asaru ezers — Melturi"},{"Latitude":"57.3157904","Longitude":"24.4194399","Name":"Asaru iela"},{"Latitude":"56.9566562","Longitude":"23.6453607","Name":"Asaru prospekts"},{"Latitude":"56.7602748","Longitude":"24.3853914","Name":"Asenberģu ceļš"},{"Latitude":"57.3879445","Longitude":"24.4088645","Name":"Asnu iela"},{"Latitude":"56.9164055","Longitude":"24.1998481","Name":"Asotes iela"},{"Latitude":"56.9467187","Longitude":"24.1155321","Name":"Aspazijas bulvāris"},{"Latitude":"56.9728093","Longitude":"23.7785016","Name":"Aspazijas iela"},{"Latitude":"57.1467582","Longitude":"22.5342357","Name":"Aspāzijas iela"},{"Latitude":"57.1192993","Longitude":"24.2323082","Name":"Asteru iela"},{"Latitude":"56.8107201","Longitude":"24.6484537","Name":"Astilbju iela"},{"Latitude":"57.4190385","Longitude":"22.3439540","Name":"Astotais kilometrs"},{"Latitude":"57.5363438","Longitude":"21.9629084","Name":"Astotais meža ceļš"},{"Latitude":"57.5422976","Longitude":"22.0070087","Name":"Astotais meža ceļš 1"},{"Latitude":"57.2461289","Longitude":"24.4752142","Name":"Astotā iela"},{"Latitude":"56.9299736","Longitude":"24.0529906","Name":"Astras iela"},{"Latitude":"57.0531526","Longitude":"24.3649518","Name":"Astrīdas iela"},{"Latitude":"56.9210908","Longitude":"24.0769840","Name":"Asītes iela"},{"Latitude":"56.0261424","Longitude":"27.6258624","Name":"Asūne — L. Grizāni — Porečje"},{"Latitude":"56.0850555","Longitude":"27.6956958","Name":"Asūne — Panova"},{"Latitude":"56.0897049","Longitude":"27.5362198","Name":"Asūnes iela"},{"Latitude":"57.3174430","Longitude":"25.2945281","Name":"Ata Kronvalda iela"},{"Latitude":"56.9600096","Longitude":"24.1543611","Name":"Ata iela"},{"Latitude":"57.0707214","Longitude":"24.2724851","Name":"Ataru ceļš"},{"Latitude":"56.9585451","Longitude":"23.6459459","Name":"Atbalss iela"},{"Latitude":"57.1569019","Longitude":"24.8606042","Name":"Atbrīvotāju iela"},{"Latitude":"56.4995824","Longitude":"27.3272117","Name":"Atbrīvošanas aleja"},{"Latitude":"56.9160344","Longitude":"24.0874431","Name":"Atgāzenes iela"},{"Latitude":"57.0419569","Longitude":"24.0894592","Name":"Atlantijas iela"},{"Latitude":"56.9799806","Longitude":"24.1535393","Name":"Atlasa iela"},{"Latitude":"55.8887520","Longitude":"26.5442736","Name":"Atmatas iela"},{"Latitude":"56.5727877","Longitude":"21.0102216","Name":"Atmodas bulvāris"},{"Latitude":"56.7193501","Longitude":"21.6041300","Name":"Atmodas iela"},{"Latitude":"56.9329850","Longitude":"24.0596252","Name":"Atpūtas iela"},{"Latitude":"57.5752987","Longitude":"24.7689714","Name":"Atpūtas — Strazdiņi"},{"Latitude":"57.0660895","Longitude":"24.2707070","Name":"Atspulga iela"},{"Latitude":"56.8562860","Longitude":"24.2740075","Name":"Attekas ceļš"},{"Latitude":"57.0793588","Longitude":"24.3245309","Name":"Attekas iela"},{"Latitude":"57.2306023","Longitude":"24.4087432","Name":"Atvaru ceļš"},{"Latitude":"57.3193643","Longitude":"24.4284282","Name":"Atvaru iela"},{"Latitude":"57.0601326","Longitude":"24.1401520","Name":"Atzaru iela"},{"Latitude":"56.4866319","Longitude":"22.9014683","Name":"Auce — Lielauce"},{"Latitude":"56.4139263","Longitude":"22.8150306","Name":"Auce — Vadakste"},{"Latitude":"56.4815353","Longitude":"22.8483213","Name":"Auce — Ķevele"},{"Latitude":"56.9427571","Longitude":"24.0815743","Name":"Auces iela"},{"Latitude":"57.3755436","Longitude":"25.2812996","Name":"Auciems - Lenči - Strīķi - Ķiene"},{"Latitude":"56.7760330","Longitude":"23.9187107","Name":"Audriņu iela"},{"Latitude":"56.9895746","Longitude":"24.2251913","Name":"Auduma iela"},{"Latitude":"57.0513005","Longitude":"24.0768492","Name":"Audupes iela"},{"Latitude":"56.9475115","Longitude":"24.1134468","Name":"Audēju iela"},{"Latitude":"56.9841577","Longitude":"24.3010433","Name":"Augstienes iela"},{"Latitude":"56.4012737","Longitude":"23.2506101","Name":"Augstkalne — Bēne"},{"Latitude":"56.6397921","Longitude":"23.7050008","Name":"Augstkalnes iela"},{"Latitude":"56.5299798","Longitude":"21.1811220","Name":"Augstmuižas iela"},{"Latitude":"56.9833069","Longitude":"24.1603535","Name":"Augstrozes iela"},{"Latitude":"57.1335351","Longitude":"23.2224442","Name":"Augstrožu iela"},{"Latitude":"57.4180500","Longitude":"25.9025585","Name":"Augstā iela"},{"Latitude":"56.8487196","Longitude":"26.1993736","Name":"Augu iela"},{"Latitude":"57.2588502","Longitude":"26.7483307","Name":"Auguliena - Beļava - Litene"},{"Latitude":"56.9530402","Longitude":"24.1569444","Name":"Augusta Deglava iela"},{"Latitude":"57.0289114","Longitude":"24.1157284","Name":"Augusta Dombrovska iela"},{"Latitude":"57.3891193","Longitude":"25.4293504","Name":"Augusta Jullas iela"},{"Latitude":"56.7491556","Longitude":"24.4107551","Name":"Augusta Saulieša iela"},{"Latitude":"57.3803831","Longitude":"21.5796536","Name":"Augusta iela"},{"Latitude":"56.5235050","Longitude":"21.0186099","Name":"Augustes iela"},{"Latitude":"55.9134950","Longitude":"26.6423323","Name":"Augļu iela"},{"Latitude":"56.6141310","Longitude":"23.6819428","Name":"Augļudārzu iela"},{"Latitude":"56.9543072","Longitude":"24.1557908","Name":"Augšiela"},{"Latitude":"56.8459402","Longitude":"25.1551131","Name":"Augšlīgatne — Skrīveri"},{"Latitude":"56.9449630","Longitude":"24.0244843","Name":"Augšzemes iela"},{"Latitude":"57.0634403","Longitude":"24.1352677","Name":"Auklu iela"},{"Latitude":"56.9230651","Longitude":"24.0714796","Name":"Aurenieku iela"},{"Latitude":"56.9610331","Longitude":"24.0074651","Name":"Auru iela"},{"Latitude":"57.8664918","Longitude":"25.0610592","Name":"Aurupītes iela"},{"Latitude":"56.4941359","Longitude":"25.8870934","Name":"Auseklīša iela"},{"Latitude":"56.9623755","Longitude":"24.1002334","Name":"Ausekļa iela"},{"Latitude":"56.8252479","Longitude":"24.5852304","Name":"Ausekļa prospekts"},{"Latitude":"57.8964295","Longitude":"25.3381353","Name":"Ausekļu iela"},{"Latitude":"56.4653018","Longitude":"22.8981462","Name":"Ausmas iela"},{"Latitude":"56.7106980","Longitude":"24.8213908","Name":"Austras iela"},{"Latitude":"55.8940259","Longitude":"27.1556248","Name":"Austriņa iela"},{"Latitude":"56.7135267","Longitude":"24.8249262","Name":"Austriņu ceļš"},{"Latitude":"57.7962119","Longitude":"25.1411541","Name":"Austrumi — Vecate — Rimeikas"},{"Latitude":"56.6264850","Longitude":"23.2919409","Name":"Austrumu iela"},{"Latitude":"56.9159741","Longitude":"24.1650083","Name":"Austuves iela"},{"Latitude":"56.5198929","Longitude":"21.0145726","Name":"Autoru iela"},{"Latitude":"55.8247122","Longitude":"26.7734159","Name":"Auzini Cervonka"},{"Latitude":"56.8704451","Longitude":"23.9404105","Name":"Auziņu iela"},{"Latitude":"56.9262454","Longitude":"23.5976460","Name":"Auzu iela"},{"Latitude":"56.3973938","Longitude":"24.7726276","Name":"Aušros g."},{"Latitude":"56.6941277","Longitude":"23.7558860","Name":"Avenu iela"},{"Latitude":"56.9520950","Longitude":"21.9983358","Name":"Aveņu aleja"},{"Latitude":"56.9519246","Longitude":"23.9194886","Name":"Aveņu iela"},{"Latitude":"56.9029241","Longitude":"24.2019220","Name":"Aviācijas iela"},{"Latitude":"56.4495711","Longitude":"24.5944543","Name":"Avota iela"},{"Latitude":"57.3938244","Longitude":"21.5512744","Name":"Avotakas laukums"},{"Latitude":"57.4472187","Longitude":"22.2898256","Name":"Avotiņi - Kalēji"},{"Latitude":"56.9333688","Longitude":"24.3402199","Name":"Avotiņu iela"},{"Latitude":"57.0039659","Longitude":"24.2727916","Name":"Avotkalnu iela"},{"Latitude":"56.9507767","Longitude":"24.1332307","Name":"Avotu iela"},{"Latitude":"57.3179509","Longitude":"24.4253894","Name":"Aģes iela"},{"Latitude":"57.0507551","Longitude":"24.0992583","Name":"Aļģu iela"},{"Latitude":"57.1071075","Longitude":"24.2078503","Name":"Aļņu iela"},{"Latitude":"56.6826142","Longitude":"26.1047810","Name":"B-34 Driķi-Indrāni"},{"Latitude":"56.6615103","Longitude":"26.1315523","Name":"B24 Sāvienas skola - Salas"},{"Latitude":"56.6730269","Longitude":"26.0815831","Name":"B25 Upesdzīšļi-Ezergali"},{"Latitude":"56.6585955","Longitude":"26.0832176","Name":"B26 Ezergali-Mežāres"},{"Latitude":"56.9734869","Longitude":"23.8771599","Name":"Babītes iela"},{"Latitude":"56.9592454","Longitude":"23.9512883","Name":"Babītes stacija — Vārnukrogs"},{"Latitude":"56.9873524","Longitude":"24.2903591","Name":"Baibas iela"},{"Latitude":"56.9725726","Longitude":"24.1796388","Name":"Bajāru iela"},{"Latitude":"56.9475560","Longitude":"24.0872051","Name":"Balasta dambis"},{"Latitude":"57.4019647","Longitude":"21.5885158","Name":"Balasta iela"},{"Latitude":"56.7438777","Longitude":"24.4402243","Name":"Baldone — Tome"},{"Latitude":"57.3764067","Longitude":"21.5759617","Name":"Baldones iela"},{"Latitude":"57.1360133","Longitude":"22.9759269","Name":"Balgale — Zentene"},{"Latitude":"56.5888870","Longitude":"25.5046696","Name":"Baloži - Staburaga ceļš"},{"Latitude":"56.7658054","Longitude":"24.1083423","Name":"Baloži — Plakanciems — Iecava"},{"Latitude":"57.3169934","Longitude":"21.9864680","Name":"Baloži — Puzenieki — Puzes stacija"},{"Latitude":"57.4257862","Longitude":"27.0449175","Name":"Baložu bulvāris"},{"Latitude":"56.9454931","Longitude":"24.0723271","Name":"Baložu iela"},{"Latitude":"56.9970066","Longitude":"24.2824316","Name":"Baložu prospekts"},{"Latitude":"56.9703940","Longitude":"24.0136115","Name":"Baltegļu iela"},{"Latitude":"57.0457688","Longitude":"24.3162873","Name":"Baltezera iela"},{"Latitude":"57.0568611","Longitude":"24.2965652","Name":"Baltezers — Ataru ezers"},{"Latitude":"57.0772130","Longitude":"24.4837422","Name":"Baltezers — Āņi — Lapmeži"},{"Latitude":"57.2945658","Longitude":"24.4101307","Name":"Baltijas iela"},{"Latitude":"56.9689711","Longitude":"27.6933250","Name":"Baltinava — Punduri"},{"Latitude":"56.9446459","Longitude":"24.2345553","Name":"Baltinavas iela"},{"Latitude":"56.0288579","Longitude":"26.2106384","Name":"Baltini-Rurani"},{"Latitude":"56.0264317","Longitude":"26.2124344","Name":"Baltini-Sidrabini"},{"Latitude":"57.0766308","Longitude":"24.1404206","Name":"Baltirbju iela"},{"Latitude":"56.8919619","Longitude":"24.0323062","Name":"Baltlāču iela"},{"Latitude":"57.1466168","Longitude":"24.2861696","Name":"Balto Ceriņu"},{"Latitude":"56.9006196","Longitude":"24.3828857","Name":"Balto Ķrišu iela"},{"Latitude":"56.8723990","Longitude":"24.1198192","Name":"Baltā iela"},{"Latitude":"57.4695150","Longitude":"22.2050026","Name":"Baltākalna ceļš"},{"Latitude":"56.9931916","Longitude":"23.9403283","Name":"Baltās kāpas iela"},{"Latitude":"57.0362842","Longitude":"24.0965765","Name":"Baltāsbaznīcas iela"},{"Latitude":"57.0442223","Longitude":"27.1927844","Name":"Balvi — Kapūne"},{"Latitude":"57.1940188","Longitude":"27.3939509","Name":"Balvi — Kuprava"},{"Latitude":"57.0818526","Longitude":"27.1282948","Name":"Balvi — Teteri — Upatnieki"},{"Latitude":"57.1850185","Longitude":"27.6666076","Name":"Balvu iela"},{"Latitude":"57.2641839","Longitude":"24.4449069","Name":"Bangas iela"},{"Latitude":"57.4247547","Longitude":"21.6396568","Name":"Bangu iela"},{"Latitude":"57.2473979","Longitude":"22.5832306","Name":"Baptistu iela"},{"Latitude":"56.6329056","Longitude":"23.6792481","Name":"Baraviku iela"},{"Latitude":"56.8654188","Longitude":"24.1338101","Name":"Barbaras iela"},{"Latitude":"56.7999633","Longitude":"26.7474217","Name":"Barkava — Lubāna"},{"Latitude":"56.8952703","Longitude":"26.7195495","Name":"Barkavas iela"},{"Latitude":"56.8755571","Longitude":"24.5186669","Name":"Barona iela"},{"Latitude":"57.4315811","Longitude":"25.3848692","Name":"Barona taka"},{"Latitude":"56.7293494","Longitude":"23.0192051","Name":"Baronu iela"},{"Latitude":"56.9681300","Longitude":"25.8114083","Name":"Barotavas ceļš"},{"Latitude":"55.6949681","Longitude":"26.4509403","Name":"Bartkiškės g."},{"Latitude":"57.3516828","Longitude":"24.4041091","Name":"Baseina iela"},{"Latitude":"56.8637613","Longitude":"21.6170936","Name":"Basi — Apriķi"},{"Latitude":"56.9086565","Longitude":"24.0923032","Name":"Basu iela"},{"Latitude":"56.5164436","Longitude":"21.0079651","Name":"Baterijas iela"},{"Latitude":"57.5148012","Longitude":"24.7152899","Name":"Baumaņu Kārļa laukums"},{"Latitude":"56.8647041","Longitude":"24.7837564","Name":"Baura ceļš"},{"Latitude":"56.3708717","Longitude":"24.1483684","Name":"Bauska - Bērzi - Ādžūni - Lietuvas robeža"},{"Latitude":"56.4243261","Longitude":"24.1840884","Name":"Bauska - Kundziņi"},{"Latitude":"56.4239988","Longitude":"24.3098359","Name":"Bauska — Aizkraukle"},{"Latitude":"56.3177006","Longitude":"24.4921984","Name":"Bauska — Brunava — Paņemūne (Budberga)"},{"Latitude":"56.6061769","Longitude":"24.5216827","Name":"Bauska — Linde"},{"Latitude":"56.4899479","Longitude":"24.1248921","Name":"Bauska — Mežotne — Bērzu skola"},{"Latitude":"56.4010200","Longitude":"24.1540900","Name":"Bauska — Priedītes"},{"Latitude":"56.9202079","Longitude":"24.0976217","Name":"Bauskas iela"},{"Latitude":"57.1630307","Longitude":"24.8515471","Name":"Baznīcas iela"},{"Latitude":"57.4225005","Longitude":"25.9047524","Name":"Baznīcas laukums"},{"Latitude":"56.7572395","Longitude":"23.8785855","Name":"Baznīcas stiga"},{"Latitude":"56.5130125","Longitude":"25.9274292","Name":"Baļotes iela"},{"Latitude":"56.9601094","Longitude":"23.6821807","Name":"Baļķu iela"},{"Latitude":"56.9886599","Longitude":"24.2956129","Name":"Baņutas iela"},{"Latitude":"55.6977112","Longitude":"26.4576716","Name":"Bažnyčios g."},{"Latitude":"56.9472225","Longitude":"23.9620973","Name":"Beberbeķu 5. līnija"},{"Latitude":"56.9467617","Longitude":"23.9582728","Name":"Beberbeķu 6. līnija"},{"Latitude":"56.9469800","Longitude":"23.9542687","Name":"Beberbeķu 7. līnija"},{"Latitude":"56.9407126","Longitude":"23.9527841","Name":"Beberbeķu 9. līnija"},{"Latitude":"56.9516668","Longitude":"23.9659648","Name":"Beberbeķu iela"},{"Latitude":"56.9577500","Longitude":"24.2884457","Name":"Bebrenes iela"},{"Latitude":"56.6452517","Longitude":"23.6985003","Name":"Bebru ceļš"},{"Latitude":"56.9574640","Longitude":"24.0302900","Name":"Bebru iela"},{"Latitude":"57.3999250","Longitude":"24.5531090","Name":"Bedrīši — Stienes stacija — Vidriži"},{"Latitude":"55.9331213","Longitude":"26.5898239","Name":"Begoniju iela"},{"Latitude":"56.8803293","Longitude":"24.3307866","Name":"Beikas iela"},{"Latitude":"56.5602231","Longitude":"23.7764426","Name":"Beiku iela"},{"Latitude":"57.5345653","Longitude":"25.3817265","Name":"Beites iela"},{"Latitude":"56.8131782","Longitude":"24.2258641","Name":"Beitiņu iela"},{"Latitude":"56.8660806","Longitude":"24.1314916","Name":"Benedikta iela"},{"Latitude":"57.0020960","Longitude":"24.1552385","Name":"Bergenas iela"},{"Latitude":"56.8982222","Longitude":"24.6478875","Name":"Berlīnes līnija"},{"Latitude":"56.6704599","Longitude":"24.3587062","Name":"Bernasti - Dzelzāmurs - Rātstrauti"},{"Latitude":"56.9994349","Longitude":"24.1677946","Name":"Bernātu iela"},{"Latitude":"56.6039741","Longitude":"25.0945287","Name":"Berzu iela"},{"Latitude":"56.9992573","Longitude":"24.2759590","Name":"Berģu iela"},{"Latitude":"56.8965895","Longitude":"24.0462222","Name":"Beržu iela"},{"Latitude":"56.1620404","Longitude":"25.2750722","Name":"Beržų g."},{"Latitude":"57.2265827","Longitude":"21.7080443","Name":"Bestes ceļš"},{"Latitude":"57.0417369","Longitude":"24.4351008","Name":"Betānijas iela"},{"Latitude":"57.3224500","Longitude":"24.4206980","Name":"Beverīnas iela"},{"Latitude":"56.8796093","Longitude":"23.9829642","Name":"Bezdelīgu iela"},{"Latitude":"57.5415643","Longitude":"25.4079654","Name":"Beātes iela"},{"Latitude":"57.0120656","Longitude":"24.0787751","Name":"Beķergrāvja iela"},{"Latitude":"56.8405648","Longitude":"27.1227077","Name":"Beļauski - Mičuļi"},{"Latitude":"56.9838542","Longitude":"24.2414212","Name":"Biatlona iela"},{"Latitude":"57.3956950","Longitude":"21.5633638","Name":"Biedrības iela"},{"Latitude":"56.9291223","Longitude":"24.0991933","Name":"Bieķensalas iela"},{"Latitude":"57.1146189","Longitude":"22.9740231","Name":"Bieļas — Kaive — Lamiņi — Zentene"},{"Latitude":"56.9266609","Longitude":"24.0872088","Name":"Biešu iela"},{"Latitude":"56.7014905","Longitude":"22.9580047","Name":"Biksti - Lieluži"},{"Latitude":"56.9081142","Longitude":"24.0842045","Name":"Bikstu iela"},{"Latitude":"56.9240585","Longitude":"26.3615177","Name":"Biksēre — Aizkuja — Dzelzava"},{"Latitude":"56.9287291","Longitude":"24.1957487","Name":"Biksēres iela"},{"Latitude":"57.0480742","Longitude":"25.3212399","Name":"Bikši — Annas — Kliģene — Medņukalns"},{"Latitude":"57.5032099","Longitude":"26.0501516","Name":"Bilska - Mēri"},{"Latitude":"57.3169622","Longitude":"24.4306037","Name":"Biologu iela"},{"Latitude":"56.9208684","Longitude":"23.9871330","Name":"Biroju iela"},{"Latitude":"56.5405356","Longitude":"27.7103652","Name":"Birzas iela"},{"Latitude":"56.8674470","Longitude":"24.1401313","Name":"Birzes iela"},{"Latitude":"56.8195447","Longitude":"24.6412535","Name":"Birzgales iela"},{"Latitude":"56.3935700","Longitude":"24.1931800","Name":"Birznieku iela"},{"Latitude":"57.3429666","Longitude":"24.4212123","Name":"Birztalas iela"},{"Latitude":"57.0419137","Longitude":"24.0855436","Name":"Birztalu iela"},{"Latitude":"57.5590054","Longitude":"25.4364320","Name":"Birzītes iela"},{"Latitude":"56.8509254","Longitude":"26.2131569","Name":"Biržu iela"},{"Latitude":"56.3942795","Longitude":"24.7705127","Name":"Biržų g."},{"Latitude":"56.8927773","Longitude":"24.2444904","Name":"Bitenieku iela"},{"Latitude":"56.6053752","Longitude":"25.2507161","Name":"Bitenu iela"},{"Latitude":"56.9577592","Longitude":"24.0184071","Name":"Bitera iela"},{"Latitude":"56.9976205","Longitude":"24.2898196","Name":"Bitēnu iela"},{"Latitude":"56.9563122","Longitude":"24.2512830","Name":"Biķernieku iela"},{"Latitude":"56.8088777","Longitude":"24.6504699","Name":"Biškrēsliņu iela"},{"Latitude":"57.2963968","Longitude":"24.4249526","Name":"Bišu iela"},{"Latitude":"56.9520558","Longitude":"24.1257735","Name":"Blaumaņa iela"},{"Latitude":"57.3893501","Longitude":"26.1520013","Name":"Blome — Birzuļi — Palsmane"},{"Latitude":"56.7636653","Longitude":"23.9314875","Name":"Blukas — Emburga"},{"Latitude":"56.8641880","Longitude":"24.1343134","Name":"Bluķa iela"},{"Latitude":"56.6289672","Longitude":"23.6843176","Name":"Blāzmas iela"},{"Latitude":"56.6701576","Longitude":"22.7315314","Name":"Blīdene — Remte"},{"Latitude":"56.9077458","Longitude":"24.0892147","Name":"Blīdenes iela"},{"Latitude":"56.9829897","Longitude":"24.2430645","Name":"Bobsleja iela"},{"Latitude":"56.9926667","Longitude":"23.9148459","Name":"Bocmaņu iela"},{"Latitude":"56.6806996","Longitude":"21.6530990","Name":"Boju gatve"},{"Latitude":"56.9652380","Longitude":"24.0444161","Name":"Bolderājas iela"},{"Latitude":"56.9952814","Longitude":"24.2657455","Name":"Bonaventuras iela"},{"Latitude":"57.1530695","Longitude":"24.2864868","Name":"Bora iela"},{"Latitude":"55.8831132","Longitude":"26.9750874","Name":"Borovka — Tartaki"},{"Latitude":"56.5532827","Longitude":"21.0108728","Name":"Botkina iela"},{"Latitude":"56.8574410","Longitude":"24.3829033","Name":"Botāniķu iela"},{"Latitude":"56.8030248","Longitude":"27.7061892","Name":"Bozova — Kaskāni"},{"Latitude":"56.9290972","Longitude":"24.0834958","Name":"Boļeslava Sloskāna iela"},{"Latitude":"56.9211710","Longitude":"23.8538005","Name":"Božu ceļš"},{"Latitude":"56.9830582","Longitude":"24.2516908","Name":"Braila iela"},{"Latitude":"56.9139829","Longitude":"24.0737953","Name":"Bramberģes iela"},{"Latitude":"56.8546409","Longitude":"24.7806700","Name":"Brandenburgas bānītis"},{"Latitude":"57.7544676","Longitude":"24.3711332","Name":"Branguļmeža iela"},{"Latitude":"56.9257836","Longitude":"24.0348565","Name":"Branguļu iela"},{"Latitude":"57.3172703","Longitude":"25.8166111","Name":"Branti — Pieniņi — Launkalne"},{"Latitude":"56.9781350","Longitude":"24.1456864","Name":"Brasas tilts"},{"Latitude":"56.9020187","Longitude":"24.0591843","Name":"Braslas iela"},{"Latitude":"55.8551809","Longitude":"26.5593098","Name":"Braslavas iela"},{"Latitude":"56.3844179","Longitude":"27.3278243","Name":"Bratova — Lūznava — Vertukšņa"},{"Latitude":"57.3065189","Longitude":"24.4159158","Name":"Bražu iela"},{"Latitude":"56.9718115","Longitude":"23.8676885","Name":"Bražuciema iela"},{"Latitude":"56.8975433","Longitude":"24.5147461","Name":"Brektu ceļš"},{"Latitude":"56.9561829","Longitude":"24.2767338","Name":"Brekšu iela"},{"Latitude":"57.5527130","Longitude":"25.5522500","Name":"Brenguļi-Brenguļu stacija"},{"Latitude":"57.5270783","Longitude":"25.4366691","Name":"Brenguļu iela"},{"Latitude":"56.9537381","Longitude":"27.6162973","Name":"Briežciems — Baltinava"},{"Latitude":"57.4201955","Longitude":"25.3249433","Name":"Brieži — Vaidava — Druļi — Baužu ezers"},{"Latitude":"57.5028960","Longitude":"21.7690409","Name":"Briežu ceļš"},{"Latitude":"57.6122228","Longitude":"24.6093067","Name":"Briežu gatve"},{"Latitude":"56.9743964","Longitude":"21.9818235","Name":"Briežu iela"},{"Latitude":"56.9635894","Longitude":"25.8261952","Name":"Briežudārza ceļš"},{"Latitude":"56.6440969","Longitude":"23.6976237","Name":"Brigaderes iela"},{"Latitude":"56.9157807","Longitude":"24.0461356","Name":"Brigādes iela"},{"Latitude":"56.9612100","Longitude":"23.6213502","Name":"Brikšķu iela"},{"Latitude":"56.5464798","Longitude":"21.0108868","Name":"Britu flotes iela"},{"Latitude":"57.1904251","Longitude":"25.0481126","Name":"Brivibas iela"},{"Latitude":"57.1035754","Longitude":"23.1045405","Name":"Brizule — Rideļi"},{"Latitude":"55.7347018","Longitude":"26.5400230","Name":"Briģenes iela"},{"Latitude":"56.9092414","Longitude":"24.0839246","Name":"Briņģu iela"},{"Latitude":"55.8613719","Longitude":"26.5200365","Name":"Brjanskas iela"},{"Latitude":"56.6592115","Longitude":"22.5733592","Name":"Brocēni — Imantas — Namiķi"},{"Latitude":"57.3788218","Longitude":"21.5623297","Name":"Brocēnu iela"},{"Latitude":"56.4757653","Longitude":"25.8858387","Name":"Brodu iela"},{"Latitude":"57.1512508","Longitude":"24.2861402","Name":"Broma iela"},{"Latitude":"56.9055890","Longitude":"24.0902565","Name":"Brucenes iela"},{"Latitude":"56.4649291","Longitude":"24.5618041","Name":"Brukna — Baltiņi — Bārbele"},{"Latitude":"56.9027058","Longitude":"24.0858065","Name":"Bruknas iela"},{"Latitude":"56.9152443","Longitude":"24.1292255","Name":"Brunavas iela"},{"Latitude":"55.8622740","Longitude":"26.5331177","Name":"Bruģu iela"},{"Latitude":"56.9484716","Longitude":"24.1467683","Name":"Bruņinieku iela"},{"Latitude":"57.2532220","Longitude":"24.4249518","Name":"Brāļu Kaudzīšu iela"},{"Latitude":"56.5042072","Longitude":"27.3330162","Name":"Brāļu Skrindu iela"},{"Latitude":"56.5064647","Longitude":"21.0059420","Name":"Brāļu iela"},{"Latitude":"56.8980550","Longitude":"24.4977822","Name":"Brēmenes iela"},{"Latitude":"57.5327951","Longitude":"25.4026289","Name":"Brēžas iela"},{"Latitude":"57.6193354","Longitude":"22.4804445","Name":"Brīnumsalas ceļš"},{"Latitude":"57.2993503","Longitude":"24.4218250","Name":"Brīnumu iela"},{"Latitude":"56.9956962","Longitude":"24.2679621","Name":"Brīvdabas iela"},{"Latitude":"57.0966358","Longitude":"23.0655498","Name":"Brīvnieki — Dzirciems — Jēči"},{"Latitude":"56.8611640","Longitude":"24.2269528","Name":"Brīvnieki-Bites"},{"Latitude":"56.9077310","Longitude":"24.0683062","Name":"Brīvnieku iela"},{"Latitude":"56.5247518","Longitude":"21.0002644","Name":"Brīvostas iela"},{"Latitude":"57.6639295","Longitude":"24.7738798","Name":"Brīvuļi — Ārciems"},{"Latitude":"56.7217957","Longitude":"21.6088869","Name":"Brīvzemnieka bulvāris"},{"Latitude":"57.7817166","Longitude":"25.9985243","Name":"Brīvzemnieka iela"},{"Latitude":"56.6560752","Longitude":"23.7403741","Name":"Brīvības bulvāris"},{"Latitude":"56.9701507","Longitude":"24.1570940","Name":"Brīvības gatve"},{"Latitude":"56.4695193","Longitude":"22.9167524","Name":"Brīvības iela"},{"Latitude":"56.9652015","Longitude":"23.1546282","Name":"Brīvības laukums"},{"Latitude":"56.9820789","Longitude":"23.8572072","Name":"Brīvības prospekts"},{"Latitude":"57.1168548","Longitude":"23.2194314","Name":"Brīzes ceļš"},{"Latitude":"57.0480074","Longitude":"24.1045801","Name":"Brīzes iela"},{"Latitude":"57.3147626","Longitude":"24.4206581","Name":"Brūklenāju iela"},{"Latitude":"56.9095862","Longitude":"24.0492086","Name":"Brūkleņu iela"},{"Latitude":"57.4492183","Longitude":"22.3334238","Name":"Brūkļu ceļš"},{"Latitude":"57.4257784","Longitude":"25.9157081","Name":"Brūža iela"},{"Latitude":"57.0367724","Longitude":"24.0487182","Name":"Brūžu iela"},{"Latitude":"56.8673911","Longitude":"24.3419230","Name":"Budeskalnu iela"},{"Latitude":"57.0775722","Longitude":"23.2702608","Name":"Budu iela"},{"Latitude":"56.9144846","Longitude":"24.1415511","Name":"Bukaišu iela"},{"Latitude":"56.9132179","Longitude":"24.0931431","Name":"Bukas iela"},{"Latitude":"57.0622758","Longitude":"24.9676954","Name":"Bukas — Mālpils"},{"Latitude":"56.4888166","Longitude":"27.3462408","Name":"Bukmuižas iela"},{"Latitude":"56.8139678","Longitude":"24.2295266","Name":"Buku iela"},{"Latitude":"56.9791591","Longitude":"24.1249344","Name":"Bukultu iela"},{"Latitude":"57.0110501","Longitude":"24.2307510","Name":"Buldurpungas iela"},{"Latitude":"56.9820255","Longitude":"23.8407837","Name":"Bulduru prospekts"},{"Latitude":"57.4651810","Longitude":"25.8528399","Name":"Buliņi iela"},{"Latitude":"57.0004764","Longitude":"23.9436369","Name":"Bullēnu iela"},{"Latitude":"56.9080089","Longitude":"24.1915983","Name":"Bultu iela"},{"Latitude":"57.6913243","Longitude":"25.9657997","Name":"Bulvāris"},{"Latitude":"56.9526446","Longitude":"21.9978700","Name":"Bumbieru aleja"},{"Latitude":"56.6592661","Longitude":"23.6414999","Name":"Bumbieru ceļš"},{"Latitude":"56.8912161","Longitude":"24.1871710","Name":"Bumbieru iela"},{"Latitude":"57.0360789","Longitude":"24.0444464","Name":"Bungu iela"},{"Latitude":"56.3954646","Longitude":"21.4256008","Name":"Bunka — Paplaka — Mazkalēti"},{"Latitude":"57.5481076","Longitude":"25.4485268","Name":"Burkānu iela"},{"Latitude":"57.6828251","Longitude":"25.3206381","Name":"Burtnieki — Zvārtes"},{"Latitude":"56.9664369","Longitude":"24.1816807","Name":"Burtnieku iela"},{"Latitude":"57.3335145","Longitude":"24.4235996","Name":"Buru iela"},{"Latitude":"57.1011311","Longitude":"24.3467584","Name":"Burvju iela"},{"Latitude":"56.9440510","Longitude":"24.0773934","Name":"Buršu iela"},{"Latitude":"56.6647547","Longitude":"22.4459660","Name":"Butnāri–Saldus"},{"Latitude":"55.8950447","Longitude":"26.5626817","Name":"Butļerova iela"},{"Latitude":"56.9774200","Longitude":"24.0263370","Name":"Buļļu iela"},{"Latitude":"56.9955915","Longitude":"23.9497344","Name":"Buļļupes iela"},{"Latitude":"57.0540036","Longitude":"24.0695536","Name":"Bākas iela"},{"Latitude":"57.0610524","Longitude":"24.3177351","Name":"Bākšas ceļš"},{"Latitude":"56.9859304","Longitude":"24.2364995","Name":"Bākūžu iela"},{"Latitude":"57.3360843","Longitude":"23.1027365","Name":"Bānīša iela"},{"Latitude":"56.6426008","Longitude":"23.6766720","Name":"Bāra ceļš"},{"Latitude":"56.9064006","Longitude":"24.0818424","Name":"Bārbeles iela"},{"Latitude":"56.8111182","Longitude":"24.6564022","Name":"Bārbeļu iela"},{"Latitude":"56.9390030","Longitude":"24.1317336","Name":"Bārddziņu iela"},{"Latitude":"56.9369670","Longitude":"24.0808375","Name":"Bāriņu iela"},{"Latitude":"56.3570402","Longitude":"21.5388546","Name":"Bārta — Kalēti — Gramzda"},{"Latitude":"56.3448666","Longitude":"21.0655258","Name":"Bārtas iela"},{"Latitude":"56.9078394","Longitude":"24.0887362","Name":"Bātas iela"},{"Latitude":"56.8260822","Longitude":"24.4524660","Name":"Bēgļu ceļš"},{"Latitude":"56.4934585","Longitude":"22.9807998","Name":"Bēne — Lielauce"},{"Latitude":"56.3721520","Longitude":"23.0523071","Name":"Bēne — Ukri"},{"Latitude":"56.4658663","Longitude":"22.9053415","Name":"Bēnes iela"},{"Latitude":"57.5082562","Longitude":"22.3507290","Name":"Bērndārza ceļš"},{"Latitude":"56.4394965","Longitude":"23.9203058","Name":"Bērsteles iela"},{"Latitude":"56.8664173","Longitude":"24.1303353","Name":"Bērtuļa iela"},{"Latitude":"56.6333135","Longitude":"23.6784884","Name":"Bērzaines iela"},{"Latitude":"56.8638463","Longitude":"26.0082283","Name":"Bērzaune — Tomēni — Gaiziņkalns"},{"Latitude":"56.8631698","Longitude":"25.8645519","Name":"Bērzaune — Vestiena — Ērgļi"},{"Latitude":"56.8005588","Longitude":"25.9142698","Name":"Bērzaune — Viesūnēni — Zīdiņi"},{"Latitude":"56.9001030","Longitude":"26.1197476","Name":"Bērzaune — Zelgauska — Kusa — Oļi — Cesvaine"},{"Latitude":"56.9807497","Longitude":"23.8302862","Name":"Bērzaunes iela"},{"Latitude":"56.8748953","Longitude":"24.1507655","Name":"Bērzavoti iela"},{"Latitude":"56.6308086","Longitude":"23.2854275","Name":"Bērzes iela"},{"Latitude":"56.7036680","Longitude":"22.5618363","Name":"Bērzi — Brocēnu stacija"},{"Latitude":"56.9824914","Longitude":"24.3507913","Name":"Bērziņkalna iela"},{"Latitude":"57.4068837","Longitude":"27.5641501","Name":"Bērziņu ceļš"},{"Latitude":"56.9310068","Longitude":"24.2544027","Name":"Bērziņu iela"},{"Latitude":"57.0081436","Longitude":"24.2706228","Name":"Bērzkalnes iela"},{"Latitude":"56.9005871","Longitude":"24.0658677","Name":"Bērzkalnu iela"},{"Latitude":"57.1201251","Longitude":"24.2372419","Name":"Bērzlapju iela"},{"Latitude":"56.9055711","Longitude":"24.0837927","Name":"Bērzlapu iela"},{"Latitude":"56.9792407","Longitude":"24.1696124","Name":"Bērzpils iela"},{"Latitude":"56.4108124","Longitude":"24.2058660","Name":"Bērzu"},{"Latitude":"57.3132342","Longitude":"24.4136975","Name":"Bērzu aleja"},{"Latitude":"56.6793802","Longitude":"23.7396056","Name":"Bērzu ceļš"},{"Latitude":"57.1165961","Longitude":"24.3424712","Name":"Bērzu gatve"},{"Latitude":"56.9458189","Longitude":"22.0100049","Name":"Bērzu iela"},{"Latitude":"56.9142866","Longitude":"24.0962062","Name":"Bērzupes iela"},{"Latitude":"56.8809282","Longitude":"22.9898993","Name":"Bētiņa iela"},{"Latitude":"57.2433185","Longitude":"22.6096051","Name":"Bētiņu iela"},{"Latitude":"57.2670663","Longitude":"24.4195859","Name":"Bīriņu iela"},{"Latitude":"56.9482194","Longitude":"24.1023283","Name":"Bīskapa gāte"},{"Latitude":"57.6962368","Longitude":"24.7416591","Name":"Būdele — Jāņdzirnavas"},{"Latitude":"57.5350642","Longitude":"22.3500525","Name":"Būkalti-Izgāztuve-Ozoli"},{"Latitude":"56.9376028","Longitude":"24.2396972","Name":"Būmaņu iela"},{"Latitude":"56.6387876","Longitude":"23.6827069","Name":"Būriņu ceļš"},{"Latitude":"56.7082724","Longitude":"24.1203820","Name":"Būvnieku iela"},{"Latitude":"56.9842993","Longitude":"22.9721069","Name":"C003"},{"Latitude":"56.9662732","Longitude":"22.9572313","Name":"C009"},{"Latitude":"56.9788347","Longitude":"22.9990208","Name":"C010"},{"Latitude":"56.9948300","Longitude":"22.8604593","Name":"C013"},{"Latitude":"56.9483684","Longitude":"22.8458307","Name":"C016"},{"Latitude":"56.8990257","Longitude":"23.9601242","Name":"C10"},{"Latitude":"57.1519886","Longitude":"24.2844784","Name":"Candera iela"},{"Latitude":"56.9730277","Longitude":"23.8151275","Name":"Carnikavas iela"},{"Latitude":"57.3022555","Longitude":"25.2800128","Name":"Caunas iela"},{"Latitude":"56.9814608","Longitude":"24.1894942","Name":"Caunes iela"},{"Latitude":"57.1070344","Longitude":"24.2054172","Name":"Caunu iela"},{"Latitude":"56.7378548","Longitude":"25.0091935","Name":"Cebēni — Lēdmane"},{"Latitude":"56.9229108","Longitude":"24.4055690","Name":"Cekules iela"},{"Latitude":"56.8726791","Longitude":"23.9446437","Name":"Celmu iela"},{"Latitude":"56.3428220","Longitude":"26.1996688","Name":"Celtniecības iela"},{"Latitude":"56.8154407","Longitude":"24.2252159","Name":"Celtnieku iela"},{"Latitude":"56.5016151","Longitude":"25.8693287","Name":"Celtuves iela"},{"Latitude":"56.9692533","Longitude":"24.0619968","Name":"Cementa iela"},{"Latitude":"57.5209975","Longitude":"25.5448640","Name":"Cempi — Brenguļi — Trikāta — Vijciems"},{"Latitude":"57.5154499","Longitude":"25.4552379","Name":"Cempu iela"},{"Latitude":"56.4903448","Longitude":"21.0083393","Name":"Cenkones iela"},{"Latitude":"57.2528395","Longitude":"22.5836084","Name":"Censoņu iela"},{"Latitude":"56.5591360","Longitude":"25.6392621","Name":"Centra"},{"Latitude":"57.1024083","Longitude":"24.7450529","Name":"Centra ceturtā iela"},{"Latitude":"56.3785804","Longitude":"23.9303482","Name":"Centra iela"},{"Latitude":"57.1036760","Longitude":"24.7442083","Name":"Centra otrā iela"},{"Latitude":"57.1021846","Longitude":"24.7469354","Name":"Centra piektā iela"},{"Latitude":"57.1043624","Longitude":"24.7439006","Name":"Centra pirmā iela"},{"Latitude":"57.1010141","Longitude":"24.7483058","Name":"Centra septītā iela"},{"Latitude":"57.1014751","Longitude":"24.7472075","Name":"Centra sestā iela"},{"Latitude":"57.1030353","Longitude":"24.7445030","Name":"Centra trešā iela"},{"Latitude":"55.8248681","Longitude":"26.8806042","Name":"Centrāles iela"},{"Latitude":"56.9431267","Longitude":"24.1126563","Name":"Centrāltirgus iela"},{"Latitude":"57.2611492","Longitude":"24.4358357","Name":"Centrālā iela"},{"Latitude":"57.8337076","Longitude":"24.7531563","Name":"Ceplu iela"},{"Latitude":"56.9127520","Longitude":"24.5529366","Name":"Ceplīšu iela"},{"Latitude":"57.6479921","Longitude":"26.1818631","Name":"Cepurītes ceļš"},{"Latitude":"56.9560341","Longitude":"21.9926132","Name":"Cepurīšu iela"},{"Latitude":"56.9238471","Longitude":"24.0953578","Name":"Cepļa iela"},{"Latitude":"57.2331404","Longitude":"24.4088807","Name":"Cepļi - Inčupes Stacija"},{"Latitude":"57.3804051","Longitude":"21.5755326","Name":"Cepļu iela"},{"Latitude":"56.3664745","Longitude":"24.3268097","Name":"Ceraukste — Skultēni"},{"Latitude":"56.9091595","Longitude":"24.1342129","Name":"Ceraukstes iela"},{"Latitude":"56.6125430","Longitude":"25.0688701","Name":"Cerinu iela"},{"Latitude":"57.5777522","Longitude":"22.3941608","Name":"Ceriņi - Kokleja"},{"Latitude":"57.1328858","Longitude":"24.2530356","Name":"Ceriņkrūmu iela"},{"Latitude":"56.9497263","Longitude":"21.9779008","Name":"Ceriņu aleja"},{"Latitude":"57.1660359","Longitude":"23.2258750","Name":"Ceriņu gatve"},{"Latitude":"57.3732841","Longitude":"25.0252835","Name":"Ceriņu ielA"},{"Latitude":"56.6447864","Longitude":"23.7080856","Name":"Ceriņu iela"},{"Latitude":"56.8581319","Longitude":"24.3345974","Name":"Ceru iela"},{"Latitude":"56.3959189","Longitude":"24.1833619","Name":"Cerību iela"},{"Latitude":"56.9464087","Longitude":"26.3756229","Name":"Cesvaine — Aizkuja"},{"Latitude":"57.1354207","Longitude":"26.4251208","Name":"Cesvaine — Velēna"},{"Latitude":"56.8564605","Longitude":"26.2282252","Name":"Cesvaines iela"},{"Latitude":"56.5941035","Longitude":"25.6692614","Name":"Ceļinieki — Pļavnieki"},{"Latitude":"56.9957131","Longitude":"24.1243616","Name":"Ceļinieku iela"},{"Latitude":"57.0199338","Longitude":"24.2069985","Name":"Ceļmalas iela"},{"Latitude":"56.9073461","Longitude":"24.2333073","Name":"Ceļteku iela"},{"Latitude":"57.6001847","Longitude":"26.2205786","Name":"Ceļš Mežmuiža-Cirgaļi"},{"Latitude":"56.8766192","Longitude":"24.5576147","Name":"Ceļš Priedaiņi-Vīksnas"},{"Latitude":"55.8948817","Longitude":"26.5596433","Name":"Cialkovska iela"},{"Latitude":"57.1795130","Longitude":"24.3765450","Name":"Cibuļu iela"},{"Latitude":"56.9527756","Longitude":"23.9413200","Name":"Cidonijas iela"},{"Latitude":"56.9500621","Longitude":"21.9980668","Name":"Cidoniju aleja"},{"Latitude":"56.9241637","Longitude":"24.2568574","Name":"Cidoniju iela"},{"Latitude":"56.7997473","Longitude":"22.1208574","Name":"Ciecere — Ikaiši — Vārme"},{"Latitude":"56.9313045","Longitude":"24.0768411","Name":"Cieceres iela"},{"Latitude":"57.0397823","Longitude":"24.1025782","Name":"Ciedru iela"},{"Latitude":"57.1341498","Longitude":"24.2479524","Name":"Cielaviņu iela"},{"Latitude":"57.0935822","Longitude":"24.3231377","Name":"Cielavu iela"},{"Latitude":"56.9850041","Longitude":"22.0203845","Name":"Ciema iela"},{"Latitude":"56.8217558","Longitude":"24.4243241","Name":"Ciemata ceļš"},{"Latitude":"57.2647835","Longitude":"27.6664123","Name":"Ciemata iela"},{"Latitude":"56.7989046","Longitude":"24.7490673","Name":"Ciemupe — Ogresgals"},{"Latitude":"56.9877602","Longitude":"24.2470663","Name":"Ciemupes iela"},{"Latitude":"55.8801135","Longitude":"26.5013068","Name":"Cietokšņa iela"},{"Latitude":"56.9307562","Longitude":"24.0848249","Name":"Cigoriņu iela"},{"Latitude":"57.0066557","Longitude":"24.1690936","Name":"Cimzes iela"},{"Latitude":"56.8387217","Longitude":"24.2170073","Name":"Ciniju iela"},{"Latitude":"56.8738342","Longitude":"23.9408830","Name":"Cinu iela"},{"Latitude":"56.9098645","Longitude":"24.0361680","Name":"Circeņu iela"},{"Latitude":"57.4721126","Longitude":"26.2114118","Name":"Cirgaļi — Palsmane — Ūdrupe"},{"Latitude":"57.1595549","Longitude":"22.0565710","Name":"Cirkales dambis"},{"Latitude":"57.0730801","Longitude":"24.0982777","Name":"Cirsmas iela"},{"Latitude":"57.6232185","Longitude":"22.3667406","Name":"Cirstes — Ciemgaļi"},{"Latitude":"56.9771576","Longitude":"25.8084940","Name":"Cirstu ceļš"},{"Latitude":"56.1286900","Longitude":"27.0161820","Name":"Cirīšu iela"},{"Latitude":"56.7402677","Longitude":"24.4028255","Name":"Ciršu iela"},{"Latitude":"56.5127682","Longitude":"27.1456656","Name":"Ciskādi — Dricēni"},{"Latitude":"56.9525258","Longitude":"24.1018865","Name":"Citadeles iela"},{"Latitude":"56.9530299","Longitude":"21.9765783","Name":"Citrusu aleja"},{"Latitude":"56.9503415","Longitude":"23.7509253","Name":"Ciļņu iela"},{"Latitude":"56.7391135","Longitude":"24.3805165","Name":"Ciņu iela"},{"Latitude":"56.9143832","Longitude":"24.0761107","Name":"Codes iela"},{"Latitude":"56.5444646","Longitude":"21.0553132","Name":"Cukura iela"},{"Latitude":"56.5150424","Longitude":"25.8506616","Name":"Cukurfabrikas iela"},{"Latitude":"56.8780360","Longitude":"24.1537373","Name":"Cālīšpurva iela"},{"Latitude":"56.5512310","Longitude":"21.0090125","Name":"Cēcu rotas iela"},{"Latitude":"57.1151530","Longitude":"22.8709860","Name":"Cēre — Pilsarāji — Gobas"},{"Latitude":"57.0931116","Longitude":"22.8706169","Name":"Cēres apvedceļš"},{"Latitude":"56.9126553","Longitude":"24.0719832","Name":"Cēres iela"},{"Latitude":"57.0249830","Longitude":"23.2132760","Name":"Cērkste - Rauda"},{"Latitude":"57.4126033","Longitude":"25.8779968","Name":"Cērtenes iela"},{"Latitude":"56.5964968","Longitude":"24.2222978","Name":"Cēsinieku iela"},{"Latitude":"57.2492546","Longitude":"25.2157210","Name":"Cēsis - Kārļi - Ieriķi"},{"Latitude":"57.4082971","Longitude":"25.3857454","Name":"Cēsis - Valmiera"},{"Latitude":"57.3421641","Longitude":"25.2599679","Name":"Cēsis - Ērgļu klintis"},{"Latitude":"57.2419960","Longitude":"25.2109706","Name":"Cēsis — Kārļi — Ieriķi"},{"Latitude":"57.3132012","Longitude":"25.1861001","Name":"Cēsis — Raiskums — Auciems"},{"Latitude":"57.1796714","Longitude":"25.4769857","Name":"Cēsis — Rāmuļi — Bānūži"},{"Latitude":"57.1240382","Longitude":"25.6781611","Name":"Cēsis — Vecpiebalga — Madona"},{"Latitude":"57.4263984","Longitude":"25.8924094","Name":"Cēsu Iela"},{"Latitude":"56.9625807","Longitude":"24.1353804","Name":"Cēsu iela"},{"Latitude":"57.3148244","Longitude":"25.3638511","Name":"Cēsu prospekts"},{"Latitude":"56.8108395","Longitude":"24.6429360","Name":"Cīniju iela"},{"Latitude":"56.9816290","Longitude":"24.3019758","Name":"Cīnītāju iela"},{"Latitude":"56.6275486","Longitude":"21.4918019","Name":"Cīrava — Vecpils — Stroķi"},{"Latitude":"56.7339703","Longitude":"21.3999971","Name":"Cīrava — Vidusmuiža"},{"Latitude":"56.5485608","Longitude":"21.0727537","Name":"Cīravas iela"},{"Latitude":"57.3058633","Longitude":"25.2480165","Name":"Cīrulīšu iela"},{"Latitude":"56.9239649","Longitude":"24.0698821","Name":"Cīruļu iela"},{"Latitude":"56.9019768","Longitude":"24.1485099","Name":"Cītaru iela"},{"Latitude":"57.1037646","Longitude":"22.8667231","Name":"Cīņu iela"},{"Latitude":"57.5681915","Longitude":"22.5503823","Name":"Cūku dambis"},{"Latitude":"57.5152217","Longitude":"24.8128774","Name":"Cūku iela"},{"Latitude":"57.0750614","Longitude":"24.3548738","Name":"Dadzīšu iela"},{"Latitude":"56.1856798","Longitude":"27.6519471","Name":"Dagda — Andzeļi — Ezernieki"},{"Latitude":"56.1844325","Longitude":"27.3935060","Name":"Dagdas iela"},{"Latitude":"56.9604848","Longitude":"24.0601283","Name":"Dagmāras iela"},{"Latitude":"56.9440165","Longitude":"23.7073861","Name":"Dagnijas iela"},{"Latitude":"56.9246486","Longitude":"24.0371142","Name":"Daibes iela"},{"Latitude":"57.0388897","Longitude":"22.9034441","Name":"Daigones iela"},{"Latitude":"57.1481893","Longitude":"24.8837950","Name":"Dailes"},{"Latitude":"57.5144866","Longitude":"24.7155825","Name":"Dailes iela"},{"Latitude":"56.6223872","Longitude":"23.7374148","Name":"Dainas iela"},{"Latitude":"56.8418261","Longitude":"24.4931598","Name":"Dainu iela"},{"Latitude":"57.7144446","Longitude":"25.6475645","Name":"Daksti — Jērcēni — Rami"},{"Latitude":"57.5126025","Longitude":"22.3497837","Name":"Dakterlejas iela"},{"Latitude":"57.4207642","Longitude":"25.9108668","Name":"Dakteru iela"},{"Latitude":"56.7126137","Longitude":"23.7890263","Name":"Dalbe — Lejasbēnūži"},{"Latitude":"56.7829674","Longitude":"23.9174894","Name":"Dalbes iela"},{"Latitude":"56.9884113","Longitude":"24.1251631","Name":"Dambja iela"},{"Latitude":"56.9737808","Longitude":"24.2414801","Name":"Dambjapurva iela"},{"Latitude":"56.9251128","Longitude":"23.9105804","Name":"Dambju iela"},{"Latitude":"56.9657634","Longitude":"24.0058526","Name":"Dammes iela"},{"Latitude":"57.3600453","Longitude":"21.5641975","Name":"Dampeļu gatve"},{"Latitude":"57.3245175","Longitude":"22.0310335","Name":"Dandzītes — Puzenieki"},{"Latitude":"56.9189029","Longitude":"24.1004788","Name":"Dandāles iela"},{"Latitude":"56.9437388","Longitude":"24.0519654","Name":"Darba iela"},{"Latitude":"57.7695362","Longitude":"24.8150322","Name":"Darbnīcu iela"},{"Latitude":"56.3811377","Longitude":"22.5664883","Name":"Dariaus ir Girėno g."},{"Latitude":"55.9057194","Longitude":"26.6474926","Name":"Darza iela"},{"Latitude":"56.9208406","Longitude":"24.0935969","Name":"Daudzeses iela"},{"Latitude":"56.4999147","Longitude":"25.2356446","Name":"Daudzeva — Viesīte — Apserde"},{"Latitude":"56.5011754","Longitude":"25.8835987","Name":"Daugavas Krasta iela"},{"Latitude":"55.8902610","Longitude":"27.1685869","Name":"Daugavas iela"},{"Latitude":"56.8279345","Longitude":"24.4915583","Name":"Daugavas prospekts"},{"Latitude":"56.8211873","Longitude":"24.5132681","Name":"Daugavgravas iela"},{"Latitude":"56.9438564","Longitude":"24.0841393","Name":"Daugavgrīvas iela"},{"Latitude":"57.0134750","Longitude":"24.0683878","Name":"Daugavgrīvas šoseja"},{"Latitude":"56.8627764","Longitude":"24.2605147","Name":"Daugavmalas iela"},{"Latitude":"55.8496911","Longitude":"26.6315742","Name":"Daugavpils apvedceļš (Tabore — Laucese)"},{"Latitude":"56.0954752","Longitude":"27.5398143","Name":"Daugavpils iela"},{"Latitude":"55.8592639","Longitude":"26.9523946","Name":"Daugavpils — Elerne — Lielborne"},{"Latitude":"55.9435438","Longitude":"26.4719477","Name":"Daugavpils — Tilti"},{"Latitude":"56.5120316","Longitude":"25.8518226","Name":"Daugavsalas iela"},{"Latitude":"56.8786388","Longitude":"24.1859026","Name":"Dauglāziajas iela"},{"Latitude":"57.0395552","Longitude":"22.8033166","Name":"Daugones iela"},{"Latitude":"56.9147858","Longitude":"24.0469726","Name":"Dauguļu iela"},{"Latitude":"57.2429097","Longitude":"22.6114469","Name":"Daģu iela"},{"Latitude":"56.8899697","Longitude":"24.1688698","Name":"Debess iela"},{"Latitude":"57.3880759","Longitude":"24.4054509","Name":"Debestiņu iela"},{"Latitude":"56.6097218","Longitude":"23.2758048","Name":"Deglava iela"},{"Latitude":"56.9538888","Longitude":"23.1244643","Name":"Degoles iela"},{"Latitude":"56.9954163","Longitude":"24.2245048","Name":"Degumu iela"},{"Latitude":"57.0164196","Longitude":"24.1201543","Name":"Degvielas iela"},{"Latitude":"56.7623332","Longitude":"24.3802136","Name":"Dekmaņu ceļš"},{"Latitude":"56.5705436","Longitude":"26.7870501","Name":"Dekšāre — Varakļānu stacija"},{"Latitude":"56.8982135","Longitude":"24.1753863","Name":"Delfīniju iela"},{"Latitude":"57.1030012","Longitude":"24.2169528","Name":"Delfīnu iela"},{"Latitude":"56.6382143","Longitude":"23.7212099","Name":"Delzceļnieku iela"},{"Latitude":"55.7258645","Longitude":"26.5504170","Name":"Demene — Caunes — Medumi"},{"Latitude":"55.8537637","Longitude":"26.5548643","Name":"Demenes iela"},{"Latitude":"57.1488371","Longitude":"24.8622669","Name":"Depo iela"},{"Latitude":"57.2478635","Longitude":"24.4658511","Name":"Desmitā iela"},{"Latitude":"56.9498504","Longitude":"24.1921643","Name":"Detlava Brantkalna iela"},{"Latitude":"57.2434621","Longitude":"24.4675792","Name":"Devītā iela"},{"Latitude":"57.3312200","Longitude":"27.6017233","Name":"Devītās barakas ceļš"},{"Latitude":"57.5376360","Longitude":"25.4217145","Name":"Diakonāta iela"},{"Latitude":"56.9490650","Longitude":"21.9781690","Name":"Dienvidu aleja"},{"Latitude":"57.2573775","Longitude":"27.6101645","Name":"Dienvidu ceļš"},{"Latitude":"56.7989545","Longitude":"24.6358857","Name":"Dienvidu iela"},{"Latitude":"57.6118821","Longitude":"22.5746962","Name":"Dieviņkangara ceļš"},{"Latitude":"56.7102620","Longitude":"24.8451954","Name":"Dievukalna iela"},{"Latitude":"56.9126889","Longitude":"24.1234641","Name":"Dignājas iela"},{"Latitude":"57.5306485","Longitude":"25.1367209","Name":"Dikļi — Mazbrenguļi"},{"Latitude":"56.9239351","Longitude":"24.0453187","Name":"Dikļu iela"},{"Latitude":"56.9207639","Longitude":"24.0273014","Name":"Dimantu iela"},{"Latitude":"56.5722484","Longitude":"23.7351089","Name":"Dimzas — Vircava — Vairogs"},{"Latitude":"57.0454173","Longitude":"22.7614303","Name":"Dimžu iela"},{"Latitude":"57.2354501","Longitude":"24.4103857","Name":"Divdesmit otrā iela"},{"Latitude":"57.0045415","Longitude":"24.0393183","Name":"Divīzijas iela"},{"Latitude":"57.0475073","Longitude":"24.3433303","Name":"Diānas iela"},{"Latitude":"57.4338780","Longitude":"22.2208012","Name":"Dižakmens ceļš"},{"Latitude":"56.9028772","Longitude":"24.0983302","Name":"Dižozolu iela"},{"Latitude":"56.5370481","Longitude":"23.4606369","Name":"Dobele - Krimūnas - Zaļenieki"},{"Latitude":"56.4198645","Longitude":"24.0551534","Name":"Dobele — Bauska"},{"Latitude":"56.4846545","Longitude":"23.0623752","Name":"Dobele — Bēne"},{"Latitude":"56.6758198","Longitude":"23.3448227","Name":"Dobele — Jaunbērze"},{"Latitude":"56.4827414","Longitude":"23.5628932","Name":"Dobele — Krimūnas — Zaļenieki — Ūziņi"},{"Latitude":"56.6905716","Longitude":"23.2133569","Name":"Dobele — Lestene — Tukums"},{"Latitude":"56.5811206","Longitude":"23.2484031","Name":"Dobele — Penkule"},{"Latitude":"56.5422456","Longitude":"22.9996388","Name":"Dobele — Īle — Auce"},{"Latitude":"56.6530345","Longitude":"23.7147846","Name":"Dobeles iela"},{"Latitude":"56.6515055","Longitude":"23.7049240","Name":"Dobeles šoseja"},{"Latitude":"56.8941954","Longitude":"24.5054541","Name":"Dobelnieku gatve"},{"Latitude":"56.4535063","Longitude":"24.5940270","Name":"Doktorāta iela"},{"Latitude":"56.7802738","Longitude":"22.8012101","Name":"Doktorāts — Viesāti — Irlava"},{"Latitude":"57.3635195","Longitude":"21.5991806","Name":"Doku iela"},{"Latitude":"56.8239740","Longitude":"24.5616802","Name":"Doles iela"},{"Latitude":"56.4907364","Longitude":"25.8335030","Name":"Dolomīta iela"},{"Latitude":"57.7750132","Longitude":"26.0065994","Name":"Domes bulvāris"},{"Latitude":"56.0073011","Longitude":"25.9100032","Name":"Domes iela"},{"Latitude":"57.3241215","Longitude":"24.4478332","Name":"Domu iela"},{"Latitude":"57.7599448","Longitude":"24.4209946","Name":"Donavas iela"},{"Latitude":"56.5206907","Longitude":"25.8690237","Name":"Donaviņas iela"},{"Latitude":"56.4968110","Longitude":"21.0117535","Name":"Donu"},{"Latitude":"57.4178351","Longitude":"27.0355010","Name":"Dores iela"},{"Latitude":"56.6363539","Longitude":"23.5243787","Name":"Dorupe — Līvbērze"},{"Latitude":"56.5052018","Longitude":"21.0218935","Name":"Dorupes iela"},{"Latitude":"55.8648735","Longitude":"26.4986613","Name":"Dostojevska iela"},{"Latitude":"56.9224605","Longitude":"24.0226904","Name":"Doņu iela"},{"Latitude":"57.2411165","Longitude":"25.2324053","Name":"Drabeši - Līgatnes papīrfabrika - Līgatne"},{"Latitude":"57.2382412","Longitude":"25.2839366","Name":"Drabeši — Līvi"},{"Latitude":"57.4139451","Longitude":"25.8953806","Name":"Drandu iela"},{"Latitude":"56.9634916","Longitude":"23.7016264","Name":"Draudzes iela"},{"Latitude":"57.1629279","Longitude":"26.7793675","Name":"Draudzesskolas iela"},{"Latitude":"56.5974031","Longitude":"25.2498515","Name":"Draudzības Krastmala"},{"Latitude":"56.4937086","Longitude":"25.8664052","Name":"Draudzības aleja"},{"Latitude":"57.2886814","Longitude":"24.4465081","Name":"Draudzības aplis"},{"Latitude":"56.6466499","Longitude":"23.7021701","Name":"Draudzības iela"},{"Latitude":"57.2986382","Longitude":"24.4232720","Name":"Draugu iela"},{"Latitude":"57.5823167","Longitude":"22.4715852","Name":"Dravnieki - Alkšņuvadi"},{"Latitude":"57.4429577","Longitude":"24.7875690","Name":"Dravnieki — Kaijas — Straupe — Līgatne"},{"Latitude":"56.9439441","Longitude":"24.2108573","Name":"Dravnieku iela"},{"Latitude":"56.9362253","Longitude":"24.2596818","Name":"Dreiliņi — Acones stacija"},{"Latitude":"56.9414947","Longitude":"24.0607170","Name":"Dreiliņu iela"},{"Latitude":"56.9082832","Longitude":"24.0374770","Name":"Dreimaņu iela"},{"Latitude":"56.4193366","Longitude":"24.2068308","Name":"Dreņģerkalna iela"},{"Latitude":"56.9352000","Longitude":"24.1565043","Name":"Dricānu iela"},{"Latitude":"56.6612258","Longitude":"27.2323573","Name":"Dricēni — Pilcene"},{"Latitude":"57.6664790","Longitude":"24.6672542","Name":"Drieliņi — Viļņi"},{"Latitude":"56.6508638","Longitude":"23.7257409","Name":"Driksas iela"},{"Latitude":"57.3189766","Longitude":"25.2695998","Name":"Driškina iela"},{"Latitude":"56.9646361","Longitude":"23.7714688","Name":"Drosmes iela"},{"Latitude":"56.9049632","Longitude":"24.2320579","Name":"Drujas iela"},{"Latitude":"57.1827496","Longitude":"25.6443077","Name":"Drusti — Dzērbene — Skujene"},{"Latitude":"56.7795777","Longitude":"23.9257287","Name":"Drustu gatve"},{"Latitude":"56.9212502","Longitude":"24.0613168","Name":"Drustu iela"},{"Latitude":"56.5520986","Longitude":"24.7373260","Name":"Druva — Birzgale — Valle"},{"Latitude":"56.7954344","Longitude":"24.6255012","Name":"Druvas iela"},{"Latitude":"56.3881805","Longitude":"22.5553767","Name":"Druvas — Lietuvas robeža"},{"Latitude":"57.1600528","Longitude":"26.3333743","Name":"Druviena — Lizums"},{"Latitude":"56.9717865","Longitude":"24.2297800","Name":"Druvienas iela"},{"Latitude":"56.8380665","Longitude":"22.7368979","Name":"Druviņu iela"},{"Latitude":"57.4196239","Longitude":"27.0934011","Name":"Druvu iela"},{"Latitude":"56.5239836","Longitude":"21.0235956","Name":"Drāšu iela"},{"Latitude":"56.8957122","Longitude":"24.4995390","Name":"Drēzdenes iela"},{"Latitude":"56.9044188","Longitude":"24.1969801","Name":"Dubnas iela"},{"Latitude":"56.9565579","Longitude":"24.0052487","Name":"Dubultu iela"},{"Latitude":"56.9680495","Longitude":"23.7713963","Name":"Dubultu prospekts"},{"Latitude":"57.1102262","Longitude":"27.3469346","Name":"Dubļeva — Cērpene"},{"Latitude":"57.0361883","Longitude":"24.1069743","Name":"Dukura iela"},{"Latitude":"57.3437861","Longitude":"25.2979747","Name":"Dukuri — Rāmnieki"},{"Latitude":"57.5295942","Longitude":"21.8696156","Name":"Dumbru ceļš"},{"Latitude":"56.9600351","Longitude":"24.0147903","Name":"Dumbrāja iela"},{"Latitude":"57.5003850","Longitude":"25.4345787","Name":"Dumbrāji - Zeiboti"},{"Latitude":"56.9968982","Longitude":"24.3195821","Name":"Dumbrāju iela"},{"Latitude":"56.8588642","Longitude":"26.2088995","Name":"Dumpu iela"},{"Latitude":"57.1474667","Longitude":"22.5391885","Name":"Dumpīšu iela"},{"Latitude":"56.5568838","Longitude":"27.7234629","Name":"Dunakļu iela"},{"Latitude":"56.9576568","Longitude":"23.9923673","Name":"Dunalkas iela"},{"Latitude":"56.4857315","Longitude":"25.8766609","Name":"Dunavas iela"},{"Latitude":"57.6219789","Longitude":"22.5586401","Name":"Dundaga - Melnsils"},{"Latitude":"57.5054500","Longitude":"22.3775225","Name":"Dundaga - Tiņģere - Tiltiņi"},{"Latitude":"57.5258961","Longitude":"22.3738678","Name":"Dundaga — Ģipka"},{"Latitude":"57.2470177","Longitude":"22.5802523","Name":"Dundagas iela"},{"Latitude":"55.8711493","Longitude":"26.5883616","Name":"Dunduru iela"},{"Latitude":"57.2575001","Longitude":"22.5790222","Name":"Dungagas iela"},{"Latitude":"56.4798815","Longitude":"21.0190641","Name":"Dunikas iela"},{"Latitude":"56.9918145","Longitude":"24.1273932","Name":"Duntes iela"},{"Latitude":"56.5953681","Longitude":"21.3366879","Name":"Durbe — Aistere"},{"Latitude":"56.5507613","Longitude":"21.4706435","Name":"Durbe — Padone — Kugras"},{"Latitude":"56.5450705","Longitude":"21.3788189","Name":"Durbe — Tadaiķi — Bunka — Priekule"},{"Latitude":"56.9525591","Longitude":"24.0694395","Name":"Durbes iela"},{"Latitude":"57.3514602","Longitude":"24.4680718","Name":"Duči — Limbaži"},{"Latitude":"55.8278231","Longitude":"26.2165993","Name":"Dvaro g."},{"Latitude":"57.0999184","Longitude":"24.3473689","Name":"Dvīņu iela"},{"Latitude":"55.8526645","Longitude":"26.5237248","Name":"Dzeguzes iela"},{"Latitude":"56.9598180","Longitude":"24.0636477","Name":"Dzegužu iela"},{"Latitude":"57.5483736","Longitude":"25.4570989","Name":"Dzejnieku iela"},{"Latitude":"56.5230859","Longitude":"21.0191891","Name":"Dzelceļnieku iela"},{"Latitude":"55.8671311","Longitude":"26.5329233","Name":"Dzelceļu iela"},{"Latitude":"56.9529292","Longitude":"23.7702176","Name":"Dzeldas iela"},{"Latitude":"57.0186223","Longitude":"24.3094775","Name":"Dzelmes iela"},{"Latitude":"56.7323558","Longitude":"25.0401457","Name":"Dzelmes — Veckrape"},{"Latitude":"56.9652061","Longitude":"24.1641882","Name":"Dzelzavas iela"},{"Latitude":"57.2851673","Longitude":"27.4434706","Name":"Dzelzceliņš-Vancāna līnija"},{"Latitude":"56.9207785","Longitude":"24.0837188","Name":"Dzelzceļa iela"},{"Latitude":"57.2438344","Longitude":"24.4077732","Name":"Dzelzceļnieku iela"},{"Latitude":"55.8631028","Longitude":"26.5348098","Name":"Dzelzceļu iela"},{"Latitude":"57.4812006","Longitude":"22.1327481","Name":"Dzelzceļš"},{"Latitude":"57.0380044","Longitude":"24.0300191","Name":"Dzelzs iela"},{"Latitude":"56.8200155","Longitude":"24.5843623","Name":"Dzelzsceļa iela"},{"Latitude":"57.2596809","Longitude":"22.5805405","Name":"Dzelzupes iela"},{"Latitude":"57.1335266","Longitude":"24.2493849","Name":"Dzenīšu iela"},{"Latitude":"56.9622590","Longitude":"23.7162973","Name":"Dzeņu iela"},{"Latitude":"57.3073589","Longitude":"25.3514597","Name":"Dzeņupītes iela"},{"Latitude":"57.0809824","Longitude":"24.3060834","Name":"Dzidrumu iela"},{"Latitude":"57.0155346","Longitude":"23.9779340","Name":"Dziesmas iela"},{"Latitude":"56.7408043","Longitude":"24.3601338","Name":"Dziesmu iela"},{"Latitude":"57.0197078","Longitude":"24.3099025","Name":"Dzilnas iela"},{"Latitude":"57.0839881","Longitude":"24.1732853","Name":"Dzilnu iela"},{"Latitude":"57.0756108","Longitude":"24.1414496","Name":"Dzilnīšu iela"},{"Latitude":"55.8647044","Longitude":"26.5277340","Name":"Dzimavu iela"},{"Latitude":"56.9592260","Longitude":"23.6918355","Name":"Dzimtenes iela"},{"Latitude":"57.0342745","Longitude":"24.0059231","Name":"Dzintara iela"},{"Latitude":"56.8352264","Longitude":"21.7676872","Name":"Dzintaru ceļš"},{"Latitude":"56.8880542","Longitude":"21.1809701","Name":"Dzintaru iela"},{"Latitude":"56.9795664","Longitude":"23.8250540","Name":"Dzintaru prospekts"},{"Latitude":"56.9665959","Longitude":"24.0576225","Name":"Dzirciema iela"},{"Latitude":"56.9793790","Longitude":"23.1429806","Name":"Dzirkaļu iela"},{"Latitude":"56.9506274","Longitude":"23.6259219","Name":"Dzirksteles iela"},{"Latitude":"56.9481828","Longitude":"24.1251385","Name":"Dzirnavu iela"},{"Latitude":"56.9910927","Longitude":"24.1709554","Name":"Dzirnezera iela"},{"Latitude":"56.5652588","Longitude":"23.8670987","Name":"Dzirnieki — Pilsrundāle"},{"Latitude":"57.2676962","Longitude":"24.7556479","Name":"Dzirnieki — Vanagi"},{"Latitude":"56.9173245","Longitude":"23.9862253","Name":"Dzirnieku iela"},{"Latitude":"57.1415290","Longitude":"24.2966994","Name":"Dzirnupes iela"},{"Latitude":"56.9598200","Longitude":"23.1785094","Name":"Dzirņu iela"},{"Latitude":"57.0027662","Longitude":"22.9121902","Name":"Dziļkalni — Pūre"},{"Latitude":"56.7238806","Longitude":"27.0875176","Name":"Dziļāri — Gaigalava — Darvaskalns"},{"Latitude":"57.1722658","Longitude":"25.7363677","Name":"Dzērbene - Gaujmaļi"},{"Latitude":"57.1953353","Longitude":"25.6521927","Name":"Dzērbene — Zvirguļi"},{"Latitude":"56.9747818","Longitude":"24.1930477","Name":"Dzērbenes iela"},{"Latitude":"56.7299857","Longitude":"24.1950058","Name":"Dzērumu ceļš"},{"Latitude":"56.7807656","Longitude":"23.9301460","Name":"Dzērvenītes iela"},{"Latitude":"56.4921561","Longitude":"21.0204191","Name":"Dzērves iela"},{"Latitude":"56.7843828","Longitude":"25.2095244","Name":"Dzērves-Vērene"},{"Latitude":"57.1165385","Longitude":"24.3442655","Name":"Dzērveņu iela"},{"Latitude":"56.9307069","Longitude":"24.1660022","Name":"Dzērvju iela"},{"Latitude":"56.9414290","Longitude":"24.2559377","Name":"Dzīparu iela"},{"Latitude":"56.3554603","Longitude":"23.9271987","Name":"Dzīvības ceļš"},{"Latitude":"56.9001616","Longitude":"24.5082200","Name":"Dālderi - Kalnakumpēni"},{"Latitude":"56.8985887","Longitude":"24.5128623","Name":"Dāliju ceļš"},{"Latitude":"57.1202923","Longitude":"24.2312751","Name":"Dāliju iela"},{"Latitude":"57.1994487","Longitude":"25.1773871","Name":"Dārdu iela"},{"Latitude":"57.3106016","Longitude":"25.2462697","Name":"Dārtas iela"},{"Latitude":"56.5365074","Longitude":"24.5260643","Name":"Dārza Iela"},{"Latitude":"56.7293480","Longitude":"21.7256547","Name":"Dārza gatve"},{"Latitude":"56.6007269","Longitude":"24.1956238","Name":"Dārza iela"},{"Latitude":"56.9644998","Longitude":"24.1500471","Name":"Dārzaugļu iela"},{"Latitude":"56.9317269","Longitude":"24.1814110","Name":"Dārzciema iela"},{"Latitude":"56.7280731","Longitude":"22.3950796","Name":"Dārze iela"},{"Latitude":"56.8219764","Longitude":"24.6719572","Name":"Dārziņu 1. līnija"},{"Latitude":"56.8698871","Longitude":"24.2649832","Name":"Dārziņu 10. līnija"},{"Latitude":"56.8655828","Longitude":"24.2589578","Name":"Dārziņu 11. līnija"},{"Latitude":"56.8646047","Longitude":"24.2585418","Name":"Dārziņu 12. līnija"},{"Latitude":"56.8684637","Longitude":"24.2656114","Name":"Dārziņu 13. līnija"},{"Latitude":"56.8641433","Longitude":"24.2608782","Name":"Dārziņu 14. līnija"},{"Latitude":"56.8629294","Longitude":"24.2630645","Name":"Dārziņu 15. līnija"},{"Latitude":"56.8615965","Longitude":"24.2639013","Name":"Dārziņu 16. līnija"},{"Latitude":"56.8648647","Longitude":"24.2649056","Name":"Dārziņu 17. līnija"},{"Latitude":"56.8627839","Longitude":"24.2652885","Name":"Dārziņu 18. līnija"},{"Latitude":"56.8701098","Longitude":"24.2706919","Name":"Dārziņu 19. līnija"},{"Latitude":"56.8732557","Longitude":"24.2586227","Name":"Dārziņu 2. līnija"},{"Latitude":"56.8215961","Longitude":"24.6728186","Name":"Dārziņu 2. šķērslīnija"},{"Latitude":"56.8662793","Longitude":"24.2691360","Name":"Dārziņu 20. līnija"},{"Latitude":"56.8595636","Longitude":"24.2690576","Name":"Dārziņu 21. līnija"},{"Latitude":"56.8676623","Longitude":"24.2749108","Name":"Dārziņu 22. līnija"},{"Latitude":"56.8622549","Longitude":"24.2714127","Name":"Dārziņu 23. līnija"},{"Latitude":"56.8594311","Longitude":"24.2722220","Name":"Dārziņu 24. līnija"},{"Latitude":"56.8597147","Longitude":"24.2734936","Name":"Dārziņu 25. līnija"},{"Latitude":"56.8649870","Longitude":"24.2751282","Name":"Dārziņu 26. līnija"},{"Latitude":"56.8674869","Longitude":"24.2776490","Name":"Dārziņu 27. līnija"},{"Latitude":"56.8649806","Longitude":"24.2769562","Name":"Dārziņu 28. līnija"},{"Latitude":"56.8598639","Longitude":"24.2757119","Name":"Dārziņu 29. līnija"},{"Latitude":"56.8206791","Longitude":"24.6711486","Name":"Dārziņu 3. līnija"},{"Latitude":"56.8609637","Longitude":"24.2769298","Name":"Dārziņu 30. līnija"},{"Latitude":"56.8617669","Longitude":"24.2779298","Name":"Dārziņu 31. līnija"},{"Latitude":"56.8597435","Longitude":"24.2783825","Name":"Dārziņu 32. līnija"},{"Latitude":"56.8596725","Longitude":"24.2794583","Name":"Dārziņu 33. līnija"},{"Latitude":"56.8599350","Longitude":"24.2805789","Name":"Dārziņu 34. līnija"},{"Latitude":"56.8614477","Longitude":"24.2820603","Name":"Dārziņu 35. līnija"},{"Latitude":"56.8592841","Longitude":"24.2826005","Name":"Dārziņu 36. līnija"},{"Latitude":"56.8602678","Longitude":"24.2838714","Name":"Dārziņu 37. līnija"},{"Latitude":"56.8605526","Longitude":"24.2848846","Name":"Dārziņu 38. līnija"},{"Latitude":"56.8595375","Longitude":"24.2852649","Name":"Dārziņu 39. līnija"},{"Latitude":"56.8200125","Longitude":"24.6718238","Name":"Dārziņu 4. līnija"},{"Latitude":"56.8598204","Longitude":"24.2857263","Name":"Dārziņu 40. līnija"},{"Latitude":"56.8596804","Longitude":"24.2865082","Name":"Dārziņu 41. līnija"},{"Latitude":"56.8602594","Longitude":"24.2876857","Name":"Dārziņu 42. līnija"},{"Latitude":"56.8599190","Longitude":"24.2883352","Name":"Dārziņu 43. līnija"},{"Latitude":"56.8584361","Longitude":"24.2883988","Name":"Dārziņu 44. līnija"},{"Latitude":"56.8597907","Longitude":"24.2901438","Name":"Dārziņu 45. līnija"},{"Latitude":"56.8587462","Longitude":"24.2910808","Name":"Dārziņu 46. līnija"},{"Latitude":"56.8586843","Longitude":"24.2918602","Name":"Dārziņu 47. līnija"},{"Latitude":"56.8597399","Longitude":"24.2934299","Name":"Dārziņu 48. līnija"},{"Latitude":"56.8594707","Longitude":"24.2944643","Name":"Dārziņu 49. līnija"},{"Latitude":"56.8730180","Longitude":"24.2622303","Name":"Dārziņu 5. līnija"},{"Latitude":"56.8585377","Longitude":"24.2953632","Name":"Dārziņu 50. līnija"},{"Latitude":"56.8586260","Longitude":"24.2965160","Name":"Dārziņu 51. līnija"},{"Latitude":"56.8580745","Longitude":"24.2973831","Name":"Dārziņu 52. līnija"},{"Latitude":"56.8584073","Longitude":"24.2986725","Name":"Dārziņu 53. līnija"},{"Latitude":"56.8583491","Longitude":"24.2997218","Name":"Dārziņu 54. līnija"},{"Latitude":"56.8584913","Longitude":"24.3002837","Name":"Dārziņu 55. līnija"},{"Latitude":"56.8586703","Longitude":"24.3014698","Name":"Dārziņu 56. līnija"},{"Latitude":"56.8586734","Longitude":"24.3025456","Name":"Dārziņu 57. līnija"},{"Latitude":"56.8590589","Longitude":"24.3035715","Name":"Dārziņu 58. līnija"},{"Latitude":"56.8587104","Longitude":"24.3046948","Name":"Dārziņu 59. līnija"},{"Latitude":"56.8187498","Longitude":"24.6725269","Name":"Dārziņu 6. līnija"},{"Latitude":"56.8587788","Longitude":"24.3057456","Name":"Dārziņu 60. līnija"},{"Latitude":"56.8585690","Longitude":"24.3070032","Name":"Dārziņu 61. līnija"},{"Latitude":"56.8677077","Longitude":"24.2571777","Name":"Dārziņu 7. līnija"},{"Latitude":"56.8705049","Longitude":"24.2628504","Name":"Dārziņu 8. līnija"},{"Latitude":"56.8696739","Longitude":"24.2632140","Name":"Dārziņu 9. līnija"},{"Latitude":"56.8195415","Longitude":"24.6704228","Name":"Dārziņu Bērzu iela"},{"Latitude":"56.8207623","Longitude":"24.6737554","Name":"Dārziņu Krasta iela"},{"Latitude":"56.8220848","Longitude":"24.6731728","Name":"Dārziņu Putnu iela"},{"Latitude":"56.8666411","Longitude":"24.2797002","Name":"Dārziņu iela"},{"Latitude":"56.6672878","Longitude":"23.7536721","Name":"Dārzkopju iela"},{"Latitude":"56.9757643","Longitude":"23.8535436","Name":"Dārzkopības iela"},{"Latitude":"56.9771827","Longitude":"24.3321340","Name":"Dārzniecības iela"},{"Latitude":"56.8695927","Longitude":"24.2633415","Name":"Dārznieku iela"},{"Latitude":"56.9594851","Longitude":"23.7228038","Name":"Dārzu iela"},{"Latitude":"56.5476380","Longitude":"27.7154632","Name":"Dārzu šķērsiela"},{"Latitude":"56.5121014","Longitude":"25.9378486","Name":"Dārzupītes iela"},{"Latitude":"56.9615536","Longitude":"24.0492131","Name":"Dāvida iela"},{"Latitude":"56.9554585","Longitude":"24.4402569","Name":"Dāvidi — Zaķumuiža — Bajārkrogs"},{"Latitude":"56.9526416","Longitude":"23.6633931","Name":"Dāvja iela"},{"Latitude":"56.1976155","Longitude":"26.5040008","Name":"Dāzu iela"},{"Latitude":"56.9354235","Longitude":"24.1020334","Name":"Dēļu iela"},{"Latitude":"57.0205563","Longitude":"23.9939095","Name":"Dīgstu iela"},{"Latitude":"57.7509156","Longitude":"24.3625839","Name":"Dīriķu iela"},{"Latitude":"56.9581387","Longitude":"24.2829566","Name":"Dīvajas iela"},{"Latitude":"57.5426061","Longitude":"25.4338127","Name":"Dīvaliņa iela"},{"Latitude":"57.2841879","Longitude":"25.2496302","Name":"Dīķa iela"},{"Latitude":"57.4207936","Longitude":"22.3760809","Name":"Dīķlejas-Anaži"},{"Latitude":"57.3795717","Longitude":"21.5784510","Name":"Dīķu iela"},{"Latitude":"57.3198259","Longitude":"24.4365415","Name":"Dūju iela"},{"Latitude":"56.8380255","Longitude":"22.7381527","Name":"Dūmu iela"},{"Latitude":"57.3325614","Longitude":"24.4239449","Name":"Dūnu iela"},{"Latitude":"57.4509571","Longitude":"25.3750934","Name":"Dūķeri — Kocēni — Ķiene"},{"Latitude":"57.5737779","Longitude":"25.2582647","Name":"Dūķeri–Ķelpi"},{"Latitude":"57.5367084","Longitude":"25.3842873","Name":"Dūķeru iela"},{"Latitude":"57.2581552","Longitude":"25.9096805","Name":"Dūķi — Milakšas — Briņģi"},{"Latitude":"57.5204159","Longitude":"24.7137505","Name":"Dūņezera iela"},{"Latitude":"56.9561452","Longitude":"23.5369813","Name":"Dūņu ceļš"},{"Latitude":"56.6447151","Longitude":"23.6907894","Name":"Dūņu iela"},{"Latitude":"56.9570940","Longitude":"24.1950875","Name":"Džohara Dudajeva gatve"},{"Latitude":"56.9790596","Longitude":"24.1851508","Name":"Džutas iela"},{"Latitude":"56.8915272","Longitude":"22.9794003","Name":"Džūkste — Irlava — Jaunsāti"},{"Latitude":"56.6694181","Longitude":"22.4790305","Name":"E. Birznieka-Upīša iela"},{"Latitude":"56.4574310","Longitude":"22.9041512","Name":"E. Dinsberga iela"},{"Latitude":"57.3279753","Longitude":"24.7373202","Name":"E. Melngaiļa iela"},{"Latitude":"56.5086378","Longitude":"20.9983772","Name":"E. Rimbenieka iela"},{"Latitude":"56.9646135","Longitude":"26.3141499","Name":"E. Veidenbauma iela"},{"Latitude":"56.9378851","Longitude":"24.1541362","Name":"Ebreju iela"},{"Latitude":"56.5965074","Longitude":"24.2005051","Name":"Ed. Virzas iela"},{"Latitude":"56.6269873","Longitude":"23.2815043","Name":"Edgara Francmaņa iela"},{"Latitude":"56.7157524","Longitude":"24.8305279","Name":"Edgara Kauliņa aleja"},{"Latitude":"57.3220195","Longitude":"24.4345334","Name":"Edgara Liepiņa iela"},{"Latitude":"56.9745058","Longitude":"23.8243548","Name":"Edinburgas prospekts"},{"Latitude":"57.0033208","Longitude":"24.0377492","Name":"Eduarda Berklava iela"},{"Latitude":"57.5226994","Longitude":"25.3812983","Name":"Eduarda Lācera iela"},{"Latitude":"56.9348145","Longitude":"24.0753412","Name":"Eduarda Smiļģa iela"},{"Latitude":"56.4888996","Longitude":"21.0181143","Name":"Eduarda Tisē iela"},{"Latitude":"56.9679405","Longitude":"23.1626624","Name":"Eduarda Veidenbauma iela"},{"Latitude":"56.9664483","Longitude":"24.0419138","Name":"Eduarda Šmita iela"},{"Latitude":"57.3183268","Longitude":"25.2958872","Name":"Edvarda Treimaņa-Zvārguļa iela"},{"Latitude":"56.5975032","Longitude":"24.1964959","Name":"Edvarta Virzas iela"},{"Latitude":"57.0322555","Longitude":"24.1086561","Name":"Edžiņa gatve"},{"Latitude":"56.8742599","Longitude":"24.1747438","Name":"Edžus iela"},{"Latitude":"56.8970591","Longitude":"24.0370789","Name":"Efeju Iela"},{"Latitude":"56.6992705","Longitude":"23.7180838","Name":"Efeju iela"},{"Latitude":"56.6465971","Longitude":"23.7119361","Name":"Egas iela"},{"Latitude":"57.0929662","Longitude":"25.0964770","Name":"Eglaine - Mores pagasta valde"},{"Latitude":"56.9055207","Longitude":"24.1930632","Name":"Eglaines iela"},{"Latitude":"56.3720897","Longitude":"24.6560271","Name":"Eglių g."},{"Latitude":"57.5317244","Longitude":"21.7606546","Name":"Eglāji — Muižnieki"},{"Latitude":"57.2530823","Longitude":"24.4277910","Name":"Eglāju iela"},{"Latitude":"57.4412969","Longitude":"26.0919178","Name":"Egļu iela"},{"Latitude":"57.1014865","Longitude":"24.7446373","Name":"Egļupes iela"},{"Latitude":"57.2383296","Longitude":"24.6956668","Name":"Eikāži — Bīriņi"},{"Latitude":"57.0884361","Longitude":"24.3004269","Name":"Eimuru ceļš"},{"Latitude":"56.8672288","Longitude":"24.1190030","Name":"Eiženijas iela"},{"Latitude":"56.9613978","Longitude":"24.0983205","Name":"Eksporta iela"},{"Latitude":"56.3782266","Longitude":"23.7507256","Name":"Eleja — Lielsesava"},{"Latitude":"56.4032278","Longitude":"24.1784348","Name":"Elejas iela"},{"Latitude":"56.8921422","Longitude":"24.1403721","Name":"Elektriķu iela"},{"Latitude":"56.6495281","Longitude":"23.7319788","Name":"Elektrības iela"},{"Latitude":"57.0087606","Longitude":"24.3275298","Name":"Elenburgas iela"},{"Latitude":"55.8564911","Longitude":"26.5582629","Name":"Elernes iela"},{"Latitude":"56.9402083","Longitude":"24.1267050","Name":"Elijas iela"},{"Latitude":"57.3126638","Longitude":"25.3490142","Name":"Elites iela"},{"Latitude":"56.9582370","Longitude":"24.1083216","Name":"Elizabetes iela"},{"Latitude":"56.4180549","Longitude":"21.8516384","Name":"Elkoņu iela"},{"Latitude":"56.9676484","Longitude":"24.1455984","Name":"Elku iela"},{"Latitude":"56.1521663","Longitude":"25.7482536","Name":"Elsītes iela"},{"Latitude":"56.9468314","Longitude":"24.0528876","Name":"Elvīras iela"},{"Latitude":"57.5406791","Longitude":"26.6883561","Name":"Elīnas Zālītes iela"},{"Latitude":"57.0941303","Longitude":"24.3651875","Name":"Elīzas iela"},{"Latitude":"56.6465354","Longitude":"23.7560698","Name":"Emburgas iela"},{"Latitude":"56.4616762","Longitude":"21.8612079","Name":"Embūte — Vaiņode — Pavāri"},{"Latitude":"57.4042911","Longitude":"21.6006603","Name":"Embūtes iela"},{"Latitude":"56.9728034","Longitude":"23.7864311","Name":"Emelīnas iela"},{"Latitude":"56.9599938","Longitude":"24.1163344","Name":"Emiļa Melngaiļa iela"},{"Latitude":"57.0283793","Longitude":"24.1083542","Name":"Emmas iela"},{"Latitude":"57.3107241","Longitude":"25.2472749","Name":"Emīla Dārziņa iela"},{"Latitude":"56.5244412","Longitude":"21.0187095","Name":"Emīlijas iela"},{"Latitude":"57.7924561","Longitude":"26.0456725","Name":"Energia"},{"Latitude":"57.0117185","Longitude":"24.9593881","Name":"Enerģētikas iela"},{"Latitude":"56.5826292","Longitude":"25.2379820","Name":"Enerģētiķu iela"},{"Latitude":"55.8906901","Longitude":"26.5569063","Name":"Enerģētiķu šķērsiela"},{"Latitude":"56.9613300","Longitude":"23.5977490","Name":"Engures iela"},{"Latitude":"57.4824118","Longitude":"22.3456510","Name":"Eniņa dambis"},{"Latitude":"57.7455509","Longitude":"25.3376043","Name":"Eniņi — Silzemnieki"},{"Latitude":"56.9579599","Longitude":"24.0831563","Name":"Enkura iela"},{"Latitude":"56.6317731","Longitude":"24.8329618","Name":"Enkurnieki — Birzgale"},{"Latitude":"56.6083548","Longitude":"24.8442156","Name":"Enkurnieki — Lāčplēsis"},{"Latitude":"57.3923422","Longitude":"21.5377064","Name":"Enkuru iela"},{"Latitude":"56.7460359","Longitude":"24.3692065","Name":"Ennes iela"},{"Latitude":"57.8953074","Longitude":"25.3475341","Name":"Eriņu iela"},{"Latitude":"56.9493325","Longitude":"24.1287713","Name":"Ernesta Birznieka-Upīša iela"},{"Latitude":"57.5107440","Longitude":"22.3533071","Name":"Ernesta Dinsberga iela"},