[{"Latitude":"10.1875849","Longitude":"-61.5791433","Name":" Delhi Grant Trace Extension"},{"Latitude":"10.1685611","Longitude":"-61.5387950","Name":"#37 Road"},{"Latitude":"10.1737310","Longitude":"-61.6730686","Name":"10th Street"},{"Latitude":"10.1701354","Longitude":"-61.6686885","Name":"15th Street"},{"Latitude":"10.1697707","Longitude":"-61.6684739","Name":"16th Street"},{"Latitude":"10.1694350","Longitude":"-61.6677204","Name":"17th Street"},{"Latitude":"10.1690354","Longitude":"-61.6686483","Name":"18th Street"},{"Latitude":"10.1686676","Longitude":"-61.6682298","Name":"19th Street"},{"Latitude":"10.3118263","Longitude":"-61.3949706","Name":"1st Corial Road"},{"Latitude":"10.1697737","Longitude":"-61.6722043","Name":"1st Street"},{"Latitude":"10.2564773","Longitude":"-61.4618331","Name":"1st Street"},{"Latitude":"10.3044201","Longitude":"-61.4392274","Name":"1st Street"},{"Latitude":"10.3291699","Longitude":"-61.4257010","Name":"1st Street"},{"Latitude":"10.1708304","Longitude":"-61.6750561","Name":"2nd Street"},{"Latitude":"10.3043469","Longitude":"-61.4385530","Name":"2nd Street"},{"Latitude":"10.3111013","Longitude":"-61.4259315","Name":"2nd Street"},{"Latitude":"10.1705039","Longitude":"-61.6722067","Name":"3rd Street"},{"Latitude":"10.2498199","Longitude":"-61.4293890","Name":"3rd Street"},{"Latitude":"10.3042768","Longitude":"-61.4379071","Name":"3rd Street"},{"Latitude":"10.3335297","Longitude":"-61.4270037","Name":"3rd Street"},{"Latitude":"10.2472264","Longitude":"-61.4815583","Name":"42nd Street"},{"Latitude":"10.3227566","Longitude":"-61.3649096","Name":"4th Company Road"},{"Latitude":"10.1708715","Longitude":"-61.6707266","Name":"4th Street"},{"Latitude":"10.3033126","Longitude":"-61.4372534","Name":"4th Street"},{"Latitude":"10.3345925","Longitude":"-61.4264119","Name":"4th Street"},{"Latitude":"10.1712404","Longitude":"-61.6707221","Name":"5th Street"},{"Latitude":"10.3033086","Longitude":"-61.4365644","Name":"5th Street"},{"Latitude":"10.3315776","Longitude":"-61.4284277","Name":"5th Street"},{"Latitude":"10.1716078","Longitude":"-61.6707123","Name":"6th Street"},{"Latitude":"10.2681357","Longitude":"-61.4324744","Name":"6th Street"},{"Latitude":"10.1719904","Longitude":"-61.6722117","Name":"7th Street"},{"Latitude":"10.1723921","Longitude":"-61.6711049","Name":"8th Street"},{"Latitude":"10.1727683","Longitude":"-61.6717961","Name":"9th Street"},{"Latitude":"10.2430167","Longitude":"-61.4739488","Name":"A Road"},{"Latitude":"10.2250785","Longitude":"-61.5370799","Name":"Abbey Street"},{"Latitude":"10.2596361","Longitude":"-61.4452839","Name":"Abraham Avenue"},{"Latitude":"10.1840844","Longitude":"-61.6733012","Name":"Acacia Avenue"},{"Latitude":"10.2676738","Longitude":"-61.4425923","Name":"Aceras Circle"},{"Latitude":"10.1957909","Longitude":"-61.4950137","Name":"Ackaloo Trace"},{"Latitude":"10.1962557","Longitude":"-61.5162245","Name":"Ackbar Trace"},{"Latitude":"10.2356219","Longitude":"-61.4438831","Name":"Adams Avenue"},{"Latitude":"10.1729586","Longitude":"-61.4502472","Name":"Addie Trace"},{"Latitude":"10.2281045","Longitude":"-61.5511560","Name":"Adis Residential Park"},{"Latitude":"10.1766694","Longitude":"-61.6817991","Name":"Adventure Road"},{"Latitude":"10.2668939","Longitude":"-61.4430201","Name":"Aerides Drive"},{"Latitude":"10.2695912","Longitude":"-61.4413768","Name":"Aganisia Drive"},{"Latitude":"10.1756221","Longitude":"-61.6823557","Name":"Agard Road"},{"Latitude":"10.2648253","Longitude":"-61.4426122","Name":"Agia Lane"},{"Latitude":"10.2938511","Longitude":"-61.4570454","Name":"Agnes Street"},{"Latitude":"10.2251748","Longitude":"-61.5508992","Name":"Agricultural Road"},{"Latitude":"10.2416034","Longitude":"-61.4614944","Name":"Aileen Avenue"},{"Latitude":"10.2711481","Longitude":"-61.4569004","Name":"Albert Avenue"},{"Latitude":"10.2607095","Longitude":"-61.4674177","Name":"Albert Drive"},{"Latitude":"10.2985782","Longitude":"-61.4536814","Name":"Albert Street"},{"Latitude":"10.3167736","Longitude":"-61.4141090","Name":"Albertina Terrace"},{"Latitude":"10.2393426","Longitude":"-61.4863030","Name":"Alexander Street"},{"Latitude":"10.2652873","Longitude":"-61.4434091","Name":"Alexandria Lane"},{"Latitude":"10.1724796","Longitude":"-61.4518903","Name":"Ali Avenue"},{"Latitude":"10.3094343","Longitude":"-61.4187356","Name":"Ali Lane"},{"Latitude":"10.1743796","Longitude":"-61.4532031","Name":"Ali Mohammed Avenue"},{"Latitude":"10.2544106","Longitude":"-61.4838106","Name":"Alice Street"},{"Latitude":"10.3332353","Longitude":"-61.4047810","Name":"Alladin Trace"},{"Latitude":"10.2525499","Longitude":"-61.4797442","Name":"Allahar Street"},{"Latitude":"10.2530212","Longitude":"-61.4857526","Name":"Allan Lucky Street"},{"Latitude":"10.3158821","Longitude":"-61.4194092","Name":"Allen Street"},{"Latitude":"10.3399571","Longitude":"-61.3707890","Name":"Alley Street"},{"Latitude":"10.2408817","Longitude":"-61.4877447","Name":"Allison Avenue"},{"Latitude":"10.3141165","Longitude":"-61.4123975","Name":"Alma Street"},{"Latitude":"10.2713677","Longitude":"-61.4515991","Name":"Almond Avenue"},{"Latitude":"10.2636523","Longitude":"-61.4635515","Name":"Almond Boulevard"},{"Latitude":"10.2532834","Longitude":"-61.4538048","Name":"Almond Drive"},{"Latitude":"10.1724159","Longitude":"-61.4821712","Name":"Alta Garcia Trace"},{"Latitude":"10.3092702","Longitude":"-61.4338306","Name":"Altima Drive"},{"Latitude":"10.1654557","Longitude":"-61.4648237","Name":"Alvarado Avenue"},{"Latitude":"10.3046246","Longitude":"-61.4468307","Name":"Amaroonsingh Street"},{"Latitude":"10.2607335","Longitude":"-61.4485516","Name":"Amber Drive"},{"Latitude":"10.1921658","Longitude":"-61.4471715","Name":"Amrish Drive"},{"Latitude":"10.3152014","Longitude":"-61.4234402","Name":"Anand Circular Drive"},{"Latitude":"10.3246405","Longitude":"-61.4289380","Name":"Anand Drive"},{"Latitude":"10.2944613","Longitude":"-61.4531337","Name":"Andre Avenue"},{"Latitude":"10.2555104","Longitude":"-61.4536760","Name":"Angelite Crescent"},{"Latitude":"10.2637057","Longitude":"-61.4435700","Name":"Ankara Lane"},{"Latitude":"10.2768908","Longitude":"-61.4429315","Name":"Anne Street"},{"Latitude":"10.2642077","Longitude":"-61.4424406","Name":"Anthea Lane"},{"Latitude":"10.2413989","Longitude":"-61.4873782","Name":"Anthony Street"},{"Latitude":"10.1873918","Longitude":"-61.4930928","Name":"Antilles Trace"},{"Latitude":"10.3212197","Longitude":"-61.4176365","Name":"Antillia Drive"},{"Latitude":"10.2677413","Longitude":"-61.4407158","Name":"Apolo Lane"},{"Latitude":"10.2569938","Longitude":"-61.4516802","Name":"Apricot Circular Drive"},{"Latitude":"10.2539479","Longitude":"-61.4557038","Name":"Aquamarine Crescent"},{"Latitude":"10.2967337","Longitude":"-61.4445044","Name":"Aqui Phillip Street"},{"Latitude":"10.2910536","Longitude":"-61.4529001","Name":"Arch Street"},{"Latitude":"10.1779401","Longitude":"-61.6780103","Name":"Archer Street"},{"Latitude":"10.2911535","Longitude":"-61.4586774","Name":"Archibald Street"},{"Latitude":"10.2493355","Longitude":"-61.4751832","Name":"Arjoonsingh Drive"},{"Latitude":"10.2551122","Longitude":"-61.4668194","Name":"Arshad Street"},{"Latitude":"10.1293079","Longitude":"-61.7316935","Name":"Ashford Street"},{"Latitude":"10.1275692","Longitude":"-61.7416901","Name":"Ashford Trace"},{"Latitude":"10.2478152","Longitude":"-61.4823080","Name":"Ashley Street"},{"Latitude":"10.1574351","Longitude":"-61.7029794","Name":"Augustine Drive"},{"Latitude":"10.1393560","Longitude":"-61.7959482","Name":"Augustusville"},{"Latitude":"10.0960049","Longitude":"-61.8161295","Name":"Austin Road"},{"Latitude":"10.1740263","Longitude":"-61.6771135","Name":"Austin Street"},{"Latitude":"10.2741126","Longitude":"-61.4553464","Name":"Austin Street"},{"Latitude":"10.2258082","Longitude":"-61.5643679","Name":"Avicennia Drive"},{"Latitude":"10.1687694","Longitude":"-61.4596393","Name":"Azim Avenue"},{"Latitude":"10.2534114","Longitude":"-61.4549227","Name":"Azurite Crescent"},{"Latitude":"10.2743329","Longitude":"-61.4539553","Name":"B Bertrand Street"},{"Latitude":"10.2436493","Longitude":"-61.4764703","Name":"B Pond Road"},{"Latitude":"10.2026745","Longitude":"-61.6299341","Name":"BP Street"},{"Latitude":"10.1844728","Longitude":"-61.4863158","Name":"Bachoo Tr"},{"Latitude":"10.2710391","Longitude":"-61.4664606","Name":"Bagatelle Road"},{"Latitude":"10.2991339","Longitude":"-61.4384035","Name":"Bailey"},{"Latitude":"10.1676754","Longitude":"-61.4536341","Name":"Bajnath Street"},{"Latitude":"10.1676648","Longitude":"-61.4544321","Name":"Bajnath Tr"},{"Latitude":"10.2653247","Longitude":"-61.4562777","Name":"Balisier Avenue"},{"Latitude":"10.1732302","Longitude":"-61.4645800","Name":"Balkaran Street"},{"Latitude":"10.1609936","Longitude":"-61.4433198","Name":"Balsingh Avenue"},{"Latitude":"10.2413439","Longitude":"-61.4902488","Name":"Baltic Avenue"},{"Latitude":"10.1009231","Longitude":"-61.8406125","Name":"Bamboo Road"},{"Latitude":"10.2003588","Longitude":"-61.5415188","Name":"Bamboo Tr"},{"Latitude":"10.1978998","Longitude":"-61.5429417","Name":"Bamboo Trace"},{"Latitude":"10.2153051","Longitude":"-61.5358371","Name":"Bann's Trace"},{"Latitude":"10.1779856","Longitude":"-61.4768366","Name":"Banwarie Branch Tr"},{"Latitude":"10.1838005","Longitude":"-61.4774005","Name":"Banwarie Tr"},{"Latitude":"10.1745604","Longitude":"-61.6808317","Name":"Baptiste Road"},{"Latitude":"10.3118379","Longitude":"-61.4167003","Name":"Baron Avenue"},{"Latitude":"10.0982454","Longitude":"-61.8075726","Name":"Barran Trace"},{"Latitude":"10.1692064","Longitude":"-61.4647695","Name":"Batchyia Branch Tr"},{"Latitude":"10.1726955","Longitude":"-61.4548277","Name":"Batchyia Tr"},{"Latitude":"10.1760582","Longitude":"-61.4606502","Name":"Batchyia Trace"},{"Latitude":"10.3082545","Longitude":"-61.4473123","Name":"Battoo Avenue"},{"Latitude":"10.3001311","Longitude":"-61.4507275","Name":"Battoo Boulevard"},{"Latitude":"10.2578561","Longitude":"-61.4762767","Name":"Bay Road"},{"Latitude":"10.2970867","Longitude":"-61.4551530","Name":"Bay Road"},{"Latitude":"10.2265025","Longitude":"-61.5562193","Name":"Bay View Avenue"},{"Latitude":"10.2392647","Longitude":"-61.4884184","Name":"Bay View Phase"},{"Latitude":"10.2479200","Longitude":"-61.4727700","Name":"Beach Avenue"},{"Latitude":"10.1350695","Longitude":"-61.8044124","Name":"Beach Road"},{"Latitude":"10.2609755","Longitude":"-61.4721824","Name":"Beatrice Avenue"},{"Latitude":"10.1669169","Longitude":"-61.4561021","Name":"Beckles Avenue"},{"Latitude":"10.1660636","Longitude":"-61.4558818","Name":"Beckles Street"},{"Latitude":"10.2486085","Longitude":"-61.4507310","Name":"Beckles Street"},{"Latitude":"10.2460944","Longitude":"-61.4503880","Name":"Beckles Street North"},{"Latitude":"10.2423005","Longitude":"-61.4490246","Name":"Beckles Street South"},{"Latitude":"10.3191767","Longitude":"-61.4191527","Name":"Bedeau Street"},{"Latitude":"10.2565845","Longitude":"-61.4779671","Name":"Bel Air Drive"},{"Latitude":"10.2556421","Longitude":"-61.4831197","Name":"Bel View Drive"},{"Latitude":"10.2250468","Longitude":"-61.5332143","Name":"Belle Vue Gardens"},{"Latitude":"10.1337015","Longitude":"-61.7326631","Name":"Belle Vue Street"},{"Latitude":"10.2723183","Longitude":"-61.4288518","Name":"Belle Vue Street"},{"Latitude":"10.3178225","Longitude":"-61.4150699","Name":"Bellony Drive"},{"Latitude":"10.2250571","Longitude":"-61.5355672","Name":"Benn Street"},{"Latitude":"10.2482089","Longitude":"-61.4628413","Name":"Bennett Road"},{"Latitude":"10.3090785","Longitude":"-61.4361519","Name":"Bentley Drive"},{"Latitude":"10.1860438","Longitude":"-61.6847953","Name":"Bernadette Drive"},{"Latitude":"10.2938812","Longitude":"-61.4410467","Name":"Bernard Julien Circle"},{"Latitude":"10.2207212","Longitude":"-61.5554208","Name":"Bernard Lane"},{"Latitude":"10.2775879","Longitude":"-61.4493901","Name":"Bernard Street"},{"Latitude":"10.2139060","Longitude":"-61.5536365","Name":"Berridge Tr"},{"Latitude":"10.2115722","Longitude":"-61.5495892","Name":"Berridge Trace"},{"Latitude":"10.2756971","Longitude":"-61.4543900","Name":"Bertrand Street"},{"Latitude":"10.2458202","Longitude":"-61.4881023","Name":"Betsy Street"},{"Latitude":"10.2778239","Longitude":"-61.4440975","Name":"Betty Street"},{"Latitude":"10.2690965","Longitude":"-61.4665068","Name":"Bevan Street"},{"Latitude":"10.2459085","Longitude":"-61.4507310","Name":"Bhagwansingh Tr"},{"Latitude":"10.3303404","Longitude":"-61.4173400","Name":"Bhagwansingh Tr"},{"Latitude":"10.1694357","Longitude":"-61.4869623","Name":"Bhimull Branch Tr"},{"Latitude":"10.1733927","Longitude":"-61.4869969","Name":"Bhimull Tr"},{"Latitude":"10.1696092","Longitude":"-61.4556384","Name":"Bhupsingh Street"},{"Latitude":"10.2387810","Longitude":"-61.4887844","Name":"Bien Venue Development"},{"Latitude":"10.1892401","Longitude":"-61.6431970","Name":"Big Snake Alley"},{"Latitude":"10.1834770","Longitude":"-61.4868512","Name":"Birbal Tr"},{"Latitude":"10.2751746","Longitude":"-61.4409553","Name":"Birchwood Boulevard"},{"Latitude":"10.2421299","Longitude":"-61.4527574","Name":"Bishop Avenue"},{"Latitude":"10.1805910","Longitude":"-61.5436277","Name":"Bissoon Tr"},{"Latitude":"10.2216638","Longitude":"-61.5642683","Name":"Black Heat Avenue"},{"Latitude":"10.2722266","Longitude":"-61.4570231","Name":"Blanche Fraser Street"},{"Latitude":"10.2751263","Longitude":"-61.4491227","Name":"Blitz Avenue"},{"Latitude":"10.2574408","Longitude":"-61.4592096","Name":"Bluestone Drive"},{"Latitude":"10.2537947","Longitude":"-61.4859858","Name":"Bobb Street"},{"Latitude":"10.1638235","Longitude":"-61.4558335","Name":"Bobby Avenue"},{"Latitude":"10.1686773","Longitude":"-61.4608889","Name":"Bobby Street"},{"Latitude":"10.2420676","Longitude":"-61.4893196","Name":"Bobby Street"},{"Latitude":"10.3194563","Longitude":"-61.4292698","Name":"Bocas Street"},{"Latitude":"10.0995406","Longitude":"-61.8446055","Name":"Bois Burg Village"},{"Latitude":"10.0909831","Longitude":"-61.8619685","Name":"Bolea Trace"},{"Latitude":"10.1604188","Longitude":"-61.4687037","Name":"Bombay Avenue"},{"Latitude":"10.2630839","Longitude":"-61.4606548","Name":"Bonanza Gardens"},{"Latitude":"10.3489035","Longitude":"-61.3916874","Name":"Bonne Aventure Road"},{"Latitude":"10.2337429","Longitude":"-61.4855957","Name":"Boodhai Tr"},{"Latitude":"10.1907088","Longitude":"-61.4430803","Name":"Boodoo Branch Tr"},{"Latitude":"10.1877800","Longitude":"-61.4403616","Name":"Boodoo Road"},{"Latitude":"10.3105272","Longitude":"-61.4452245","Name":"Boodoosingh Street"},{"Latitude":"10.1427473","Longitude":"-61.7868392","Name":"Boodram Trace"},{"Latitude":"10.2111309","Longitude":"-61.4496039","Name":"Bougainvilla Drive"},{"Latitude":"10.2429171","Longitude":"-61.4661314","Name":"Boulevard Crescent"},{"Latitude":"10.3295524","Longitude":"-61.4275695","Name":"Bourne Street"},{"Latitude":"10.1575407","Longitude":"-61.7060371","Name":"Bowen Patino Heights"},{"Latitude":"10.1778412","Longitude":"-61.4510699","Name":"Bownaath Branch Trace"},{"Latitude":"10.1769413","Longitude":"-61.4531466","Name":"Bownath Tr"},{"Latitude":"10.1769290","Longitude":"-61.4510796","Name":"Bownath Trace"},{"Latitude":"10.2450299","Longitude":"-61.4574733","Name":"Brash Boulevard"},{"Latitude":"10.2658343","Longitude":"-61.4437215","Name":"Brassia Drive"},{"Latitude":"10.2934212","Longitude":"-61.4378565","Name":"Brian Lara Drive"},{"Latitude":"10.3016690","Longitude":"-61.4299684","Name":"Brian Lara Stadium Access Road"},{"Latitude":"10.1779380","Longitude":"-61.6463981","Name":"Brighton Street"},{"Latitude":"10.2746048","Longitude":"-61.4584738","Name":"Brown Street"},{"Latitude":"10.2734403","Longitude":"-61.4306727","Name":"Bruce Fraser Street"},{"Latitude":"10.2445866","Longitude":"-61.4537018","Name":"Bryan'S Gt"},{"Latitude":"10.1729079","Longitude":"-61.6835103","Name":"Bryce Road"},{"Latitude":"10.3150533","Longitude":"-61.4229638","Name":"Bullfinch Lane"},{"Latitude":"10.2989156","Longitude":"-61.4522728","Name":"Busby Street"},{"Latitude":"10.1758252","Longitude":"-61.5321961","Name":"Bushe Street"},{"Latitude":"10.1780276","Longitude":"-61.5436679","Name":"Butler Avenue"},{"Latitude":"10.2672368","Longitude":"-61.4695431","Name":"Butler Street"},{"Latitude":"10.2711487","Longitude":"-61.4459363","Name":"Butterfly Avenue"},{"Latitude":"10.3022204","Longitude":"-61.4449640","Name":"Byron Boulevard"},{"Latitude":"10.2436390","Longitude":"-61.4839447","Name":"Byron Street"},{"Latitude":"10.3304461","Longitude":"-61.4139793","Name":"C Bhagwansingh Tr"},{"Latitude":"10.3143830","Longitude":"-61.4192642","Name":"C Guaracara Street"},{"Latitude":"10.2256697","Longitude":"-61.5725778","Name":"Cacique Drive"},{"Latitude":"10.2639869","Longitude":"-61.4397280","Name":"Cadmea Extension"},{"Latitude":"10.1591433","Longitude":"-61.7069275","Name":"Cadogan Street"},{"Latitude":"10.2557043","Longitude":"-61.4560730","Name":"Calcite Crescent"},{"Latitude":"10.1053192","Longitude":"-61.6875096","Name":"Cameroon Trace"},{"Latitude":"10.0958593","Longitude":"-61.8445646","Name":"Campbell Street"},{"Latitude":"10.1762413","Longitude":"-61.6789586","Name":"Canaan Road"},{"Latitude":"10.2539866","Longitude":"-61.4693729","Name":"Canaan Road"},{"Latitude":"10.2459584","Longitude":"-61.4523795","Name":"Canary Street"},{"Latitude":"10.3106575","Longitude":"-61.4194216","Name":"Cantwell Street"},{"Latitude":"10.1510173","Longitude":"-61.7049962","Name":"Cap-de-Ville Road"},{"Latitude":"10.1646586","Longitude":"-61.6986850","Name":"Cap-de-Ville Road"},{"Latitude":"10.1764294","Longitude":"-61.6804211","Name":"Cape Street"},{"Latitude":"10.2591752","Longitude":"-61.4632632","Name":"Caratal Road"},{"Latitude":"10.3216218","Longitude":"-61.4250193","Name":"Caratal Road"},{"Latitude":"10.3403381","Longitude":"-61.4111234","Name":"Caratal Road Sec 1"},{"Latitude":"10.3421355","Longitude":"-61.3967407","Name":"Carl Avenue"},{"Latitude":"10.2750569","Longitude":"-61.4599126","Name":"Carlton Lane"},{"Latitude":"10.2596169","Longitude":"-61.4538504","Name":"Carnelian Crescent"},{"Latitude":"10.2719609","Longitude":"-61.4521331","Name":"Cassia Avenue"},{"Latitude":"10.2659741","Longitude":"-61.4460854","Name":"Cattleya Drive"},{"Latitude":"10.2647352","Longitude":"-61.4633928","Name":"Cedar Avenue"},{"Latitude":"10.2691742","Longitude":"-61.4525587","Name":"Cedar Drive"},{"Latitude":"10.2407292","Longitude":"-61.4697094","Name":"Cedar Grove Road"},{"Latitude":"10.3039884","Longitude":"-61.4470489","Name":"Cedar Street"},{"Latitude":"10.3092455","Longitude":"-61.4346170","Name":"Cefiro Avenue"},{"Latitude":"10.1587130","Longitude":"-61.7022110","Name":"Cemetary Block Road"},{"Latitude":"10.1877785","Longitude":"-61.5073394","Name":"Centeno Branch Tr"},{"Latitude":"10.3084682","Longitude":"-61.4550060","Name":"Centeno Street"},{"Latitude":"10.1879107","Longitude":"-61.5056839","Name":"Centeno Tr"},{"Latitude":"10.1903169","Longitude":"-61.5074407","Name":"Centeno Trace"},{"Latitude":"10.2917706","Longitude":"-61.4528221","Name":"Central Street"},{"Latitude":"10.2670701","Longitude":"-61.4525866","Name":"Chaconia Avenue"},{"Latitude":"10.2477165","Longitude":"-61.4248370","Name":"Chandai Avenue"},{"Latitude":"10.3036138","Longitude":"-61.4450352","Name":"Chandar Street"},{"Latitude":"10.2642588","Longitude":"-61.4507061","Name":"Chapel Street"},{"Latitude":"10.3266050","Longitude":"-61.4208666","Name":"Chariah Street"},{"Latitude":"10.3131802","Longitude":"-61.4305742","Name":"Charles St South"},{"Latitude":"10.0929219","Longitude":"-61.8591445","Name":"Charles Street"},{"Latitude":"10.2431387","Longitude":"-61.4845186","Name":"Charles Street"},{"Latitude":"10.3072720","Longitude":"-61.4511129","Name":"Charles Street"},{"Latitude":"10.3239016","Longitude":"-61.4292921","Name":"Charles Street"},{"Latitude":"10.2933111","Longitude":"-61.4413530","Name":"Charlie Davis Drive"},{"Latitude":"10.1445400","Longitude":"-61.7482068","Name":"Chatham Beach Road North"},{"Latitude":"10.1070456","Longitude":"-61.7357879","Name":"Chatham Beach Road South"},{"Latitude":"10.1325926","Longitude":"-61.7446994","Name":"Chatham Road North"},{"Latitude":"10.1724407","Longitude":"-61.5290894","Name":"Chatoor Avenue"},{"Latitude":"10.2713677","Longitude":"-61.4515991","Name":"Cherry Avenue"},{"Latitude":"10.2041284","Longitude":"-61.4546554","Name":"Chester Street"},{"Latitude":"10.2571425","Longitude":"-61.4509404","Name":"Chestnut Avenue"},{"Latitude":"10.2157026","Longitude":"-61.5705522","Name":"Chicken Farm Road"},{"Latitude":"10.1855016","Longitude":"-61.5060962","Name":"Chickoree Street"},{"Latitude":"10.2495639","Longitude":"-61.4655824","Name":"Chin Aleong Street"},{"Latitude":"10.3087641","Longitude":"-61.3727725","Name":"Chootiwah Trace"},{"Latitude":"10.3349637","Longitude":"-61.4220970","Name":"Christian Drive"},{"Latitude":"10.2715629","Longitude":"-61.4630706","Name":"Christian Street"},{"Latitude":"10.2582605","Longitude":"-61.4491162","Name":"Chrysolite Crescent"},{"Latitude":"10.1566027","Longitude":"-61.7042178","Name":"Chunilal Road"},{"Latitude":"10.2253220","Longitude":"-61.5487453","Name":"Church Road"},{"Latitude":"10.1727742","Longitude":"-61.6858171","Name":"Church Street"},{"Latitude":"10.1630011","Longitude":"-61.4528219","Name":"Church Street"},{"Latitude":"10.2442168","Longitude":"-61.4814497","Name":"Church Street"},{"Latitude":"10.3057129","Longitude":"-61.4488534","Name":"Church Street"},{"Latitude":"10.3183840","Longitude":"-61.4268209","Name":"Church Street"},{"Latitude":"10.1729588","Longitude":"-61.6823623","Name":"Churchill Road"},{"Latitude":"10.2641713","Longitude":"-61.4355295","Name":"Cipero Railway Line"},{"Latitude":"10.2624421","Longitude":"-61.4428538","Name":"Cipero Railway Line Road"},{"Latitude":"10.2601344","Longitude":"-61.4446719","Name":"Cipero Road"},{"Latitude":"10.2704826","Longitude":"-61.4597705","Name":"Cipero Street"},{"Latitude":"10.3205560","Longitude":"-61.4284437","Name":"Cippy Street"},{"Latitude":"10.2511084","Longitude":"-61.4289094","Name":"Circle Drive"},{"Latitude":"10.2687528","Longitude":"-61.4290587","Name":"Circular Drive"},{"Latitude":"10.3058304","Longitude":"-61.4434982","Name":"Circular Drive"},{"Latitude":"10.2722263","Longitude":"-61.4454450","Name":"Circular Gdns"},{"Latitude":"10.2719253","Longitude":"-61.4444677","Name":"Circular Left"},{"Latitude":"10.2552857","Longitude":"-61.4587629","Name":"Citrine Drive"},{"Latitude":"10.3063134","Longitude":"-61.4378424","Name":"Civic Drive"},{"Latitude":"10.2749840","Longitude":"-61.4560789","Name":"Claire Street"},{"Latitude":"10.1911833","Longitude":"-61.5423972","Name":"Clarence Bissoon Avenue"},{"Latitude":"10.2758700","Longitude":"-61.4571391","Name":"Clark Street"},{"Latitude":"10.1647778","Longitude":"-61.4228910","Name":"Clarke Road"},{"Latitude":"10.1676607","Longitude":"-61.4576971","Name":"Clarke Street"},{"Latitude":"10.2766647","Longitude":"-61.4308651","Name":"Clarke Street"},{"Latitude":"10.2142322","Longitude":"-61.4483566","Name":"Clarkia Drive"},{"Latitude":"10.2413361","Longitude":"-61.4832622","Name":"Claude Street"},{"Latitude":"10.1764861","Longitude":"-61.6874673","Name":"Claude Williams Drive"},{"Latitude":"10.3440508","Longitude":"-61.4205585","Name":"Cleghorn Gardens"},{"Latitude":"10.2422877","Longitude":"-61.4881826","Name":"Clyde Street"},{"Latitude":"10.3109390","Longitude":"-61.4206515","Name":"Co-operative Approach"},{"Latitude":"10.3288867","Longitude":"-61.4056376","Name":"Cocoa Piece Road"},{"Latitude":"10.2710455","Longitude":"-61.4511988","Name":"Coconut Boulevard"},{"Latitude":"10.3235176","Longitude":"-61.3889821","Name":"Coconut Tr"},{"Latitude":"10.1623291","Longitude":"-61.6975571","Name":"Coconut Trace"},{"Latitude":"10.3145016","Longitude":"-61.4220152","Name":"Cocrico Lane"},{"Latitude":"10.2778323","Longitude":"-61.4604699","Name":"Coffee Street"},{"Latitude":"10.2262882","Longitude":"-61.5378218","Name":"Coker Street"},{"Latitude":"10.1783921","Longitude":"-61.5462631","Name":"Colley Street"},{"Latitude":"10.2516438","Longitude":"-61.4699809","Name":"Colthrust Drive"},{"Latitude":"10.1508602","Longitude":"-61.7052476","Name":"Community Center Street"},{"Latitude":"10.1788183","Longitude":"-61.5458646","Name":"Coolman Street"},{"Latitude":"10.2758567","Longitude":"-61.4563036","Name":"Cooper Street"},{"Latitude":"10.2689310","Longitude":"-61.4316397","Name":"Coquette Street"},{"Latitude":"10.2403119","Longitude":"-61.4900700","Name":"Coral Drive"},{"Latitude":"10.2687256","Longitude":"-61.4461637","Name":"Corallita Drive"},{"Latitude":"10.3062964","Longitude":"-61.3829619","Name":"Corial Road"},{"Latitude":"10.2699253","Longitude":"-61.4376554","Name":"Corinth Estate Road"},{"Latitude":"10.2633375","Longitude":"-61.4436504","Name":"Corinth Hills"},{"Latitude":"10.2667244","Longitude":"-61.4423088","Name":"Corinth Road"},{"Latitude":"10.2722118","Longitude":"-61.4327777","Name":"Corinth Settlement Road"},{"Latitude":"10.2409069","Longitude":"-61.4260944","Name":"Cottage Road"},{"Latitude":"10.1625680","Longitude":"-61.7011412","Name":"Country Trace"},{"Latitude":"10.1626459","Longitude":"-61.7011210","Name":"Country Trace"},{"Latitude":"10.2788699","Longitude":"-61.4647923","Name":"Court Street"},{"Latitude":"10.3401993","Longitude":"-61.3824836","Name":"Crawford Gardens"},{"Latitude":"10.3021656","Longitude":"-61.4461496","Name":"Crescent Avenue"},{"Latitude":"10.1776137","Longitude":"-61.5485581","Name":"Crest Camp"},{"Latitude":"10.2258280","Longitude":"-61.5523359","Name":"Crest Drive"},{"Latitude":"10.2717728","Longitude":"-61.4508210","Name":"Crestnut Drive"},{"Latitude":"10.2723573","Longitude":"-61.4587277","Name":"Crichlow Street"},{"Latitude":"10.2392226","Longitude":"-61.4638896","Name":"Crissy Street"},{"Latitude":"10.3011129","Longitude":"-61.4377440","Name":"Crooks Avenue"},{"Latitude":"10.2773256","Longitude":"-61.4581585","Name":"Crosbil Street"},{"Latitude":"10.2651463","Longitude":"-61.4593292","Name":"Cross Crossing"},{"Latitude":"10.2552647","Longitude":"-61.4677657","Name":"Crumps Avenue"},{"Latitude":"10.2072137","Longitude":"-61.4496444","Name":"Cuchawan Tr"},{"Latitude":"10.2117929","Longitude":"-61.4488135","Name":"Cuchawan Trace East"},{"Latitude":"10.2031385","Longitude":"-61.4543094","Name":"Cuchawan Trace West"},{"Latitude":"10.3301135","Longitude":"-61.3756909","Name":"Cumberbatch Trace"},{"Latitude":"10.1623826","Longitude":"-61.7005306","Name":"Cunningham Road"},{"Latitude":"10.2772206","Longitude":"-61.4304280","Name":"Cunningham Street"},{"Latitude":"10.2642401","Longitude":"-61.4661898","Name":"Cypre Boulevard"},{"Latitude":"10.2628613","Longitude":"-61.4641359","Name":"Cypress Avenue"},{"Latitude":"10.2550821","Longitude":"-61.4529678","Name":"Cypress Boulevard"},{"Latitude":"10.1962420","Longitude":"-61.5338839","Name":"Dabie Avenue"},{"Latitude":"10.2570610","Longitude":"-61.4580853","Name":"Dabiedeen Avenue"},{"Latitude":"10.2751386","Longitude":"-61.4280877","Name":"Daisey Road"},{"Latitude":"10.1686665","Longitude":"-61.4823373","Name":"Dalipsingh Street"},{"Latitude":"10.3248645","Longitude":"-61.4157658","Name":"Dalloo Road"},{"Latitude":"10.2619477","Longitude":"-61.4723876","Name":"Daniel Drive"},{"Latitude":"10.3214269","Longitude":"-61.4213152","Name":"Daniel Private Road"},{"Latitude":"10.3218604","Longitude":"-61.4236158","Name":"Darneaud Street"},{"Latitude":"10.2933046","Longitude":"-61.4386504","Name":"Darren Ganga Drive"},{"Latitude":"10.2687143","Longitude":"-61.4583570","Name":"Dasent Street"},{"Latitude":"10.2508158","Longitude":"-61.4794407","Name":"Dath Avenue"},{"Latitude":"10.1687636","Longitude":"-61.5208355","Name":"David Drive"},{"Latitude":"10.2685877","Longitude":"-61.4568952","Name":"David Pitt Street"},{"Latitude":"10.2974762","Longitude":"-61.4451126","Name":"Davidson Street"},{"Latitude":"10.2445517","Longitude":"-61.4620684","Name":"De Montagnac Drive"},{"Latitude":"10.2422873","Longitude":"-61.4716463","Name":"De Verteuil Street"},{"Latitude":"10.2051233","Longitude":"-61.4603164","Name":"Debe Bunsee Trace"},{"Latitude":"10.2137397","Longitude":"-61.4462264","Name":"Debe Housing Dev"},{"Latitude":"10.2132738","Longitude":"-61.4519536","Name":"Debe Sub Office"},{"Latitude":"10.2099280","Longitude":"-61.4541967","Name":"Debe Tr"},{"Latitude":"10.2203438","Longitude":"-61.5725162","Name":"Deer Gardens"},{"Latitude":"10.3241731","Longitude":"-61.4267354","Name":"Delaney Avenue"},{"Latitude":"10.1798467","Longitude":"-61.5570402","Name":"Delhi Road"},{"Latitude":"10.3090395","Longitude":"-61.4353823","Name":"Delta Avenue"},{"Latitude":"10.2645601","Longitude":"-61.4416082","Name":"Demeter Lane"},{"Latitude":"10.1807606","Longitude":"-61.4939474","Name":"Deosaran Tr"},{"Latitude":"10.2928626","Longitude":"-61.4423254","Name":"Derrick Murry Drive"},{"Latitude":"10.2037100","Longitude":"-61.4449726","Name":"Derrick Road"},{"Latitude":"10.2463468","Longitude":"-61.4480094","Name":"Derrick Road"},{"Latitude":"10.2567925","Longitude":"-61.4539721","Name":"Desert Rose Crescent"},{"Latitude":"10.2482404","Longitude":"-61.4791137","Name":"Devon Street"},{"Latitude":"10.2504218","Longitude":"-61.4562594","Name":"Diamond Boulevard"},{"Latitude":"10.2114087","Longitude":"-61.4472867","Name":"Dianta Drive"},{"Latitude":"10.2712216","Longitude":"-61.4557169","Name":"Dick Street"},{"Latitude":"10.2759884","Longitude":"-61.4583085","Name":"Dickson Street"},{"Latitude":"10.2944772","Longitude":"-61.4396945","Name":"Dinanath Ramnarine Drive"},{"Latitude":"10.1897189","Longitude":"-61.5235962","Name":"Dolly Balgobin Trace"},{"Latitude":"10.3013605","Longitude":"-61.4554140","Name":"Dolly Street"},{"Latitude":"10.3208617","Longitude":"-61.4290641","Name":"Dolly Tr"},{"Latitude":"10.2693491","Longitude":"-61.4584911","Name":"Donaldson Street"},{"Latitude":"10.1695780","Longitude":"-61.4535845","Name":"Dookie Street"},{"Latitude":"10.1819245","Longitude":"-61.4871310","Name":"Doorbassa Tr"},{"Latitude":"10.2768318","Longitude":"-61.4556894","Name":"Dottin Street"},{"Latitude":"10.3153201","Longitude":"-61.4230459","Name":"Dove Lane"},{"Latitude":"10.2488286","Longitude":"-61.4575104","Name":"Dove Street"},{"Latitude":"10.2654277","Longitude":"-61.4485261","Name":"Dove Walk"},{"Latitude":"10.2204636","Longitude":"-61.5559599","Name":"Dow Avenue"},{"Latitude":"10.2750012","Longitude":"-61.4567086","Name":"Drayton Street"},{"Latitude":"10.1850988","Longitude":"-61.5456594","Name":"Dubarry Branch Street"},{"Latitude":"10.2059843","Longitude":"-61.5355608","Name":"Dubarry Pk"},{"Latitude":"10.1854751","Longitude":"-61.5471295","Name":"Dubarry Street"},{"Latitude":"10.1849654","Longitude":"-61.5468088","Name":"Dubarry Tr"},{"Latitude":"10.2227414","Longitude":"-61.5377222","Name":"Duke Street"},{"Latitude":"10.1657339","Longitude":"-61.6934570","Name":"Dumfries Road"},{"Latitude":"10.2324204","Longitude":"-61.4663493","Name":"Dumfries Road"},{"Latitude":"10.2521856","Longitude":"-61.4741518","Name":"Dumfries Road"},{"Latitude":"10.3317578","Longitude":"-61.4198268","Name":"Duncan Boulevard"},{"Latitude":"10.3051606","Longitude":"-61.4496323","Name":"Dunford Street"},{"Latitude":"10.1682897","Longitude":"-61.6611725","Name":"Dunlop Roundabout"},{"Latitude":"10.2741218","Longitude":"-61.4572349","Name":"Dymally Ln"},{"Latitude":"10.1674901","Longitude":"-61.5207739","Name":"Dynamix Ter"},{"Latitude":"10.3361458","Longitude":"-61.4128823","Name":"E Parforce Road"},{"Latitude":"10.1616566","Longitude":"-61.6954441","Name":"E Street"},{"Latitude":"10.2252219","Longitude":"-61.5741822","Name":"Eagle Crescent"},{"Latitude":"10.2680909","Longitude":"-61.4278528","Name":"Eastern Drive"},{"Latitude":"10.2271465","Longitude":"-61.5427345","Name":"Eastside Drive"},{"Latitude":"10.1799324","Longitude":"-61.5471494","Name":"Easy Street"},{"Latitude":"10.2005936","Longitude":"-61.5963848","Name":"Eccles Tr"},{"Latitude":"10.3205252","Longitude":"-61.3729948","Name":"Eckels Vig Road"},{"Latitude":"10.2687886","Longitude":"-61.4665808","Name":"Eden Street"},{"Latitude":"10.2506569","Longitude":"-61.4677427","Name":"Edoos Development"},{"Latitude":"10.2714662","Longitude":"-61.4298882","Name":"Edward Circular Street"},{"Latitude":"10.2706225","Longitude":"-61.4587298","Name":"Edward Lee Street"},{"Latitude":"10.0924796","Longitude":"-61.8600443","Name":"Edward Street"},{"Latitude":"10.3086451","Longitude":"-61.4338852","Name":"Elantra Avenue"},{"Latitude":"10.2945374","Longitude":"-61.4570670","Name":"Eleanor Street"},{"Latitude":"10.2992051","Longitude":"-61.4396797","Name":"Eleventh Street"},{"Latitude":"10.2470098","Longitude":"-61.4782355","Name":"Elizabeth Street"},{"Latitude":"10.2952183","Longitude":"-61.4559952","Name":"Elizabeth Street"},{"Latitude":"10.2981812","Longitude":"-61.4551554","Name":"Ellis Street"},{"Latitude":"10.2701719","Longitude":"-61.4508488","Name":"Elm Avenue"},{"Latitude":"10.2556558","Longitude":"-61.4518845","Name":"Elm Street"},{"Latitude":"10.2685885","Longitude":"-61.4398283","Name":"Elra Lane"},{"Latitude":"10.1582410","Longitude":"-61.7061898","Name":"Elton Street"},{"Latitude":"10.1582410","Longitude":"-61.7061898","Name":"Elton Trace"},{"Latitude":"10.2416653","Longitude":"-61.4514985","Name":"Emerald Avenue"},{"Latitude":"10.3063072","Longitude":"-61.4556221","Name":"Enid Street"},{"Latitude":"10.1413600","Longitude":"-61.7017358","Name":"Erin Road"},{"Latitude":"10.2649553","Longitude":"-61.4407689","Name":"Ersa Lane"},{"Latitude":"10.2546995","Longitude":"-61.4717841","Name":"Estate Road"},{"Latitude":"10.2506442","Longitude":"-61.4748908","Name":"Estate Tr"},{"Latitude":"10.2515785","Longitude":"-61.4774199","Name":"Estate Trace"},{"Latitude":"10.2431697","Longitude":"-61.4853271","Name":"Ethel Street"},{"Latitude":"10.2667543","Longitude":"-61.4415314","Name":"Ethon Lane"},{"Latitude":"10.3165586","Longitude":"-61.4146148","Name":"Everlina Terrace"},{"Latitude":"10.1643868","Longitude":"-61.4651993","Name":"F Lowkie Tr Extension"},{"Latitude":"10.1662634","Longitude":"-61.4614851","Name":"F Sunrees Road"},{"Latitude":"10.3072306","Longitude":"-61.4447554","Name":"FIrst Street"},{"Latitude":"10.3033164","Longitude":"-61.4379125","Name":"Fahey"},{"Latitude":"10.2639168","Longitude":"-61.4719424","Name":"Fahey Avenue"},{"Latitude":"10.2644366","Longitude":"-61.4695279","Name":"Fahey Street"},{"Latitude":"10.3426208","Longitude":"-61.3752939","Name":"Fahey Street"},{"Latitude":"10.2434604","Longitude":"-61.4524463","Name":"Falcon Avenue"},{"Latitude":"10.2239816","Longitude":"-61.5733771","Name":"Falcon Circular"},{"Latitude":"10.2742187","Longitude":"-61.4475506","Name":"Falcon Crest Drive"},{"Latitude":"10.1645184","Longitude":"-61.6960813","Name":"Fanny Village School  Road"},{"Latitude":"10.2697476","Longitude":"-61.4657003","Name":"Farah Street"},{"Latitude":"10.2573701","Longitude":"-61.4800769","Name":"Faralon Drive"},{"Latitude":"10.2117217","Longitude":"-61.5725563","Name":"Farm Road"},{"Latitude":"10.1580263","Longitude":"-61.7069147","Name":"Farrel Street"},{"Latitude":"10.2716615","Longitude":"-61.4579945","Name":"Farrell Street"},{"Latitude":"10.1653772","Longitude":"-61.4564156","Name":"Fazal Avenue"},{"Latitude":"10.2522877","Longitude":"-61.4547892","Name":"Feldspar Crescent"},{"Latitude":"10.3167211","Longitude":"-61.4294387","Name":"Ferdinand Street"},{"Latitude":"10.3084592","Longitude":"-61.4356891","Name":"Ferrari Drive"},{"Latitude":"10.2572292","Longitude":"-61.4533529","Name":"Fieldfare Drive"},{"Latitude":"10.2984798","Longitude":"-61.4505805","Name":"Fifth Avenue"},{"Latitude":"10.2697883","Longitude":"-61.4331002","Name":"Fifth Street"},{"Latitude":"10.3073826","Longitude":"-61.4477186","Name":"Fifth Street"},{"Latitude":"10.1791259","Longitude":"-61.6531375","Name":"Filtration Plant Road"},{"Latitude":"10.2458688","Longitude":"-61.4519943","Name":"Finch Street"},{"Latitude":"10.2762472","Longitude":"-61.4424134","Name":"Fiona Street"},{"Latitude":"10.2984187","Longitude":"-61.4486571","Name":"First Avenue"},{"Latitude":"10.2723145","Longitude":"-61.4327511","Name":"First Street"},{"Latitude":"10.3062088","Longitude":"-61.4455626","Name":"First Street"},{"Latitude":"10.2680015","Longitude":"-61.4537474","Name":"Flambouyant Crescent"},{"Latitude":"10.2212127","Longitude":"-61.5684288","Name":"Flambouyant Drive"},{"Latitude":"10.1770138","Longitude":"-61.5452906","Name":"Flamingo Avenue"},{"Latitude":"10.2494547","Longitude":"-61.4588897","Name":"Flamingo Avenue"},{"Latitude":"10.2659117","Longitude":"-61.4476286","Name":"Flamingo Cr"},{"Latitude":"10.2223232","Longitude":"-61.5694808","Name":"Flamingo Dr"},{"Latitude":"10.2762673","Longitude":"-61.4551681","Name":"Fonrose Street"},{"Latitude":"10.1359698","Longitude":"-61.7284336","Name":"Food Crop Road"},{"Latitude":"10.3210163","Longitude":"-61.3674738","Name":"Forbes Trace"},{"Latitude":"10.1597494","Longitude":"-61.5843338","Name":"Forest Reserve Road"},{"Latitude":"10.2014514","Longitude":"-61.6324052","Name":"Fortune McCarthy Street"},{"Latitude":"10.2980577","Longitude":"-61.4497538","Name":"Fourth Avenue"},{"Latitude":"10.2703791","Longitude":"-61.4327885","Name":"Fourth Street"},{"Latitude":"10.3062999","Longitude":"-61.4492985","Name":"Fourth Street"},{"Latitude":"10.2703365","Longitude":"-61.4320854","Name":"Fourth Street East"},{"Latitude":"10.2783560","Longitude":"-61.4471022","Name":"Fran Street"},{"Latitude":"10.2715203","Longitude":"-61.4310143","Name":"Francis Street"},{"Latitude":"10.2193407","Longitude":"-61.5559223","Name":"Franklin Lane"},{"Latitude":"10.1669956","Longitude":"-61.4577097","Name":"Fraser Street"},{"Latitude":"10.2581959","Longitude":"-61.4566463","Name":"Frederick Boulevard"},{"Latitude":"10.1580133","Longitude":"-61.6768733","Name":"Frederick Street"},{"Latitude":"10.3054537","Longitude":"-61.4504491","Name":"Frederick Street"},{"Latitude":"10.2748330","Longitude":"-61.4482430","Name":"Freedom Street"},{"Latitude":"10.2753697","Longitude":"-61.4648377","Name":"Freeling Street"},{"Latitude":"10.1738377","Longitude":"-61.6814663","Name":"Frisco Junction"},{"Latitude":"10.0875804","Longitude":"-61.8889753","Name":"Fullerton Beach Road"},{"Latitude":"10.1819453","Longitude":"-61.5453027","Name":"Fyzabad Junction"},{"Latitude":"10.1640982","Longitude":"-61.6949206","Name":"G Street"},{"Latitude":"10.2407762","Longitude":"-61.4815149","Name":"Gail St"},{"Latitude":"10.1707214","Longitude":"-61.4738406","Name":"Gallai Tr"},{"Latitude":"10.2620808","Longitude":"-61.4601035","Name":"Gallant Drive"},{"Latitude":"10.2951686","Longitude":"-61.4570242","Name":"Gandhi Street"},{"Latitude":"10.2552941","Longitude":"-61.4553415","Name":"Gardenia"},{"Latitude":"10.2571148","Longitude":"-61.4575633","Name":"Gardenia Drive"},{"Latitude":"10.0925478","Longitude":"-61.8597005","Name":"Gardieu Street"},{"Latitude":"10.3132513","Longitude":"-61.3974275","Name":"Garib Street"},{"Latitude":"10.3101614","Longitude":"-61.3776340","Name":"Garth Road"},{"Latitude":"10.3413493","Longitude":"-61.3780261","Name":"Gaskin Road"},{"Latitude":"10.3286129","Longitude":"-61.4102730","Name":"Gaspar Lane"},{"Latitude":"10.3060262","Longitude":"-61.4264756","Name":"Gasparillo Bypass Road"},{"Latitude":"10.3187269","Longitude":"-61.4273857","Name":"Gasparillo Caratal Road"},{"Latitude":"10.3301206","Longitude":"-61.4092250","Name":"Gasper Green Dev"},{"Latitude":"10.2065215","Longitude":"-61.4463656","Name":"Gayah Dev"},{"Latitude":"10.1825035","Longitude":"-61.4763173","Name":"Gayah Tr"},{"Latitude":"10.1869189","Longitude":"-61.4766380","Name":"Gayah Tr Flat . San Francique Rd"},{"Latitude":"10.2587999","Longitude":"-61.4733261","Name":"Genevieve Avenue"},{"Latitude":"10.1748855","Longitude":"-61.6460857","Name":"George Blake Road"},{"Latitude":"10.1763871","Longitude":"-61.6783218","Name":"George Street"},{"Latitude":"10.0927879","Longitude":"-61.8585584","Name":"George Street"},{"Latitude":"10.2436878","Longitude":"-61.4830297","Name":"George Street"},{"Latitude":"10.1547694","Longitude":"-61.6793713","Name":"Gerald Street"},{"Latitude":"10.2709003","Longitude":"-61.4435713","Name":"Geranium Cr"},{"Latitude":"10.2707578","Longitude":"-61.4464842","Name":"Gerbera Lane"},{"Latitude":"10.2080043","Longitude":"-61.4621066","Name":"Ghandi Vill"},{"Latitude":"10.2072286","Longitude":"-61.4594953","Name":"Ghandi Village"},{"Latitude":"10.1750094","Longitude":"-61.5681267","Name":"Gheerahoo Branch Tr"},{"Latitude":"10.1795887","Longitude":"-61.5659552","Name":"Gheerahoo Tr"},{"Latitude":"10.1795999","Longitude":"-61.5670140","Name":"Gheerahoo Trace"},{"Latitude":"10.2925009","Longitude":"-61.4487081","Name":"Gibbs Street"},{"Latitude":"10.3194847","Longitude":"-61.4223103","Name":"Glen Andrew Circular"},{"Latitude":"10.2281806","Longitude":"-61.5395849","Name":"Global Drive"},{"Latitude":"10.3290922","Longitude":"-61.4079242","Name":"Gokool Avenue"},{"Latitude":"10.2463026","Longitude":"-61.4371779","Name":"Golconda"},{"Latitude":"10.2612746","Longitude":"-61.4519915","Name":"Golconda Connector Road"},{"Latitude":"10.2537119","Longitude":"-61.4371171","Name":"Golconda Road"},{"Latitude":"10.2506217","Longitude":"-61.4388897","Name":"Golconda Settl"},{"Latitude":"10.2515056","Longitude":"-61.4569628","Name":"Goldstone Street"},{"Latitude":"10.2751450","Longitude":"-61.4635228","Name":"Gomez Street"},{"Latitude":"10.2736835","Longitude":"-61.4592580","Name":"Gooding Street"},{"Latitude":"10.3266355","Longitude":"-61.4246438","Name":"Goodman Street"},{"Latitude":"10.1540851","Longitude":"-61.4362689","Name":"Goodman Tr"},{"Latitude":"10.3178694","Longitude":"-61.4207657","Name":"Gopaul Avenue"},{"Latitude":"10.2964936","Longitude":"-61.4424765","Name":"Gopaul Circular Drive"},{"Latitude":"10.2991339","Longitude":"-61.4384035","Name":"Gopaul Lands"},{"Latitude":"10.2477165","Longitude":"-61.4248370","Name":"Gopaul Street"},{"Latitude":"10.2996914","Longitude":"-61.4461000","Name":"Gopaul Street"},{"Latitude":"10.1852534","Longitude":"-61.4634879","Name":"Gopie Branch Tr"},{"Latitude":"10.1852693","Longitude":"-61.4534759","Name":"Gopie Tr"},{"Latitude":"10.1837767","Longitude":"-61.4553930","Name":"Gopie Trace"},{"Latitude":"10.3018267","Longitude":"-61.4356299","Name":"Gordon Avenue"},{"Latitude":"10.3135178","Longitude":"-61.3829217","Name":"Gordon Avenue"},{"Latitude":"10.2770260","Longitude":"-61.4661649","Name":"Gordon Street"},{"Latitude":"10.1615214","Longitude":"-61.4612426","Name":"Gosine Tr"},{"Latitude":"10.2240740","Longitude":"-61.5319613","Name":"Government School Tr"},{"Latitude":"10.1838976","Longitude":"-61.5508066","Name":"Gowers Well Road"},{"Latitude":"10.2410575","Longitude":"-61.4859454","Name":"Grace Lane"},{"Latitude":"10.3085193","Longitude":"-61.4431440","Name":"Graham Street"},{"Latitude":"10.3079350","Longitude":"-61.4371345","Name":"Granada Terrace"},{"Latitude":"10.2752558","Longitude":"-61.4642029","Name":"Gransaul Street"},{"Latitude":"10.1927088","Longitude":"-61.5835591","Name":"Grant Trace"},{"Latitude":"10.2056489","Longitude":"-61.5847931","Name":"Grants Road"},{"Latitude":"10.2006280","Longitude":"-61.5912089","Name":"Grants Tr"},{"Latitude":"10.1980714","Longitude":"-61.5867933","Name":"Grants Trace"},{"Latitude":"10.1061699","Longitude":"-61.8072387","Name":"Granville Road"},{"Latitude":"10.1551057","Longitude":"-61.6949044","Name":"Gregory Street"},{"Latitude":"10.2275926","Longitude":"-61.5531281","Name":"Grove Pk"},{"Latitude":"10.1771142","Longitude":"-61.6805132","Name":"Guadeloupe Road"},{"Latitude":"10.1735780","Longitude":"-61.6867173","Name":"Guapo Cap-de-Ville Main Road"},{"Latitude":"10.1748422","Longitude":"-61.6850197","Name":"Guapo Cap-de-Ville Main Road"},{"Latitude":"10.1766532","Longitude":"-61.5467268","Name":"Guapo Road"},{"Latitude":"10.3120020","Longitude":"-61.4174543","Name":"Guaracara Street"},{"Latitude":"10.3095993","Longitude":"-61.4312875","Name":"Guaracara Tabaquite Road"},{"Latitude":"10.3130261","Longitude":"-61.4165899","Name":"Guaracara-Tabaquite Road"},{"Latitude":"10.1759439","Longitude":"-61.6830792","Name":"Guava Road"},{"Latitude":"10.2621878","Longitude":"-61.4717046","Name":"Guilen Avenue"},{"Latitude":"10.2582745","Longitude":"-61.4803523","Name":"Gulf Drive"},{"Latitude":"10.2407270","Longitude":"-61.4887242","Name":"Gulf Drive East"},{"Latitude":"10.2410826","Longitude":"-61.4890301","Name":"Gulf Drive West"},{"Latitude":"10.2245394","Longitude":"-61.5561045","Name":"Gulf Ridge Avenue"},{"Latitude":"10.2231528","Longitude":"-61.5557392","Name":"Gulf Ridge Circular"},{"Latitude":"10.2587429","Longitude":"-61.4771189","Name":"Gulf View"},{"Latitude":"10.2585614","Longitude":"-61.4749458","Name":"Gulf View Circular Drive"},{"Latitude":"10.2630174","Longitude":"-61.4726205","Name":"Gulf View Drive"},{"Latitude":"10.2606400","Longitude":"-61.4686915","Name":"Gulf View Link Road"},{"Latitude":"10.2917843","Longitude":"-61.4585982","Name":"Guppy St"},{"Latitude":"10.3262532","Longitude":"-61.4074911","Name":"H Phekoo Tr"},{"Latitude":"10.3263949","Longitude":"-61.4236120","Name":"H San Fabien Road"},{"Latitude":"10.2916755","Longitude":"-61.4510771","Name":"Happy Hill Drive"},{"Latitude":"10.1952453","Longitude":"-61.4649923","Name":"Harbajan Hill"},{"Latitude":"10.1955410","Longitude":"-61.4642038","Name":"Harbhajan Hill"},{"Latitude":"10.3121983","Longitude":"-61.4279731","Name":"Harmony Hall"},{"Latitude":"10.3124841","Longitude":"-61.4289375","Name":"Harmony Hall Road"},{"Latitude":"10.3102327","Longitude":"-61.4301960","Name":"Harmony Hall Road"},{"Latitude":"10.3423916","Longitude":"-61.4056291","Name":"Harnanan Tr"},{"Latitude":"10.2959323","Longitude":"-61.4507517","Name":"Harold Avenue"},{"Latitude":"10.1653343","Longitude":"-61.4637199","Name":"Harrilal Avenue"},{"Latitude":"10.1658489","Longitude":"-61.4634472","Name":"Harrilal Drive"},{"Latitude":"10.3082525","Longitude":"-61.4006300","Name":"Harris Promenade"},{"Latitude":"10.2726861","Longitude":"-61.4659433","Name":"Harris Street"},{"Latitude":"10.2631376","Longitude":"-61.4500643","Name":"Harrison Street"},{"Latitude":"10.2984331","Longitude":"-61.4380527","Name":"Harry Street"},{"Latitude":"10.2511688","Longitude":"-61.4551345","Name":"Hassanali Street"},{"Latitude":"10.2391803","Longitude":"-61.4836819","Name":"Hector Street"},{"Latitude":"10.3039189","Longitude":"-61.4519796","Name":"Helen Street"},{"Latitude":"10.1001700","Longitude":"-61.7950944","Name":"Henderson Road"},{"Latitude":"10.1777775","Longitude":"-61.6806001","Name":"Henry Street"},{"Latitude":"10.0919409","Longitude":"-61.8566913","Name":"Henry Street"},{"Latitude":"10.2749102","Longitude":"-61.4584742","Name":"Henry Street"},{"Latitude":"10.3194078","Longitude":"-61.4261002","Name":"Henry Street"},{"Latitude":"10.2485796","Longitude":"-61.4787355","Name":"Herbert Street"},{"Latitude":"10.1581427","Longitude":"-61.6815887","Name":"Hercules Avenue"},{"Latitude":"10.3504795","Longitude":"-61.4249288","Name":"Hermitage Road"},{"Latitude":"10.2328216","Longitude":"-61.4665115","Name":"Hermitage Settl"},{"Latitude":"10.2334287","Longitude":"-61.4675536","Name":"Hermitage Settlement"},{"Latitude":"10.2216989","Longitude":"-61.5693970","Name":"Heron Way"},{"Latitude":"10.2920905","Longitude":"-61.4471074","Name":"Herrera Street"},{"Latitude":"10.2483727","Longitude":"-61.4282757","Name":"Herrera Tr"},{"Latitude":"10.3304874","Longitude":"-61.4096599","Name":"Hibiscus Avenue"},{"Latitude":"10.2114043","Longitude":"-61.4464733","Name":"Hibiscus Drive"},{"Latitude":"10.2672265","Longitude":"-61.4277955","Name":"Hibiscus Drive"},{"Latitude":"10.3139930","Longitude":"-61.4142756","Name":"Hibiscus Drive"},{"Latitude":"10.2709410","Longitude":"-61.4615107","Name":"Hickling Street"},{"Latitude":"10.3108501","Longitude":"-61.4273341","Name":"High Street"},{"Latitude":"10.2638388","Longitude":"-61.4390011","Name":"Highway Access Road"},{"Latitude":"10.3149648","Longitude":"-61.4140497","Name":"Hilaire Tr"},{"Latitude":"10.2711481","Longitude":"-61.4569004","Name":"Hilda Lazzari Terrace"},{"Latitude":"10.2110459","Longitude":"-61.5359157","Name":"Hilife Tr"},{"Latitude":"10.2982866","Longitude":"-61.4536386","Name":"Hill Crest Drive"},{"Latitude":"10.3404398","Longitude":"-61.3955811","Name":"Hill Top Drive"},{"Latitude":"10.1658309","Longitude":"-61.6766883","Name":"Hillcrest Drive"},{"Latitude":"10.2561305","Longitude":"-61.4429550","Name":"Hillcrest Garden Retrench"},{"Latitude":"10.2369434","Longitude":"-61.4590885","Name":"Hillpiece Road"},{"Latitude":"10.3397555","Longitude":"-61.3957054","Name":"Hilltop Drive"},{"Latitude":"10.1692667","Longitude":"-61.5239701","Name":"Hillview Drive"},{"Latitude":"10.3402602","Longitude":"-61.3772461","Name":"Hillview Drive"},{"Latitude":"10.1965383","Longitude":"-61.5221111","Name":"Hillview Gardens"},{"Latitude":"10.2620808","Longitude":"-61.4601035","Name":"Hillview Gardens"},{"Latitude":"10.2692348","Longitude":"-61.4616637","Name":"Holder Street"},{"Latitude":"10.3338456","Longitude":"-61.4159635","Name":"Holder Tr"},{"Latitude":"10.1648038","Longitude":"-61.6924731","Name":"Hollywood Road"},{"Latitude":"10.3072293","Longitude":"-61.4383367","Name":"Honda Drive"},{"Latitude":"10.1883770","Longitude":"-61.6427796","Name":"HopALong Alley"},{"Latitude":"10.2555786","Longitude":"-61.4795563","Name":"Horizon Drive"},{"Latitude":"10.1649049","Longitude":"-61.4552084","Name":"Hosein Avenue"},{"Latitude":"10.2632179","Longitude":"-61.4669536","Name":"Hosein Avenue"},{"Latitude":"10.3132408","Longitude":"-61.3800309","Name":"Hosein Street"},{"Latitude":"10.2782683","Longitude":"-61.4586104","Name":"Howard Lane"},{"Latitude":"10.2932926","Longitude":"-61.4482926","Name":"Huggins Street"},{"Latitude":"10.2667288","Longitude":"-61.4282159","Name":"Humming Bird Avenue"},{"Latitude":"10.2215607","Longitude":"-61.5700616","Name":"Hummingbird Avenue"},{"Latitude":"10.2215607","Longitude":"-61.5700616","Name":"Hummingbird Drive"},{"Latitude":"10.3144702","Longitude":"-61.4216531","Name":"Hummingbird Lane"},{"Latitude":"10.3240206","Longitude":"-61.4267841","Name":"Hunger March Road"},{"Latitude":"10.3248219","Longitude":"-61.4267531","Name":"Hunger March Street"},{"Latitude":"10.2542515","Longitude":"-61.4763038","Name":"Hutchinson Drive"},{"Latitude":"10.2522573","Longitude":"-61.4584153","Name":"Ian Rawle Drive"},{"Latitude":"10.3157337","Longitude":"-61.4226582","Name":"Ibis  Circular"},{"Latitude":"10.2504941","Longitude":"-61.4589737","Name":"Ibis Boulevard"},{"Latitude":"10.2215400","Longitude":"-61.5719022","Name":"Ibis Circular"},{"Latitude":"10.2215948","Longitude":"-61.5669495","Name":"Ibis Circular Road Ibis Cir"},{"Latitude":"10.1647209","Longitude":"-61.6947351","Name":"Ibis Street"},{"Latitude":"10.2686401","Longitude":"-61.4287198","Name":"Ibis Street"},{"Latitude":"10.2252219","Longitude":"-61.5741822","Name":"Iere Drive"},{"Latitude":"10.2639524","Longitude":"-61.4615830","Name":"Immortelle Avenue"},{"Latitude":"10.2699944","Longitude":"-61.4580740","Name":"Imrie Street"},{"Latitude":"10.2951386","Longitude":"-61.4431576","Name":"Imrie Street"},{"Latitude":"10.2360588","Longitude":"-61.4417947","Name":"Indarsingh Drive"},{"Latitude":"10.2776927","Longitude":"-61.4671837","Name":"Independence Avenue"},{"Latitude":"10.3045408","Longitude":"-61.4485030","Name":"Industry Street"},{"Latitude":"10.2025058","Longitude":"-61.6306862","Name":"Ingles Street"},{"Latitude":"10.2754082","Longitude":"-61.4650746","Name":"Irving Street"},{"Latitude":"10.2674560","Longitude":"-61.4525902","Name":"Ixora Lane"},{"Latitude":"10.1654148","Longitude":"-61.6945724","Name":"Jacamar Street"},{"Latitude":"10.2159043","Longitude":"-61.4873365","Name":"Jack Singh Road"},{"Latitude":"10.2138615","Longitude":"-61.4891623","Name":"Jack Singh Rpad"},{"Latitude":"10.3021800","Longitude":"-61.4527622","Name":"Jack Street"},{"Latitude":"10.1089151","Longitude":"-61.7153133","Name":"Jackson Trace"},{"Latitude":"10.3149372","Longitude":"-61.4232937","Name":"Jacobin Lane"},{"Latitude":"10.2444079","Longitude":"-61.4774376","Name":"Jagessar Street"},{"Latitude":"10.3286208","Longitude":"-61.4273763","Name":"Jagessar Street"},{"Latitude":"10.2906356","Longitude":"-61.4566727","Name":"Jaggernath Street"},{"Latitude":"10.3068253","Longitude":"-61.4357138","Name":"Jaguar Crescent"},{"Latitude":"10.1955875","Longitude":"-61.5462536","Name":"Jaikaran Drive"},{"Latitude":"10.2700321","Longitude":"-61.4274791","Name":"Jaipaul Street North"},{"Latitude":"10.2690602","Longitude":"-61.4297274","Name":"Jaipaul Street South"},{"Latitude":"10.2737547","Longitude":"-61.4613455","Name":"Jamadar Street"},{"Latitude":"10.1571126","Longitude":"-61.6975033","Name":"James Street"},{"Latitude":"10.2755720","Longitude":"-61.4462516","Name":"Jane Street"},{"Latitude":"10.2519922","Longitude":"-61.4713596","Name":"Janet Drive"},{"Latitude":"10.2889594","Longitude":"-61.4548173","Name":"Jarvis Street"},{"Latitude":"10.2443968","Longitude":"-61.4639970","Name":"Jean Crescent"},{"Latitude":"10.2778729","Longitude":"-61.4453426","Name":"Jean Street"},{"Latitude":"10.2051749","Longitude":"-61.5365815","Name":"Jebodhsingh Street"},{"Latitude":"10.3281238","Longitude":"-61.4159991","Name":"Jeetan Avenue"},{"Latitude":"10.2736233","Longitude":"-61.4413223","Name":"Jeffers Lane"},{"Latitude":"10.3302664","Longitude":"-61.4283212","Name":"Jeffers Lane"},{"Latitude":"10.1585123","Longitude":"-61.7073057","Name":"Jeffers River Drive"},{"Latitude":"10.2933215","Longitude":"-61.4420209","Name":"Jeffery Stolmeyer Drive"},{"Latitude":"10.2600715","Longitude":"-61.4636481","Name":"Jereton Avenue"},{"Latitude":"10.2445655","Longitude":"-61.4485634","Name":"Jim Street"},{"Latitude":"10.1731766","Longitude":"-61.6419179","Name":"John Charles Trace"},{"Latitude":"10.1791641","Longitude":"-61.5553892","Name":"John Jules Tr"},{"Latitude":"10.3079672","Longitude":"-61.4527232","Name":"John Street"},{"Latitude":"10.3238420","Longitude":"-61.4149046","Name":"Johnson Street"},{"Latitude":"10.1817589","Longitude":"-61.4819278","Name":"Jokhan Tr"},{"Latitude":"10.3025230","Longitude":"-61.4372768","Name":"Jones Avenue"},{"Latitude":"10.2771867","Longitude":"-61.4516788","Name":"Jones Street"},{"Latitude":"10.3125183","Longitude":"-61.4053058","Name":"Jones Street"},{"Latitude":"10.2932729","Longitude":"-61.4374474","Name":"Joseph Coombs Drive"},{"Latitude":"10.1513503","Longitude":"-61.6788228","Name":"Julien Street"},{"Latitude":"10.3035705","Longitude":"-61.4456664","Name":"Kajim Street"},{"Latitude":"10.1736492","Longitude":"-61.4771227","Name":"Kaliah Tr"},{"Latitude":"10.2476397","Longitude":"-61.4799240","Name":"Kalloo Street"},{"Latitude":"10.2632939","Longitude":"-61.4398933","Name":"Kalymos Circular"},{"Latitude":"10.1897100","Longitude":"-61.4965684","Name":"Kanhailal Trace"},{"Latitude":"10.1741775","Longitude":"-61.4485755","Name":"Katwaroo Tr"},{"Latitude":"10.1735840","Longitude":"-61.4437059","Name":"Katwaroo Trace"},{"Latitude":"10.2670994","Longitude":"-61.4399672","Name":"Kavala Lane"},{"Latitude":"10.2777402","Longitude":"-61.4675531","Name":"Keate Street"},{"Latitude":"10.2386347","Longitude":"-61.4679057","Name":"Kelvin Avenue"},{"Latitude":"10.2535905","Longitude":"-61.4657226","Name":"Kendell Avenue"},{"Latitude":"10.2764720","Longitude":"-61.4408741","Name":"Kenneth Avenue"},{"Latitude":"10.2998173","Longitude":"-61.4456212","Name":"Kenneth Avenue"},{"Latitude":"10.2980755","Longitude":"-61.4437248","Name":"Kenneth Drive"},{"Latitude":"10.2956950","Longitude":"-61.4535655","Name":"Kenny Avenue"},{"Latitude":"10.2932164","Longitude":"-61.4426923","Name":"Kenny Preddie Drive"},{"Latitude":"10.3132961","Longitude":"-61.3817549","Name":"Kent Street"},{"Latitude":"10.2045680","Longitude":"-61.5376202","Name":"Kerisse Valley"},{"Latitude":"10.2035403","Longitude":"-61.6298353","Name":"Kern Street"},{"Latitude":"10.1821592","Longitude":"-61.5479299","Name":"Khan Tr"},{"Latitude":"10.1816948","Longitude":"-61.5471283","Name":"Khan Trace"},{"Latitude":"10.1888530","Longitude":"-61.4956128","Name":"Khanhilal Tr"},{"Latitude":"10.3065210","Longitude":"-61.4365983","Name":"Kia Drive"},{"Latitude":"10.0928757","Longitude":"-61.8605164","Name":"King Street"},{"Latitude":"10.1631890","Longitude":"-61.4554601","Name":"King Street"},{"Latitude":"10.2968602","Longitude":"-61.4457687","Name":"King Street"},{"Latitude":"10.3160075","Longitude":"-61.4258018","Name":"King Street"},{"Latitude":"10.1905688","Longitude":"-61.4455435","Name":"Kirsten Ave"},{"Latitude":"10.3148184","Longitude":"-61.4238194","Name":"Kiskadee Lane"},{"Latitude":"10.1661829","Longitude":"-61.6943742","Name":"Kiskadee Street"},{"Latitude":"10.2252023","Longitude":"-61.5733828","Name":"Kiskidee Drive"},{"Latitude":"10.3100073","Longitude":"-61.4463406","Name":"Kitchener Street"},{"Latitude":"10.2713171","Longitude":"-61.4609472","Name":"Knox Street"},{"Latitude":"10.1984383","Longitude":"-61.5246477","Name":"Kuldip Tr"},{"Latitude":"10.2535664","Longitude":"-61.4537009","Name":"Kyanite Crescent"},{"Latitude":"10.2548805","Longitude":"-61.4753455","Name":"La Bel Air Road"},{"Latitude":"10.2971358","Longitude":"-61.4554827","Name":"La Borde Lane"},{"Latitude":"10.1921185","Longitude":"-61.4975600","Name":"La Fortune Pluck Road"},{"Latitude":"10.2187187","Longitude":"-61.4831669","Name":"La Plaisance Road"},{"Latitude":"10.2396079","Longitude":"-61.4853957","Name":"La Plaisance Road"},{"Latitude":"10.2717549","Longitude":"-61.4592966","Name":"Lachapelle Street"},{"Latitude":"10.1624214","Longitude":"-61.4458779","Name":"Lachoos Road"},{"Latitude":"10.2699330","Longitude":"-61.4444578","Name":"Lady Bird Cr"},{"Latitude":"10.2650380","Longitude":"-61.4595834","Name":"Lady Hailes Avenue"},{"Latitude":"10.3079959","Longitude":"-61.4158886","Name":"Lagniappe Street"},{"Latitude":"10.2054577","Longitude":"-61.4456736","Name":"Lalbeharry Tr"},{"Latitude":"10.1995375","Longitude":"-61.5827008","Name":"Lalbeharry Trace"},{"Latitude":"10.2052715","Longitude":"-61.4385072","Name":"Lalbeharry Trace"},{"Latitude":"10.0535027","Longitude":"-61.9274714","Name":"Lalla Road"},{"Latitude":"10.1811419","Longitude":"-61.4473919","Name":"Laltoo Tr"},{"Latitude":"10.1808960","Longitude":"-61.4449304","Name":"Laltoo Trace"},{"Latitude":"10.2902187","Longitude":"-61.4537191","Name":"Lambie Street"},{"Latitude":"10.2504635","Longitude":"-61.4651007","Name":"Lamont Street"},{"Latitude":"10.1804434","Longitude":"-61.6454245","Name":"Landreth Street"},{"Latitude":"10.2912886","Longitude":"-61.4598628","Name":"Lange Street"},{"Latitude":"10.1662286","Longitude":"-61.6952410","Name":"Larch Street"},{"Latitude":"10.2942043","Longitude":"-61.4385258","Name":"Larry Gomes Drive"},{"Latitude":"10.1569678","Longitude":"-61.7066298","Name":"Lasse Street"},{"Latitude":"10.1828217","Longitude":"-61.4446537","Name":"Latchman Dass Road"},{"Latitude":"10.2642858","Longitude":"-61.4654527","Name":"Laurier Boulevard"},{"Latitude":"10.2753674","Longitude":"-61.4584650","Name":"Lawrence Street"},{"Latitude":"10.1488822","Longitude":"-61.7030356","Name":"Lawrenceville Road"},{"Latitude":"10.2474471","Longitude":"-61.4692345","Name":"Lazzari Street"},{"Latitude":"10.2661357","Longitude":"-61.4418772","Name":"Leander Lane"},{"Latitude":"10.1644897","Longitude":"-61.4506359","Name":"Legall Tr"},{"Latitude":"10.2768371","Longitude":"-61.4559938","Name":"Legendre Street"},{"Latitude":"10.2736256","Longitude":"-61.4585366","Name":"Leotaud Street"},{"Latitude":"10.2526906","Longitude":"-61.4283556","Name":"Leslie Avenue"},{"Latitude":"10.2771547","Longitude":"-61.4667536","Name":"Lewis Street"},{"Latitude":"10.3082837","Longitude":"-61.4348751","Name":"Lexus Boulevard"},{"Latitude":"10.2154065","Longitude":"-61.5295931","Name":"Lezama Tr"},{"Latitude":"10.2673419","Longitude":"-61.4269961","Name":"Liberty Street"},{"Latitude":"10.3356092","Longitude":"-61.4032344","Name":"Light Bourne Road"},{"Latitude":"10.3384956","Longitude":"-61.4061059","Name":"Lightbourne Road"},{"Latitude":"10.2426677","Longitude":"-61.4840997","Name":"Lillian Street"},{"Latitude":"10.2107926","Longitude":"-61.4468388","Name":"Lily Lane"},{"Latitude":"10.2772923","Longitude":"-61.4472469","Name":"Linda Street"},{"Latitude":"10.2135772","Longitude":"-61.4650188","Name":"Line Road"},{"Latitude":"10.2720403","Longitude":"-61.4690840","Name":"Link Road"},{"Latitude":"10.1860085","Longitude":"-61.6761165","Name":"Link View Road"},{"Latitude":"10.2929572","Longitude":"-61.4431740","Name":"Lionel Darceuil Drive"},{"Latitude":"10.2521595","Longitude":"-61.4576111","Name":"Lionel Frank Drive"},{"Latitude":"10.2500543","Longitude":"-61.4814083","Name":"London Avenue"},{"Latitude":"10.3098367","Longitude":"-61.4170891","Name":"London Avenue"},{"Latitude":"10.1499566","Longitude":"-61.7019679","Name":"London Street"},{"Latitude":"10.2642645","Longitude":"-61.4513564","Name":"London Street"},{"Latitude":"10.2887007","Longitude":"-61.4494338","Name":"London Street"},{"Latitude":"10.0872644","Longitude":"-61.8992653","Name":"Los Gallos Village"},{"Latitude":"10.0475512","Longitude":"-61.9126759","Name":"Lovers Lane"},{"Latitude":"10.2450764","Longitude":"-61.4793084","Name":"Low Lands Avenue"},{"Latitude":"10.2750530","Longitude":"-61.4576443","Name":"Lower Hillside Street"},{"Latitude":"10.1635604","Longitude":"-61.4668736","Name":"Lowkie Tr"},{"Latitude":"10.1638347","Longitude":"-61.4658774","Name":"Lowkie Tr Extension"},{"Latitude":"10.1625659","Longitude":"-61.4665446","Name":"Lowkie Trace"},{"Latitude":"10.2503438","Longitude":"-61.4849216","Name":"Lucky Street"},{"Latitude":"10.1820748","Longitude":"-61.5430338","Name":"Lum Tack Hill"},{"Latitude":"10.3139295","Longitude":"-61.4161453","Name":"Lumsden Street"},{"Latitude":"10.3098367","Longitude":"-61.4170891","Name":"Lutchman Avenue"},{"Latitude":"10.1862090","Longitude":"-61.5476686","Name":"Lutchman Drive"},{"Latitude":"10.2760416","Longitude":"-61.4044884","Name":"M1 Taskar Road"},{"Latitude":"10.2306904","Longitude":"-61.4342693","Name":"M2 Ring Road"},{"Latitude":"10.2641806","Longitude":"-61.4526178","Name":"Macoon Street"},{"Latitude":"10.3160725","Longitude":"-61.4276826","Name":"Madat Street"},{"Latitude":"10.2680646","Longitude":"-61.4399389","Name":"Magma Lane"},{"Latitude":"10.2475870","Longitude":"-61.4674076","Name":"Mahabir Crescent"},{"Latitude":"10.1965806","Longitude":"-61.4459950","Name":"Mahadeo Tr"},{"Latitude":"10.2967219","Longitude":"-61.4483424","Name":"Maharaj Avenue"},{"Latitude":"10.3231511","Longitude":"-61.4174207","Name":"Maharaj Trace"},{"Latitude":"10.2621118","Longitude":"-61.4633763","Name":"Mahogany Avenue"},{"Latitude":"10.3322278","Longitude":"-61.4326881","Name":"Mahogany Avenue"},{"Latitude":"10.2456945","Longitude":"-61.4650496","Name":"Mahogany Grove"},{"Latitude":"10.3249626","Longitude":"-61.4244077","Name":"Maiden Street"},{"Latitude":"10.2032680","Longitude":"-61.5387751","Name":"Maikoo Park Thompson Tr"},{"Latitude":"10.2036346","Longitude":"-61.5387796","Name":"Maikoo Pk"},{"Latitude":"10.2304702","Longitude":"-61.4698438","Name":"Main Road"},{"Latitude":"10.1720767","Longitude":"-61.6817324","Name":"Mainfield Road"},{"Latitude":"10.3065210","Longitude":"-61.4365983","Name":"Malibu Cr"},{"Latitude":"10.2678904","Longitude":"-61.4688590","Name":"Maloney Street"},{"Latitude":"10.2742208","Longitude":"-61.4333202","Name":"Manahambre Road"},{"Latitude":"10.3045747","Longitude":"-61.4477822","Name":"Mancharr Street"},{"Latitude":"10.2921300","Longitude":"-61.4540740","Name":"Manjack Street"},{"Latitude":"10.3042702","Longitude":"-61.4435357","Name":"Mannie Ramjohn Stadium"},{"Latitude":"10.2720129","Longitude":"-61.4507110","Name":"Maple Drive"},{"Latitude":"10.3434767","Longitude":"-61.3663577","Name":"Mappepire Road"},{"Latitude":"10.3018525","Longitude":"-61.4491229","Name":"Marabella Roundabout"},{"Latitude":"10.1263641","Longitude":"-61.8013521","Name":"Maraj Drive"},{"Latitude":"10.2216179","Longitude":"-61.5387957","Name":"Maraj Tr"},{"Latitude":"10.1540069","Longitude":"-61.7061751","Name":"Maraj Trace"},{"Latitude":"10.3125183","Longitude":"-61.4053058","Name":"Marcus Street"},{"Latitude":"10.1787239","Longitude":"-61.4987259","Name":"Maria David Tr"},{"Latitude":"10.1776346","Longitude":"-61.5006976","Name":"Maria David Trace"},{"Latitude":"10.2384113","Longitude":"-61.4876488","Name":"Marine Drive"},{"Latitude":"10.2433691","Longitude":"-61.4612318","Name":"Marion Court"},{"Latitude":"10.2422243","Longitude":"-61.4836706","Name":"Marjorie Street"},{"Latitude":"10.3205375","Longitude":"-61.4219509","Name":"Mark Anthony Crescent"},{"Latitude":"10.3041081","Longitude":"-61.4456656","Name":"Market Street"},{"Latitude":"10.1801256","Longitude":"-61.6471846","Name":"Marriott Street"},{"Latitude":"10.2780751","Longitude":"-61.4561438","Name":"Marryat Street"},{"Latitude":"10.2360884","Longitude":"-61.4521064","Name":"Marshall's Gardens"},{"Latitude":"10.2224447","Longitude":"-61.5641654","Name":"Marvin Cr"},{"Latitude":"10.3206141","Longitude":"-61.4200706","Name":"Mary Street"},{"Latitude":"10.2747059","Longitude":"-61.4461284","Name":"Massey Street"},{"Latitude":"10.3122313","Longitude":"-61.3835373","Name":"Massiah Street"},{"Latitude":"10.3215690","Longitude":"-61.4116432","Name":"Massy Land Road"},{"Latitude":"10.1618151","Longitude":"-61.4689945","Name":"Mathura Avenue"},{"Latitude":"10.3058352","Longitude":"-61.4447794","Name":"Matthew Street"},{"Latitude":"10.2408817","Longitude":"-61.4877447","Name":"Maude Street"},{"Latitude":"10.2464547","Longitude":"-61.4663441","Name":"May Street"},{"Latitude":"10.3486101","Longitude":"-61.3783499","Name":"Mayo Road"},{"Latitude":"10.2619991","Longitude":"-61.4684280","Name":"Mc Connie Street"},{"Latitude":"10.2945441","Longitude":"-61.4360291","Name":"Mc Donald Bailey Drive"},{"Latitude":"10.0969602","Longitude":"-61.8439967","Name":"Mc Donald Trace"},{"Latitude":"10.1875722","Longitude":"-61.6421269","Name":"Mc Farlene Street"},{"Latitude":"10.2536854","Longitude":"-61.4449176","Name":"Mc Lean Drive"},{"Latitude":"10.2771664","Longitude":"-61.4604232","Name":"Mc Sween Street"},{"Latitude":"10.2480795","Longitude":"-61.4708742","Name":"McClean Street"},{"Latitude":"10.2762106","Longitude":"-61.4442137","Name":"McIntosh Street"},{"Latitude":"10.1520066","Longitude":"-61.6815786","Name":"Meade Street"},{"Latitude":"10.2688168","Longitude":"-61.4391410","Name":"Meanaus Lane"},{"Latitude":"10.2762166","Longitude":"-61.4588887","Name":"Medine Street"},{"Latitude":"10.2522573","Longitude":"-61.4584153","Name":"Mendoza Drive"},{"Latitude":"10.2705116","Longitude":"-61.4675358","Name":"Mentor Street"},{"Latitude":"10.3058550","Longitude":"-61.4369593","Name":"Mercedes Lane"},{"Latitude":"10.1653900","Longitude":"-61.6793378","Name":"Mervyn Cato Drive"},{"Latitude":"10.2193238","Longitude":"-61.5583251","Name":"Mervyn Mohammed. Dev"},{"Latitude":"10.2909353","Longitude":"-61.4418161","Name":"Michael Rahael Boulevard"},{"Latitude":"10.2640803","Longitude":"-61.4403374","Name":"Midas Exit 1"},{"Latitude":"10.2637636","Longitude":"-61.4406539","Name":"Midas Exit 2"},{"Latitude":"10.2634944","Longitude":"-61.4410079","Name":"Midas Exit 3"},{"Latitude":"10.2642071","Longitude":"-61.4410449","Name":"Midas Lane"},{"Latitude":"10.1645020","Longitude":"-61.4619886","Name":"Miguel Street"},{"Latitude":"10.2196231","Longitude":"-61.5565634","Name":"Mike & Ann Lane"},{"Latitude":"10.1395448","Longitude":"-61.7978599","Name":"Mitchell Crescent"},{"Latitude":"10.1760443","Longitude":"-61.6769222","Name":"Mitchell Street"},{"Latitude":"10.2250481","Longitude":"-61.5346208","Name":"Mitchell Street"},{"Latitude":"10.3086704","Longitude":"-61.4150228","Name":"Mitchell Street"},{"Latitude":"10.2610105","Longitude":"-61.4659794","Name":"Mohammed Drive"},{"Latitude":"10.3095940","Longitude":"-61.4191532","Name":"Mohammeds Street"},{"Latitude":"10.1644824","Longitude":"-61.4486581","Name":"Mohan Maharaj Tr"},{"Latitude":"10.1839733","Longitude":"-61.4455572","Name":"Mohess Road"},{"Latitude":"10.2068089","Longitude":"-61.5392987","Name":"Molly Maikhoo Terrace"},{"Latitude":"10.2056522","Longitude":"-61.5644449","Name":"Mon Desir"},{"Latitude":"10.1897599","Longitude":"-61.5605431","Name":"Mon Desir Junction"},{"Latitude":"10.2056371","Longitude":"-61.5768868","Name":"Mon Desir Road"},{"Latitude":"10.2784215","Longitude":"-61.4523087","Name":"Mon Repos Street"},{"Latitude":"10.2999716","Longitude":"-61.4549851","Name":"Mona Avenue"},{"Latitude":"10.1926743","Longitude":"-61.5607416","Name":"Mondesir Delhi Road"},{"Latitude":"10.2055025","Longitude":"-61.5693283","Name":"Mondesir Road"},{"Latitude":"10.2181447","Longitude":"-61.5536947","Name":"Mondesir Road"},{"Latitude":"10.2437255","Longitude":"-61.4598207","Name":"Monica Drive"},{"Latitude":"10.1578013","Longitude":"-61.6933094","Name":"Monroe Street"},{"Latitude":"10.1855045","Longitude":"-61.5401212","Name":"Monteil Road"},{"Latitude":"10.2755547","Longitude":"-61.4303048","Name":"Montgomery Street"},{"Latitude":"10.3310370","Longitude":"-61.3810660","Name":"Montique Lands"},{"Latitude":"10.2952672","Longitude":"-61.4549818","Name":"Montique Street"},{"Latitude":"10.1741369","Longitude":"-61.4915562","Name":"Montoute Tr"},{"Latitude":"10.3090006","Longitude":"-61.4558642","Name":"Monty Street"},{"Latitude":"10.2402784","Longitude":"-61.4566986","Name":"Moon Ridge Drive"},{"Latitude":"10.2397065","Longitude":"-61.4590410","Name":"Moonridge Avenue"},{"Latitude":"10.1655104","Longitude":"-61.6742638","Name":"Moore Avenue"},{"Latitude":"10.3048119","Longitude":"-61.4523213","Name":"Mootoo Street"},{"Latitude":"10.2646908","Longitude":"-61.4621122","Name":"Mora Avenue"},{"Latitude":"10.3476536","Longitude":"-61.3698352","Name":"Morne Roache Road"},{"Latitude":"10.3310003","Longitude":"-61.3884420","Name":"Morne Roche Quarry Rd"},{"Latitude":"10.3271881","Longitude":"-61.3824939","Name":"Morne Roche Quarry Road"},{"Latitude":"10.3410747","Longitude":"-61.3954833","Name":"Morne Roche Road"},{"Latitude":"10.3185290","Longitude":"-61.4132788","Name":"Morosh Avenue"},{"Latitude":"10.1730857","Longitude":"-61.6850446","Name":"Morris Street"},{"Latitude":"10.1507064","Longitude":"-61.7037503","Name":"Moses Road"},{"Latitude":"10.2426960","Longitude":"-61.4427328","Name":"Mowassie Street"},{"Latitude":"10.3025230","Longitude":"-61.4372768","Name":"Moze Drive"},{"Latitude":"10.3092977","Longitude":"-61.4409652","Name":"Mt Carmel Street"},{"Latitude":"10.2750447","Longitude":"-61.4628832","Name":"Mucurapo Street"},{"Latitude":"10.1720440","Longitude":"-61.4635247","Name":"Mulchan Avenue"},{"Latitude":"10.1700303","Longitude":"-61.5267143","Name":"Mulchan Tr"},{"Latitude":"10.3210083","Longitude":"-61.4140755","Name":"Mungal Avenue"},{"Latitude":"10.2088217","Longitude":"-61.4865339","Name":"Mungal Tr"},{"Latitude":"10.3315222","Longitude":"-61.3908101","Name":"Mungal Tr"},{"Latitude":"10.2765176","Longitude":"-61.4383283","Name":"Murchison Castle"},{"Latitude":"10.2440231","Longitude":"-61.4899329","Name":"Murli Street"},{"Latitude":"10.2021191","Longitude":"-61.6311661","Name":"Murray Street"},{"Latitude":"10.1725103","Longitude":"-61.5012180","Name":"Murray Tr"},{"Latitude":"10.1611345","Longitude":"-61.5035927","Name":"Murray Trace"},{"Latitude":"10.2521819","Longitude":"-61.4850176","Name":"Muskit Drive"},{"Latitude":"10.2736415","Longitude":"-61.4434872","Name":"Nairn Avenue"},{"Latitude":"10.2161058","Longitude":"-61.4830117","Name":"Nancoo Tr"},{"Latitude":"10.2213143","Longitude":"-61.5564325","Name":"Nancy Drive"},{"Latitude":"10.3173470","Longitude":"-61.4195234","Name":"Nanlal Avenue"},{"Latitude":"10.2784606","Longitude":"-61.4420119","Name":"Naparima Mayaro Road"},{"Latitude":"10.2084181","Longitude":"-61.5534835","Name":"Naranjit Tr"},{"Latitude":"10.2088662","Longitude":"-61.5567833","Name":"Naranjit Trace"},{"Latitude":"10.2340129","Longitude":"-61.4610407","Name":"Narine Street"},{"Latitude":"10.2566893","Longitude":"-61.4637775","Name":"Nathu Circular"},{"Latitude":"10.1996169","Longitude":"-61.5789056","Name":"National Mining Road"},{"Latitude":"10.2000657","Longitude":"-61.5769181","Name":"National Mining Road"},{"Latitude":"10.2750759","Longitude":"-61.4508518","Name":"Navet Road"},{"Latitude":"10.2427700","Longitude":"-61.4669288","Name":"Nectar Court"},{"Latitude":"10.2958673","Longitude":"-61.4569511","Name":"Nehru Street"},{"Latitude":"10.3058860","Longitude":"-61.4349955","Name":"Nevada Drive"},{"Latitude":"10.3166368","Longitude":"-61.4152575","Name":"New Avenue"},{"Latitude":"10.1787642","Longitude":"-61.5566847","Name":"New City Avenue"},{"Latitude":"10.3043645","Longitude":"-61.4535292","Name":"New City Avenue"},{"Latitude":"10.3070353","Longitude":"-61.4524173","Name":"New Haven Street"},{"Latitude":"10.0989659","Longitude":"-61.8409737","Name":"New Road"},{"Latitude":"10.3125866","Longitude":"-61.3800341","Name":"New Street"},{"Latitude":"10.1569502","Longitude":"-61.6778592","Name":"New Village"},{"Latitude":"10.2773682","Longitude":"-61.4498469","Name":"Newbold Street"},{"Latitude":"10.2954308","Longitude":"-61.4389804","Name":"Nha Dev"},{"Latitude":"10.2459230","Longitude":"-61.4814096","Name":"Nice Street"},{"Latitude":"10.2551334","Longitude":"-61.4684131","Name":"Nicholas Antoine Road"},{"Latitude":"10.1556161","Longitude":"-61.7082804","Name":"Nico Street"},{"Latitude":"10.1754234","Longitude":"-61.6767769","Name":"Niles Street"},{"Latitude":"10.2929827","Longitude":"-61.4521091","Name":"Ninth Street"},{"Latitude":"10.2659108","Longitude":"-61.4391940","Name":"Ninus Lane"},{"Latitude":"10.1725885","Longitude":"-61.5736681","Name":"No Rd"},{"Latitude":"10.1495592","Longitude":"-61.7117557","Name":"North Trace"},{"Latitude":"10.1727755","Longitude":"-61.6844827","Name":"Nurse Street"},{"Latitude":"10.2267077","Longitude":"-61.5657841","Name":"Nypa Drive"},{"Latitude":"10.3178225","Longitude":"-61.4150699","Name":"O'Riley Lane"},{"Latitude":"10.2610425","Longitude":"-61.4757639","Name":"Ocean Avenue"},{"Latitude":"10.2398150","Longitude":"-61.4879743","Name":"Ocean Drive"},{"Latitude":"10.2287065","Longitude":"-61.5411778","Name":"Ocean Parkway"},{"Latitude":"10.2912048","Longitude":"-61.4558599","Name":"Ogeerally Street"},{"Latitude":"10.3189136","Longitude":"-61.4289375","Name":"Ogeralli Street"},{"Latitude":"10.3184695","Longitude":"-61.4293312","Name":"Ogerally Street"},{"Latitude":"10.1803138","Longitude":"-61.5218091","Name":"Oilwell Road"},{"Latitude":"10.1780680","Longitude":"-61.6877638","Name":"Old Point Ligoure Road"},{"Latitude":"10.1777900","Longitude":"-61.4478748","Name":"Old San Fernando Road"},{"Latitude":"10.1851822","Longitude":"-61.5045881","Name":"Old San Francique Road"},{"Latitude":"10.3193667","Longitude":"-61.3671396","Name":"Old School Road"},{"Latitude":"10.2245292","Longitude":"-61.5367503","Name":"Old Southern Main Road"},{"Latitude":"10.2665996","Longitude":"-61.4550827","Name":"Oleander Dr"},{"Latitude":"10.2620544","Longitude":"-61.4653493","Name":"Oliver Drive"},{"Latitude":"10.1688714","Longitude":"-61.4518733","Name":"Olivere Drive"},{"Latitude":"10.2582572","Longitude":"-61.4539989","Name":"Olivine Crescent"},{"Latitude":"10.2672999","Longitude":"-61.4392430","Name":"Olympia Lane"},{"Latitude":"10.1956252","Longitude":"-61.5411018","Name":"Omaree's Park"},{"Latitude":"10.2245055","Longitude":"-61.5346257","Name":"One Way Street"},{"Latitude":"10.2119152","Longitude":"-61.4497862","Name":"Orchid Drive"},{"Latitude":"10.2102572","Longitude":"-61.4499058","Name":"Orion Drive"},{"Latitude":"10.3052767","Longitude":"-61.4390982","Name":"Orion Drive"},{"Latitude":"10.2042459","Longitude":"-61.5356810","Name":"Oropuche Road"},{"Latitude":"10.1476186","Longitude":"-61.6997873","Name":"Osbourne Street"},{"Latitude":"10.2582946","Longitude":"-61.4498715","Name":"Osprey Drive"},{"Latitude":"10.2257556","Longitude":"-61.5460322","Name":"Otaheite Bay Road"},{"Latitude":"10.2288723","Longitude":"-61.5390805","Name":"Otaheite Residential Park"},{"Latitude":"10.2684222","Longitude":"-61.4404848","Name":"Otus Lane"},{"Latitude":"10.2557902","Longitude":"-61.4574606","Name":"Ouzel Drive"},{"Latitude":"10.2703236","Longitude":"-61.4417541","Name":"P/ville Circular Drive"},{"Latitude":"10.2036321","Longitude":"-61.5880841","Name":"Pablito Tr"},{"Latitude":"10.2666869","Longitude":"-61.4666314","Name":"Padmore Street"},{"Latitude":"10.2646837","Longitude":"-61.4627863","Name":"Palm Avenue"},{"Latitude":"10.2185690","Longitude":"-61.5595366","Name":"Palm Drive"},{"Latitude":"10.2650836","Longitude":"-61.4556572","Name":"Palm Street"},{"Latitude":"10.2637463","Longitude":"-61.4641646","Name":"Palmiste Bend"},{"Latitude":"10.2461697","Longitude":"-61.4549448","Name":"Palmiste Drive"},{"Latitude":"10.2570782","Longitude":"-61.4631684","Name":"Palmiste Road"},{"Latitude":"10.2279987","Longitude":"-61.5347773","Name":"Paltoo Tr"},{"Latitude":"10.1423585","Longitude":"-61.7953565","Name":"Panchoree Road"},{"Latitude":"10.2690633","Longitude":"-61.4395884","Name":"Paphos"},{"Latitude":"10.2449707","Longitude":"-61.4491253","Name":"Papouri Road"},{"Latitude":"10.3371826","Longitude":"-61.3713510","Name":"Paradise Avenue"},{"Latitude":"10.3152014","Longitude":"-61.4234402","Name":"Paradise Lane"},{"Latitude":"10.2658732","Longitude":"-61.4470081","Name":"Parakeet Boulevard"},{"Latitude":"10.3324936","Longitude":"-61.4079042","Name":"Parforce Road"},{"Latitude":"10.3325690","Longitude":"-61.4099886","Name":"Parforce Street"},{"Latitude":"10.2203772","Longitude":"-61.5694114","Name":"Paria Drive"},{"Latitude":"10.2263349","Longitude":"-61.5725255","Name":"Paria Gardens"},{"Latitude":"10.3036993","Longitude":"-61.4553402","Name":"Pariag Street"},{"Latitude":"10.2974195","Longitude":"-61.4437747","Name":"Park Lane"},{"Latitude":"10.1792712","Longitude":"-61.6470258","Name":"Park Street"},{"Latitude":"10.2679391","Longitude":"-61.4612783","Name":"Park Street"},{"Latitude":"10.2741126","Longitude":"-61.4553464","Name":"Parry Street"},{"Latitude":"10.1738438","Longitude":"-61.6380432","Name":"Parrylands"},{"Latitude":"10.2612826","Longitude":"-61.4707737","Name":"Parson Avenue"},{"Latitude":"10.2222896","Longitude":"-61.5402186","Name":"Partap Tr"},{"Latitude":"10.2210002","Longitude":"-61.5388483","Name":"Partap Tr Extensions"},{"Latitude":"10.1549908","Longitude":"-61.7078360","Name":"Patel Trace"},{"Latitude":"10.1765552","Longitude":"-61.4435443","Name":"Patiram Tr"},{"Latitude":"10.1786456","Longitude":"-61.4476649","Name":"Patiram Trace"},{"Latitude":"10.2420428","Longitude":"-61.4823341","Name":"Paul Street"},{"Latitude":"10.3099793","Longitude":"-61.4159991","Name":"Paul Street"},{"Latitude":"10.2417586","Longitude":"-61.4869146","Name":"Pearl Street"},{"Latitude":"10.2994115","Longitude":"-61.4543256","Name":"Pearl Street"},{"Latitude":"10.2539279","Longitude":"-61.4551830","Name":"Pecan Avenue"},{"Latitude":"10.2478999","Longitude":"-61.4562076","Name":"Pelican Drive"},{"Latitude":"10.2218119","Longitude":"-61.5735943","Name":"Pelican Terrace"},{"Latitude":"10.2463838","Longitude":"-61.4825061","Name":"Pemberton Street"},{"Latitude":"10.1608326","Longitude":"-61.4684274","Name":"Penal Quinam Road"},{"Latitude":"10.1600622","Longitude":"-61.4533512","Name":"Penal Rock Road"},{"Latitude":"10.2599485","Longitude":"-61.4699835","Name":"Penny Avenue"},{"Latitude":"10.1655104","Longitude":"-61.6742638","Name":"Perez Drive"},{"Latitude":"10.2526157","Longitude":"-61.4572987","Name":"Peridot Crescent"},{"Latitude":"10.2102415","Longitude":"-61.4482825","Name":"Periwinkle Drive"},{"Latitude":"10.0928394","Longitude":"-61.8608861","Name":"Perseverance Road"},{"Latitude":"10.3057045","Longitude":"-61.4454150","Name":"Peter Street"},{"Latitude":"10.2357264","Longitude":"-61.4827559","Name":"Peter Trace"},{"Latitude":"10.2511034","Longitude":"-61.4273446","Name":"Peterloo Street"},{"Latitude":"10.1771413","Longitude":"-61.6843042","Name":"Peters Road"},{"Latitude":"10.1620185","Longitude":"-61.6334726","Name":"Petrotrin Private Road"},{"Latitude":"10.2709887","Longitude":"-61.4459223","Name":"Petunia Avenue"},{"Latitude":"10.2711395","Longitude":"-61.4345088","Name":"Pharoah Avenue"},{"Latitude":"10.3268106","Longitude":"-61.4088791","Name":"Phekoo Drive"},{"Latitude":"10.3268283","Longitude":"-61.4081775","Name":"Phekoo Tr"},{"Latitude":"10.2601939","Longitude":"-61.4510350","Name":"Phenacite Crescent"},{"Latitude":"10.1716082","Longitude":"-61.5234911","Name":"Phillip Street"},{"Latitude":"10.2311218","Longitude":"-61.4621357","Name":"Phillipine Road"},{"Latitude":"10.2451428","Longitude":"-61.4561400","Name":"Phillipine Road"},{"Latitude":"10.2241579","Longitude":"-61.5717182","Name":"Phoenix Drive"},{"Latitude":"10.2404261","Longitude":"-61.4873025","Name":"Phyllis Street"},{"Latitude":"10.2597465","Longitude":"-61.4571467","Name":"Piedimont Boulevard"},{"Latitude":"10.2591236","Longitude":"-61.4516188","Name":"Piedmont Boulevard"},{"Latitude":"10.1582712","Longitude":"-61.5186586","Name":"Pierre Avenue"},{"Latitude":"10.1571658","Longitude":"-61.7080728","Name":"Pierre Settlement"},{"Latitude":"10.1519129","Longitude":"-61.6823440","Name":"Pilgrim Street"},{"Latitude":"10.2488384","Longitude":"-61.4661511","Name":"Pinard Court"},{"Latitude":"10.2633225","Longitude":"-61.4654008","Name":"Pine Avenue"},{"Latitude":"10.2554600","Longitude":"-61.4403509","Name":"Pine Ridge Road"},{"Latitude":"10.2595096","Longitude":"-61.4526846","Name":"Pinenut Avenue"},{"Latitude":"10.2568733","Longitude":"-61.4594939","Name":"Platinum Drive"},{"Latitude":"10.3425842","Longitude":"-61.3734050","Name":"Playground Road"},{"Latitude":"10.2690132","Longitude":"-61.4414859","Name":"Pleasantville"},{"Latitude":"10.2724018","Longitude":"-61.4526406","Name":"Pleasantville Avenue"},{"Latitude":"10.2664880","Longitude":"-61.4468291","Name":"Pleasantville Circular"},{"Latitude":"10.2719609","Longitude":"-61.4521331","Name":"Pleasantville Terrace"},{"Latitude":"10.1802218","Longitude":"-61.5041147","Name":"Pluck Road"},{"Latitude":"10.3252949","Longitude":"-61.4291136","Name":"Poban Street"},{"Latitude":"10.2703289","Longitude":"-61.4469335","Name":"Poinsetta Lane"},{"Latitude":"10.1424439","Longitude":"-61.7783870","Name":"Point Coco Road"},{"Latitude":"10.1782775","Longitude":"-61.6863307","Name":"Point Fortin Main Road"},{"Latitude":"10.1767052","Longitude":"-61.6857856","Name":"Point Fortin Main Road"},{"Latitude":"10.1731871","Longitude":"-61.6913189","Name":"Point Ligoure Road"},{"Latitude":"10.2891530","Longitude":"-61.4559796","Name":"Pointe-a-Pierre Road"},{"Latitude":"10.2509931","Longitude":"-61.4659844","Name":"Pollonais Crescent"},{"Latitude":"10.3358602","Longitude":"-61.4100921","Name":"Pond Lane"},{"Latitude":"10.2225180","Longitude":"-61.5655600","Name":"Pond Road"},{"Latitude":"10.2456180","Longitude":"-61.4748625","Name":"Pond Road"},{"Latitude":"10.2901594","Longitude":"-61.4543804","Name":"Pond Road"},{"Latitude":"10.2449541","Longitude":"-61.4759944","Name":"Pond Street"},{"Latitude":"10.2453240","Longitude":"-61.4494222","Name":"Pond Tr"},{"Latitude":"10.3243042","Longitude":"-61.3782712","Name":"Pone Avenue"},{"Latitude":"10.3420215","Longitude":"-61.3798814","Name":"Poonah Road"},{"Latitude":"10.3126496","Longitude":"-61.3791505","Name":"Pooran Street"},{"Latitude":"10.3072293","Longitude":"-61.4383367","Name":"Porsche Drive"},{"Latitude":"10.2463270","Longitude":"-61.4875967","Name":"Potato Street"},{"Latitude":"10.2465386","Longitude":"-61.4866532","Name":"Potato Trace"},{"Latitude":"10.2725909","Longitude":"-61.4609290","Name":"Potter Street"},{"Latitude":"10.2729214","Longitude":"-61.4652702","Name":"Pouchet Street"},{"Latitude":"10.2625454","Longitude":"-61.4621994","Name":"Poui Lane"},{"Latitude":"10.3276371","Longitude":"-61.4200731","Name":"Prem Avenue"},{"Latitude":"10.1797477","Longitude":"-61.5523035","Name":"Premier Cr"},{"Latitude":"10.3082387","Longitude":"-61.4542084","Name":"Prevatt Street"},{"Latitude":"10.2336977","Longitude":"-61.4439874","Name":"Priam Street"},{"Latitude":"10.3032209","Longitude":"-61.4476555","Name":"Primer Street"},{"Latitude":"10.2639074","Longitude":"-61.4497023","Name":"Prince Albert Street"},{"Latitude":"10.2656681","Longitude":"-61.4496780","Name":"Prince Albert Strett"},{"Latitude":"10.2751850","Longitude":"-61.4615874","Name":"Prince of Wales Street"},{"Latitude":"10.2674497","Longitude":"-61.4579992","Name":"Princess Margaret Street"},{"Latitude":"10.0851973","Longitude":"-61.6895040","Name":"Puerto Grande Road"},{"Latitude":"10.1508813","Longitude":"-61.7012498","Name":"Pundit Trace"},{"Latitude":"10.2124460","Longitude":"-61.4536884","Name":"Pundit Trace"},{"Latitude":"10.2551165","Longitude":"-61.4815406","Name":"Purbeck Cr"},{"Latitude":"10.3053581","Longitude":"-61.4445342","Name":"Queen Street"},{"Latitude":"10.2578993","Longitude":"-61.4523959","Name":"Queens Avenue"},{"Latitude":"10.3052615","Longitude":"-61.4383621","Name":"Quest Cr"},{"Latitude":"10.2515434","Longitude":"-61.4589198","Name":"Radica Saith Street"},{"Latitude":"10.2439552","Longitude":"-61.4511870","Name":"Radix Avenue"},{"Latitude":"10.1921658","Longitude":"-61.4471715","Name":"Ragbir Trace"},{"Latitude":"10.3200387","Longitude":"-61.4228234","Name":"Ragoobar Lands"},{"Latitude":"10.3226568","Longitude":"-61.4218217","Name":"Ragoobar Street"},{"Latitude":"10.1808371","Longitude":"-61.4543131","Name":"Ragoonanan Tr"},{"Latitude":"10.2552699","Longitude":"-61.4696969","Name":"Rahaman Avenue"},{"Latitude":"10.2533039","Longitude":"-61.4752689","Name":"Rahaman Dev"},{"Latitude":"10.2548160","Longitude":"-61.4708932","Name":"Rahaman Drive"},{"Latitude":"10.3198483","Longitude":"-61.4078672","Name":"Rahaman Drive"},{"Latitude":"10.2521394","Longitude":"-61.4604079","Name":"Rahamut Lane"},{"Latitude":"10.1945234","Longitude":"-61.4667209","Name":"Rahamut Tr"},{"Latitude":"10.1855359","Longitude":"-61.4622349","Name":"Railway Line"},{"Latitude":"10.1635213","Longitude":"-61.4678241","Name":"Railway Line Road"},{"Latitude":"10.1699317","Longitude":"-61.4669717","Name":"Railway Road"},{"Latitude":"10.1673110","Longitude":"-61.4667717","Name":"Railway Roads"},{"Latitude":"10.3107765","Longitude":"-61.3827289","Name":"Rajack Street"},{"Latitude":"10.1788129","Longitude":"-61.4719672","Name":"Raju North Tr"},{"Latitude":"10.1810431","Longitude":"-61.4696098","Name":"Raju Tr"},{"Latitude":"10.1751254","Longitude":"-61.4710423","Name":"Raju Trace"},{"Latitude":"10.2094278","Longitude":"-61.5308993","Name":"Ralph Narine Tr"},{"Latitude":"10.2265109","Longitude":"-61.5337626","Name":"Ralph Narine Trace"},{"Latitude":"10.2511688","Longitude":"-61.4551345","Name":"Ramadhin Street"},{"Latitude":"10.2005014","Longitude":"-61.4458175","Name":"Ramai Tr"},{"Latitude":"10.3253903","Longitude":"-61.4108223","Name":"Ramassar Trace"},{"Latitude":"10.1985169","Longitude":"-61.5393757","Name":"Ramatally Park"},{"Latitude":"10.1975947","Longitude":"-61.5372239","Name":"Ramatally Pk"},{"Latitude":"10.2501208","Longitude":"-61.4814963","Name":"Rambally Avenue"},{"Latitude":"10.3334013","Longitude":"-61.3863554","Name":"Ramchan Avenue"},{"Latitude":"10.1872189","Longitude":"-61.5509749","Name":"Ramcharan Tr"},{"Latitude":"10.3259785","Longitude":"-61.4289977","Name":"Ramdass Street"},{"Latitude":"10.1546598","Longitude":"-61.7062161","Name":"Ramdhanie Trace"},{"Latitude":"10.1765248","Longitude":"-61.4569259","Name":"Ramjattan Tr"},{"Latitude":"10.1761130","Longitude":"-61.4529150","Name":"Ramjattan Trace"},{"Latitude":"10.2471621","Longitude":"-61.4710685","Name":"Ramjitsingh Drive"},{"Latitude":"10.1705566","Longitude":"-61.4569865","Name":"Ramjohn Tr"},{"Latitude":"10.1704257","Longitude":"-61.4615579","Name":"Ramjohn Trace"},{"Latitude":"10.3084159","Longitude":"-61.4072806","Name":"Ramkissoon Boulevard"},{"Latitude":"10.1685032","Longitude":"-61.4576514","Name":"Ramkissoon Street"},{"Latitude":"10.2448899","Longitude":"-61.4805129","Name":"Ramlal Avenue"},{"Latitude":"10.1664774","Longitude":"-61.4594646","Name":"Ramlal Street"},{"Latitude":"10.1795378","Longitude":"-61.5417905","Name":"Ramlogan Avenue"},{"Latitude":"10.1609851","Longitude":"-61.4438768","Name":"Ramlogan Tr"},{"Latitude":"10.3028252","Longitude":"-61.4508695","Name":"Ramnanan Street"},{"Latitude":"10.3304361","Longitude":"-61.4191398","Name":"Ramnarine Avenue"},{"Latitude":"10.1841842","Longitude":"-61.5427655","Name":"Ramnarine Tr"},{"Latitude":"10.1812190","Longitude":"-61.5069198","Name":"Ramnath Trace"},{"Latitude":"10.3205164","Longitude":"-61.3791463","Name":"Ramoutar Avenue"},{"Latitude":"10.3016245","Longitude":"-61.4525002","Name":"Ramoutar Street"},{"Latitude":"10.1599985","Longitude":"-61.6960349","Name":"Rampersad Street"},{"Latitude":"10.2108717","Longitude":"-61.4512155","Name":"Rampersad Trace"},{"Latitude":"10.1957325","Longitude":"-61.4505510","Name":"Ramrattan Maharaj Tr"},{"Latitude":"10.1919377","Longitude":"-61.4500963","Name":"Ramrattan Maharaj Trace"},{"Latitude":"10.1834745","Longitude":"-61.5175743","Name":"Ramroopsingh Trace"},{"Latitude":"10.3039147","Longitude":"-61.4547357","Name":"Ramsamooj Street"},{"Latitude":"10.2036269","Longitude":"-61.4520523","Name":"Ramsamooj Tr"},{"Latitude":"10.2705116","Longitude":"-61.4675358","Name":"Ramsaran Street"},{"Latitude":"10.1839584","Longitude":"-61.5547470","Name":"Ramsookie Tr"},{"Latitude":"10.2938937","Longitude":"-61.4362039","Name":"Rangie Nanan Drive"},{"Latitude":"10.3320371","Longitude":"-61.4238072","Name":"Rawlins Avenue"},{"Latitude":"10.3174156","Longitude":"-61.4181340","Name":"Rawlins Street"},{"Latitude":"10.3180280","Longitude":"-61.4241959","Name":"Razack Street"},{"Latitude":"10.2433877","Longitude":"-61.4742993","Name":"Rd Reserve"},{"Latitude":"10.3121116","Longitude":"-61.4224390","Name":"Rd Reserve"},{"Latitude":"10.2634329","Longitude":"-61.4739205","Name":"Recreation Avenue"},{"Latitude":"10.2180699","Longitude":"-61.5786991","Name":"Recreation Ground Road"},{"Latitude":"10.2255867","Longitude":"-61.5468691","Name":"Red Brick Road"},{"Latitude":"10.2247260","Longitude":"-61.5464547","Name":"Red Brick Trace"},{"Latitude":"10.1773696","Longitude":"-61.5060831","Name":"Red Hill Tr"},{"Latitude":"10.2736042","Longitude":"-61.4497883","Name":"Redwood Drive"},{"Latitude":"10.2990868","Longitude":"-61.4170924","Name":"Reform Road"},{"Latitude":"10.1712094","Longitude":"-61.6839740","Name":"Reid Road"},{"Latitude":"10.2534514","Longitude":"-61.4722846","Name":"Renn Avenue"},{"Latitude":"10.1623473","Longitude":"-61.6703135","Name":"Reservoir Hill"},{"Latitude":"10.3358554","Longitude":"-61.4055518","Name":"Restore Road"},{"Latitude":"10.2569362","Longitude":"-61.4462373","Name":"Retrench Settl"},{"Latitude":"10.2560508","Longitude":"-61.4457283","Name":"Retrench Village"},{"Latitude":"10.3179199","Longitude":"-61.4287500","Name":"Rex Street"},{"Latitude":"10.1752179","Longitude":"-61.6748135","Name":"Reyes Street"},{"Latitude":"10.2955426","Longitude":"-61.4360516","Name":"Rhea Ramnarine Circle"},{"Latitude":"10.2690633","Longitude":"-61.4395884","Name":"Rhenea Lane"},{"Latitude":"10.2598717","Longitude":"-61.4518172","Name":"Rhinestone Crescent"},{"Latitude":"10.1576543","Longitude":"-61.6968799","Name":"Richard Drive"},{"Latitude":"10.2968510","Longitude":"-61.4451476","Name":"Richard Street"},{"Latitude":"10.2689563","Longitude":"-61.4575405","Name":"Richards Street"},{"Latitude":"10.1781843","Longitude":"-61.6808237","Name":"Richardson Street"},{"Latitude":"10.1932441","Longitude":"-61.5387945","Name":"Richardson Street"},{"Latitude":"10.2438980","Longitude":"-61.4394605","Name":"Ridgewood Gardens Golconda Phase 1"},{"Latitude":"10.2467490","Longitude":"-61.4395097","Name":"Ridgewood Gardens Golconda Phase 2"},{"Latitude":"10.2420340","Longitude":"-61.4411478","Name":"Ridgewood Road"},{"Latitude":"10.2281559","Longitude":"-61.5508490","Name":"Rig Road"},{"Latitude":"10.2717025","Longitude":"-61.4586503","Name":"Rigsby Street"},{"Latitude":"10.2685877","Longitude":"-61.4568952","Name":"Ritchie Street"},{"Latitude":"10.2416720","Longitude":"-61.4659737","Name":"River Court Road"},{"Latitude":"10.2665084","Longitude":"-61.4679105","Name":"Riverside Road"},{"Latitude":"10.3026529","Longitude":"-61.4527801","Name":"Riverside Road"},{"Latitude":"10.2548264","Longitude":"-61.4593087","Name":"Road to Stone Park"},{"Latitude":"10.1595327","Longitude":"-61.5201883","Name":"Robert Hill"},{"Latitude":"10.1495724","Longitude":"-61.6999911","Name":"Roberts Lane"},{"Latitude":"10.2488210","Longitude":"-61.4568988","Name":"Roberts Road"},{"Latitude":"10.2717025","Longitude":"-61.4586503","Name":"Robertson Street"},{"Latitude":"10.1920106","Longitude":"-61.5037490","Name":"Robertson Tr"},{"Latitude":"10.3246813","Longitude":"-61.3662088","Name":"Robinson Tr"},{"Latitude":"10.2672237","Longitude":"-61.4545504","Name":"Roble Lane"},{"Latitude":"10.2958306","Longitude":"-61.4396432","Name":"Roger Gibbons Drive"},{"Latitude":"10.2715052","Longitude":"-61.4643914","Name":"Roodal Street"},{"Latitude":"10.2621701","Longitude":"-61.4448516","Name":"Rooplal Avenue"},{"Latitude":"10.1911418","Longitude":"-61.5526057","Name":"Roots Avenue"},{"Latitude":"10.2455729","Longitude":"-61.4615918","Name":"Rosalind Drive"},{"Latitude":"10.2419644","Longitude":"-61.4832904","Name":"Rosanna Street"},{"Latitude":"10.2715582","Longitude":"-61.4302767","Name":"Rose Cottage Street"},{"Latitude":"10.2124121","Longitude":"-61.4502205","Name":"Rose Gardens"},{"Latitude":"10.2451033","Longitude":"-61.4708486","Name":"Rosetta Street"},{"Latitude":"10.2910576","Longitude":"-61.4475946","Name":"Rostant Street"},{"Latitude":"10.2974613","Longitude":"-61.4511423","Name":"Roy Avenue"},{"Latitude":"10.2759991","Longitude":"-61.4609306","Name":"Roy Joseph Street"},{"Latitude":"10.2969052","Longitude":"-61.4521556","Name":"Roy Terrace"},{"Latitude":"10.2414569","Longitude":"-61.4506760","Name":"Ruby Avenue"},{"Latitude":"10.3001993","Longitude":"-61.4467264","Name":"Ruby Lane"},{"Latitude":"10.2536866","Longitude":"-61.4572138","Name":"Rulite Crescent"},{"Latitude":"10.2728955","Longitude":"-61.4573212","Name":"Rushworth Street"},{"Latitude":"10.2737823","Longitude":"-61.4684145","Name":"Rushworth Street Extension"},{"Latitude":"10.2414392","Longitude":"-61.4882223","Name":"Russell Street"},{"Latitude":"10.2714762","Longitude":"-61.4683936","Name":"Ruth Avenue"},{"Latitude":"10.1803259","Longitude":"-61.6475457","Name":"Ruthven Street"},{"Latitude":"10.1201542","Longitude":"-61.6917987","Name":"S.S. Erin Road"},{"Latitude":"10.1843520","Longitude":"-61.4632819","Name":"Sahadeo Avenue"},{"Latitude":"10.0916144","Longitude":"-61.8594441","Name":"Saint Marie Street"},{"Latitude":"10.1460920","Longitude":"-61.6474398","Name":"Salazar Trace"},{"Latitude":"10.1747094","Longitude":"-61.6517599","Name":"Salick Trace"},{"Latitude":"10.1678271","Longitude":"-61.5197570","Name":"Saltmine Tr"},{"Latitude":"10.2682847","Longitude":"-61.4455516","Name":"Salvia Lane"},{"Latitude":"10.2610127","Longitude":"-61.4651756","Name":"Samaan Avenue"},{"Latitude":"10.2251412","Longitude":"-61.5589879","Name":"Samaan Drive"},{"Latitude":"10.1579544","Longitude":"-61.7007683","Name":"Samaroo Street"},{"Latitude":"10.2001826","Longitude":"-61.5326816","Name":"Samlal Tr"},{"Latitude":"10.3390201","Longitude":"-61.4247853","Name":"San Fabien Road"},{"Latitude":"10.3014512","Longitude":"-61.4489538","Name":"San Fernando Bypass"},{"Latitude":"10.2183469","Longitude":"-61.4564701","Name":"San Fernando Siparia Erin Road"},{"Latitude":"10.2408286","Longitude":"-61.4547513","Name":"San Fernando Siparia Erin Road"},{"Latitude":"10.1816274","Longitude":"-61.5243675","Name":"San Francique Junction"},{"Latitude":"10.1753793","Longitude":"-61.4669495","Name":"San Francique Road"},{"Latitude":"10.1821612","Longitude":"-61.5147144","Name":"San Francique Trace"},{"Latitude":"10.2588255","Longitude":"-61.4544529","Name":"Sanderling Drive"},{"Latitude":"10.3155668","Longitude":"-61.4221129","Name":"Sandpiper Lane"},{"Latitude":"10.3333567","Longitude":"-61.3839225","Name":"Sandstone Branch Tr"},{"Latitude":"10.2568195","Longitude":"-61.4585923","Name":"Sandstone Drive"},{"Latitude":"10.2564104","Longitude":"-61.4588096","Name":"Sandstone Drive Extension"},{"Latitude":"10.3401408","Longitude":"-61.3848393","Name":"Sandstone Road"},{"Latitude":"10.2358818","Longitude":"-61.4706998","Name":"Sankar Avenue"},{"Latitude":"10.1306046","Longitude":"-61.8025215","Name":"Sankarali Trace"},{"Latitude":"10.2236736","Longitude":"-61.5667069","Name":"Sankarlal Dev"},{"Latitude":"10.3408539","Longitude":"-61.3765863","Name":"Sankarlal Drive"},{"Latitude":"10.1805570","Longitude":"-61.5006091","Name":"Santa Cecelia Tr"},{"Latitude":"10.2931947","Longitude":"-61.4569966","Name":"Sapphire Street"},{"Latitude":"10.1761466","Longitude":"-61.6475660","Name":"Savannah Road"},{"Latitude":"10.3118197","Longitude":"-61.3755349","Name":"Scale Road"},{"Latitude":"10.1744034","Longitude":"-61.6834215","Name":"School Road"},{"Latitude":"10.0892551","Longitude":"-61.8613509","Name":"School Road"},{"Latitude":"10.3359539","Longitude":"-61.4084453","Name":"School Road"},{"Latitude":"10.1813805","Longitude":"-61.5421996","Name":"School Street"},{"Latitude":"10.2761271","Longitude":"-61.4436187","Name":"Scotland Drive"},{"Latitude":"10.1692466","Longitude":"-61.4422882","Name":"Scott Street"},{"Latitude":"10.2680345","Longitude":"-61.4565468","Name":"Scott Street"},{"Latitude":"10.2686040","Longitude":"-61.4617012","Name":"Scrimgeour Street"},{"Latitude":"10.2592555","Longitude":"-61.4724916","Name":"Sea View Parkway"},{"Latitude":"10.2285323","Longitude":"-61.5556400","Name":"Sealand Drive"},{"Latitude":"10.2617313","Longitude":"-61.4755520","Name":"Seamoss Avenue"},{"Latitude":"10.1613905","Longitude":"-61.7047941","Name":"Seaview Drive"},{"Latitude":"10.2297459","Longitude":"-61.5385876","Name":"Seaview Drive"},{"Latitude":"10.2570179","Longitude":"-61.4790222","Name":"Seaview Drive"},{"Latitude":"10.3000809","Longitude":"-61.4545218","Name":"Seaview Drive"},{"Latitude":"10.2610425","Longitude":"-61.4757639","Name":"Seaweed Drive"},{"Latitude":"10.2961653","Longitude":"-61.4499918","Name":"Second Avenue"},{"Latitude":"10.2716734","Longitude":"-61.4327807","Name":"Second Street"},{"Latitude":"10.2917309","Longitude":"-61.4486295","Name":"Second Street"},{"Latitude":"10.2418093","Longitude":"-61.4745836","Name":"Seepaul Boulevard"},{"Latitude":"10.1833499","Longitude":"-61.4714511","Name":"Seepersad Tr"},{"Latitude":"10.2545154","Longitude":"-61.4550306","Name":"Selenite Crescent"},{"Latitude":"10.3184186","Longitude":"-61.4280315","Name":"Semper Street"},{"Latitude":"10.0954001","Longitude":"-61.8485034","Name":"Serenity Valley"},{"Latitude":"10.1724138","Longitude":"-61.6529748","Name":"Sesame Street"},{"Latitude":"10.1770185","Longitude":"-61.5201251","Name":"Seukaran Br Trace"},{"Latitude":"10.1788836","Longitude":"-61.5176649","Name":"Seukaran Trace"},{"Latitude":"10.2531321","Longitude":"-61.4607117","Name":"Seukeran Dev"},{"Latitude":"10.2702586","Longitude":"-61.4661690","Name":"Seukeran Street"},{"Latitude":"10.1796911","Longitude":"-61.5169920","Name":"Seukeran Tr"},{"Latitude":"10.1915871","Longitude":"-61.4547408","Name":"Seuradge Trace"},{"Latitude":"10.1952559","Longitude":"-61.5456971","Name":"Sewlal Branch Tr"},{"Latitude":"10.1926952","Longitude":"-61.5512655","Name":"Sewlal Trace"},{"Latitude":"10.2593347","Longitude":"-61.4579272","Name":"Shaffick"},{"Latitude":"10.2695025","Longitude":"-61.4611683","Name":"Shah Street"},{"Latitude":"10.2551122","Longitude":"-61.4668194","Name":"Shazra Street"},