[{"Latitude":"-2.5922624","Longitude":"33.4285639","Name":"1"},{"Latitude":"-3.3192849","Longitude":"37.3326293","Name":"2nd Main Street"},{"Latitude":"-4.6233918","Longitude":"30.2244755","Name":"7"},{"Latitude":"-4.9016388","Longitude":"30.0595557","Name":"A210 Street"},{"Latitude":"-4.9000702","Longitude":"30.0566285","Name":"A28 Street"},{"Latitude":"-4.9012915","Longitude":"30.0569824","Name":"A29 Street"},{"Latitude":"-3.3342871","Longitude":"37.3266921","Name":"AMEG Road"},{"Latitude":"-4.9066037","Longitude":"29.6720795","Name":"ANNA STREET ATLAS"},{"Latitude":"-6.8009713","Longitude":"39.2585669","Name":"Abdallah Fundikira Road"},{"Latitude":"-6.7913015","Longitude":"39.2688278","Name":"Abeid"},{"Latitude":"-6.7776881","Longitude":"39.2738096","Name":"Abeid Karume Street"},{"Latitude":"-4.7992422","Longitude":"34.7322918","Name":"Abeti Road"},{"Latitude":"-3.3499548","Longitude":"37.3285901","Name":"Abu Mallya Road"},{"Latitude":"-6.7630765","Longitude":"39.2639924","Name":"Abubakary"},{"Latitude":"-6.8371958","Longitude":"39.2441611","Name":"Achimwene Road"},{"Latitude":"-6.9756590","Longitude":"39.1201165","Name":"Aden Road"},{"Latitude":"-1.1742037","Longitude":"31.7662738","Name":"Admistration Road"},{"Latitude":"-6.7654305","Longitude":"39.2392269","Name":"Advent Avenue"},{"Latitude":"-1.3343050","Longitude":"31.8194645","Name":"Aerodrome Road"},{"Latitude":"-8.9045313","Longitude":"33.4601482","Name":"Africa Road"},{"Latitude":"-6.7650504","Longitude":"39.2292373","Name":"Africa Sana Road"},{"Latitude":"-6.7750879","Longitude":"39.2343289","Name":"Africa Sana Street"},{"Latitude":"-6.7016483","Longitude":"39.2196370","Name":"Africana Bridge"},{"Latitude":"-6.7005529","Longitude":"39.2132861","Name":"Africana Drive"},{"Latitude":"-6.7018920","Longitude":"39.2210721","Name":"Africana Road"},{"Latitude":"-6.7745537","Longitude":"39.2321244","Name":"Africasana"},{"Latitude":"-6.7856065","Longitude":"39.2199893","Name":"Afweli Street"},{"Latitude":"-6.7135413","Longitude":"39.2209312","Name":"Afya Street"},{"Latitude":"-3.3492142","Longitude":"37.3400542","Name":"Aga Khan Road"},{"Latitude":"-6.8203047","Longitude":"39.2826763","Name":"Aggrey Street"},{"Latitude":"-6.8234753","Longitude":"39.2725798","Name":"Agrey Street"},{"Latitude":"-3.3550353","Longitude":"37.3261034","Name":"Airport Drive"},{"Latitude":"-3.3673430","Longitude":"36.6264803","Name":"Airport Road"},{"Latitude":"-6.7783114","Longitude":"39.2331093","Name":"Ajabuziada Street"},{"Latitude":"-6.7810075","Longitude":"39.2449488","Name":"Akachube Road"},{"Latitude":"-6.7569565","Longitude":"39.2511592","Name":"Alama Close"},{"Latitude":"-6.7772580","Longitude":"39.2428042","Name":"Algeria street"},{"Latitude":"-6.7675574","Longitude":"39.2406281","Name":"Alhaj Muhaj Street"},{"Latitude":"-6.8295148","Longitude":"39.2553418","Name":"Alhamood Street"},{"Latitude":"-6.8303905","Longitude":"39.2373659","Name":"Alhamza Street"},{"Latitude":"-6.7748413","Longitude":"39.2739562","Name":"Ali Bin Said Road"},{"Latitude":"-6.7424036","Longitude":"39.2329334","Name":"Ali Hassan"},{"Latitude":"-6.7863752","Longitude":"39.2427852","Name":"Ali Maua Street"},{"Latitude":"-6.7907549","Longitude":"39.2428452","Name":"Alimaua Street"},{"Latitude":"-9.5422567","Longitude":"37.8408678","Name":"Alison"},{"Latitude":"-6.8374554","Longitude":"39.2183219","Name":"Alkilimali Street"},{"Latitude":"-6.7803340","Longitude":"39.2678151","Name":"Ally Mwinyitambwe"},{"Latitude":"-6.7280107","Longitude":"39.2175874","Name":"Ally Sykes Road"},{"Latitude":"-6.8140891","Longitude":"39.2793322","Name":"Allykhan Road"},{"Latitude":"-6.7227724","Longitude":"39.2275194","Name":"Almasi Road"},{"Latitude":"-6.7146082","Longitude":"39.2217620","Name":"Almasi Street"},{"Latitude":"-6.7132557","Longitude":"39.2261034","Name":"Altorney Street"},{"Latitude":"-6.8033855","Longitude":"39.2848657","Name":"Aly Khan Road"},{"Latitude":"-6.8264397","Longitude":"39.2573719","Name":"Amana Road"},{"Latitude":"-6.7648526","Longitude":"39.2500450","Name":"Amani Lane"},{"Latitude":"-6.8047514","Longitude":"39.0663683","Name":"Amani Road"},{"Latitude":"-6.8170280","Longitude":"39.2731360","Name":"Amani Street"},{"Latitude":"-3.3372463","Longitude":"37.3231073","Name":"Amerigo Andreocci Close"},{"Latitude":"-3.3639952","Longitude":"37.3179050","Name":"Angani Street"},{"Latitude":"-10.0026697","Longitude":"39.6987814","Name":"Angaza Street"},{"Latitude":"-6.7161164","Longitude":"39.2326444","Name":"Angeli Azzurri street"},{"Latitude":"-10.0014449","Longitude":"39.7048109","Name":"Angola Road"},{"Latitude":"-6.8197223","Longitude":"39.2230670","Name":"Angoni Street"},{"Latitude":"-6.7780167","Longitude":"39.2362616","Name":"Anna Makinda Road"},{"Latitude":"-6.8295425","Longitude":"39.2270982","Name":"Anna Mkapa Street"},{"Latitude":"-6.7769763","Longitude":"39.2229089","Name":"Anthem Street"},{"Latitude":"-5.0708584","Longitude":"39.1063767","Name":"Arab Street"},{"Latitude":"-6.7867426","Longitude":"39.2281074","Name":"Arakuni Street"},{"Latitude":"-6.7987372","Longitude":"39.2379611","Name":"Argentina"},{"Latitude":"-6.7973728","Longitude":"39.2387036","Name":"Argentina Road"},{"Latitude":"-6.8066566","Longitude":"39.1448295","Name":"Arsenal Road"},{"Latitude":"-6.1752325","Longitude":"35.7483675","Name":"Arusha Avenue"},{"Latitude":"-3.3698582","Longitude":"36.6943502","Name":"Arusha International Conference Centre Roundabout"},{"Latitude":"-3.3504762","Longitude":"37.3375750","Name":"Arusha Road"},{"Latitude":"-6.8286409","Longitude":"39.2598190","Name":"Arusha Street"},{"Latitude":"-3.4249566","Longitude":"36.7603890","Name":"Arusha ring road"},{"Latitude":"-6.7928029","Longitude":"39.2663862","Name":"Atalanta"},{"Latitude":"-6.2170895","Longitude":"35.8106338","Name":"Auditorium Road"},{"Latitude":"-6.7513491","Longitude":"39.2376562","Name":"Aza"},{"Latitude":"-6.8117141","Longitude":"39.2850931","Name":"Azikiwe Road"},{"Latitude":"-6.8167241","Longitude":"39.2896275","Name":"Azikiwe Street"},{"Latitude":"-6.8365465","Longitude":"39.2527659","Name":"Azimio Road"},{"Latitude":"-3.3719029","Longitude":"36.6875744","Name":"Azimio Street"},{"Latitude":"-3.7960485","Longitude":"35.6957978","Name":"B141"},{"Latitude":"-3.3263399","Longitude":"35.7161253","Name":"B144"},{"Latitude":"-4.8206544","Longitude":"29.6331251","Name":"BURONGE"},{"Latitude":"-6.8008109","Longitude":"39.2473404","Name":"Babati Street"},{"Latitude":"-6.8239425","Longitude":"39.2067619","Name":"Back Tabata Street"},{"Latitude":"-6.7987486","Longitude":"39.2354225","Name":"Backtown Street"},{"Latitude":"-6.4571378","Longitude":"38.9075533","Name":"Bagamoyo Road"},{"Latitude":"-5.1054947","Longitude":"39.7623071","Name":"Bahanasa Mtambwe Road"},{"Latitude":"-6.6812538","Longitude":"39.2036209","Name":"Bahari Beach Road"},{"Latitude":"-6.7204382","Longitude":"39.2309676","Name":"Bahari Road"},{"Latitude":"-6.8260862","Longitude":"39.2219283","Name":"Baharia Street"},{"Latitude":"-6.8313699","Longitude":"39.2221829","Name":"Baharia street"},{"Latitude":"-6.8499190","Longitude":"39.2582505","Name":"Bahati Street"},{"Latitude":"-6.7839431","Longitude":"39.2479878","Name":"Bahi Road"},{"Latitude":"-6.7973182","Longitude":"39.2364190","Name":"Bakhresa Street"},{"Latitude":"-6.8541730","Longitude":"39.2559024","Name":"Bakwata Street"},{"Latitude":"-2.5147589","Longitude":"32.8990517","Name":"Balewa Road"},{"Latitude":"-6.7782260","Longitude":"39.2432047","Name":"Bambi Street"},{"Latitude":"-6.7936804","Longitude":"39.2689289","Name":"Bamboo"},{"Latitude":"-6.8177198","Longitude":"39.2812906","Name":"Band Street"},{"Latitude":"-6.8095051","Longitude":"39.2298859","Name":"Banda Road"},{"Latitude":"-2.5174719","Longitude":"32.9047823","Name":"Banda Street"},{"Latitude":"-2.5182578","Longitude":"32.9090980","Name":"Banda street"},{"Latitude":"-6.8036218","Longitude":"39.2155141","Name":"Bandari Kavu Footway"},{"Latitude":"-6.7528219","Longitude":"39.2764426","Name":"Bandari Lane"},{"Latitude":"-6.8262277","Longitude":"39.2230364","Name":"Bandari Street"},{"Latitude":"-3.3555638","Longitude":"36.7383101","Name":"Bangata Road"},{"Latitude":"-5.0708353","Longitude":"39.1018129","Name":"Bank Street"},{"Latitude":"-2.5175896","Longitude":"32.8996772","Name":"Bantu Street"},{"Latitude":"-2.5176441","Longitude":"32.9004022","Name":"Bantu street"},{"Latitude":"-6.8581729","Longitude":"39.2601510","Name":"Bao Street"},{"Latitude":"-6.7760886","Longitude":"39.2282282","Name":"Baptist Street"},{"Latitude":"-6.7240446","Longitude":"39.2002032","Name":"Bar Mpya Street"},{"Latitude":"-3.2114761","Longitude":"37.2052230","Name":"Barabara  ya Nkwaana (Shia ya Nkwaana/Shia ya kwa Timoteo"},{"Latitude":"-3.3640047","Longitude":"36.6960137","Name":"Barabara ya Afrika Mashariki"},{"Latitude":"-6.8147335","Longitude":"37.6455481","Name":"Barabara ya Bomba la Mafuta"},{"Latitude":"-6.8137250","Longitude":"37.6424666","Name":"Barabara ya Chamwino"},{"Latitude":"-6.1993055","Longitude":"39.2556026","Name":"Barabara ya Fuoni Jitimai"},{"Latitude":"-6.1733497","Longitude":"39.2401405","Name":"Barabara ya Kinunu"},{"Latitude":"-6.2066146","Longitude":"39.2458435","Name":"Barabara ya Kwarara"},{"Latitude":"-6.1790422","Longitude":"39.2558822","Name":"Barabara ya MamboSasa"},{"Latitude":"-3.3369691","Longitude":"37.3308832","Name":"Barabara ya Mashina"},{"Latitude":"-6.1362909","Longitude":"35.9414104","Name":"Barabara ya Mtumba"},{"Latitude":"-6.1745369","Longitude":"39.2401604","Name":"Barabara ya Nyarugusu"},{"Latitude":"-6.8206710","Longitude":"37.6450372","Name":"Barabara ya Sambamba Chamwino"},{"Latitude":"-6.8207469","Longitude":"37.6405416","Name":"Barabara ya Sambamba Chamwino Barabara ya Bomba la Mafuta"},{"Latitude":"-6.7780205","Longitude":"39.2666619","Name":"Barabara ya Vumbi Dawasco"},{"Latitude":"-3.3724221","Longitude":"36.6831285","Name":"Barabara ya Wachaga"},{"Latitude":"-8.9103530","Longitude":"33.5036368","Name":"Barabara ya Zamani"},{"Latitude":"-6.7865108","Longitude":"38.9727999","Name":"Barabara ya kota"},{"Latitude":"-6.7984966","Longitude":"39.2825935","Name":"Barack Obama Drive"},{"Latitude":"-6.8138542","Longitude":"39.2429614","Name":"Barafu Street"},{"Latitude":"-6.7202976","Longitude":"39.2287722","Name":"Baraka Street"},{"Latitude":"-6.7633368","Longitude":"39.2675305","Name":"Barbeque Village Street"},{"Latitude":"-1.3314072","Longitude":"31.8130164","Name":"Barongo Street"},{"Latitude":"-4.6244740","Longitude":"30.2680261","Name":"Bass Barn Road"},{"Latitude":"-6.7088178","Longitude":"39.2281549","Name":"Beach"},{"Latitude":"-6.7172585","Longitude":"39.2325891","Name":"Beach Street"},{"Latitude":"-6.7252562","Longitude":"39.2101583","Name":"Beauty Hill Street"},{"Latitude":"-6.8578705","Longitude":"39.2114782","Name":"Becco Street"},{"Latitude":"-6.7872773","Longitude":"39.2194645","Name":"Beit Gabriel Street"},{"Latitude":"-6.8336132","Longitude":"39.2563853","Name":"Bel Road"},{"Latitude":"-6.8346169","Longitude":"39.2565603","Name":"Beli Street"},{"Latitude":"-3.3532885","Longitude":"37.3358004","Name":"Ben Bella Street"},{"Latitude":"-2.5384658","Longitude":"32.9188976","Name":"Bendera Tatu"},{"Latitude":"-6.1677024","Longitude":"39.1917450","Name":"Benjamin Mkapa Road"},{"Latitude":"-6.1633706","Longitude":"39.2265405","Name":"Benjamin William Road"},{"Latitude":"-6.8658674","Longitude":"39.2582222","Name":"Berega Road"},{"Latitude":"-6.7886760","Longitude":"39.2504330","Name":"Berege Road"},{"Latitude":"-6.7809161","Longitude":"39.2689669","Name":"Best Bite"},{"Latitude":"-6.7282748","Longitude":"39.2167775","Name":"Bi Amina"},{"Latitude":"-6.8261870","Longitude":"39.2144900","Name":"Bi Khalid Street"},{"Latitude":"-6.7939762","Longitude":"39.2416645","Name":"Bi Mtumwa Street"},{"Latitude":"-6.7988209","Longitude":"39.0952832","Name":"Bi Sweet Road"},{"Latitude":"-6.8533993","Longitude":"39.2549109","Name":"Bi. Afsa Street"},{"Latitude":"-6.7832938","Longitude":"39.2652043","Name":"Biafra Road"},{"Latitude":"-6.7842216","Longitude":"39.2692278","Name":"Biafra street"},{"Latitude":"-1.3292291","Longitude":"31.8116117","Name":"Biashara Street"},{"Latitude":"-6.8255702","Longitude":"39.2110224","Name":"Bibi Chichi Street"},{"Latitude":"-6.8371292","Longitude":"39.2176513","Name":"Bibi Errah"},{"Latitude":"-6.8314700","Longitude":"39.2171936","Name":"Bibi Suzi"},{"Latitude":"-6.7913067","Longitude":"39.2409337","Name":"Bibi Titi Street"},{"Latitude":"-6.8098099","Longitude":"39.2342476","Name":"Bichi Boy Street"},{"Latitude":"-6.8265168","Longitude":"39.2292883","Name":"Big Brother Street"},{"Latitude":"-7.2173506","Longitude":"39.1217870","Name":"Bigwa farm Road"},{"Latitude":"-2.6349442","Longitude":"31.3117912","Name":"Biharamulo Road"},{"Latitude":"-6.7821166","Longitude":"39.2661657","Name":"Bihusna"},{"Latitude":"-6.7544782","Longitude":"39.2418379","Name":"Bima Road"},{"Latitude":"-6.7949805","Longitude":"39.2683192","Name":"Binti Dodo"},{"Latitude":"-6.7926307","Longitude":"39.2725345","Name":"Binti Matola Street"},{"Latitude":"-6.1854355","Longitude":"35.7458830","Name":"Biringi Road"},{"Latitude":"-6.7948452","Longitude":"39.0954253","Name":"Biswaro Road"},{"Latitude":"-6.7150406","Longitude":"39.2316668","Name":"Blessings Street"},{"Latitude":"-4.6527163","Longitude":"34.6667272","Name":"Bloccboy H. Tuominen"},{"Latitude":"-6.2179763","Longitude":"35.8151742","Name":"Block 4"},{"Latitude":"-6.2180966","Longitude":"35.8142665","Name":"Block 4, 5, and 6 Road"},{"Latitude":"-6.7820854","Longitude":"39.2679269","Name":"Block 41"},{"Latitude":"-6.2181582","Longitude":"35.8132431","Name":"Block 6"},{"Latitude":"-6.8346294","Longitude":"39.2756769","Name":"Bohari Street"},{"Latitude":"-6.6337652","Longitude":"39.1768444","Name":"Bohora Street"},{"Latitude":"-6.6323177","Longitude":"39.1634910","Name":"Boko Beach"},{"Latitude":"-6.6317949","Longitude":"39.1450629","Name":"Boko Magereza Road"},{"Latitude":"-6.8579145","Longitude":"39.2662626","Name":"Boko Street"},{"Latitude":"-3.3376428","Longitude":"37.1463322","Name":"Boma Central Street"},{"Latitude":"-4.8694928","Longitude":"39.1933595","Name":"Boma Ndani"},{"Latitude":"-5.0688798","Longitude":"39.0998660","Name":"Boma Road"},{"Latitude":"-3.3450395","Longitude":"37.1414313","Name":"Boma South Soad"},{"Latitude":"-3.3494818","Longitude":"37.1354394","Name":"Boma West Road"},{"Latitude":"-3.4568648","Longitude":"31.8880616","Name":"Boman Road"},{"Latitude":"-6.7249480","Longitude":"39.1988379","Name":"Bomba la Maji Street"},{"Latitude":"-6.8214169","Longitude":"39.2045737","Name":"Bonde la Mchicha Road"},{"Latitude":"-6.7171469","Longitude":"39.2288130","Name":"Bondeni Road"},{"Latitude":"-6.7806298","Longitude":"39.2422376","Name":"Bondeni Street"},{"Latitude":"-6.7816489","Longitude":"39.2784515","Name":"Bongoyo Road"},{"Latitude":"-6.8430061","Longitude":"39.1857444","Name":"Bonyokwa - Tabata Segerea"},{"Latitude":"-6.8301253","Longitude":"39.2562506","Name":"Boom Road"},{"Latitude":"-6.7142132","Longitude":"39.2151646","Name":"Bot street"},{"Latitude":"-6.7770178","Longitude":"39.2392891","Name":"Botswana Street"},{"Latitude":"-3.8836635","Longitude":"36.1128895","Name":"Boundary Hill Gate Road"},{"Latitude":"-3.3775957","Longitude":"36.6986207","Name":"Br. Hans"},{"Latitude":"-3.3826736","Longitude":"36.6983809","Name":"Br. Ingira"},{"Latitude":"-6.7905720","Longitude":"39.2673979","Name":"Brazil"},{"Latitude":"-3.3855392","Longitude":"36.6997251","Name":"Brewery East Road"},{"Latitude":"-8.9057681","Longitude":"33.4672291","Name":"Brock Road"},{"Latitude":"-6.8619303","Longitude":"39.2582415","Name":"Bububu Road"},{"Latitude":"-6.8756858","Longitude":"39.2655158","Name":"Bububu Street"},{"Latitude":"-6.6562326","Longitude":"39.1989908","Name":"Budget Street"},{"Latitude":"-6.8839934","Longitude":"39.2680513","Name":"Bughudadi Road"},{"Latitude":"-6.8361814","Longitude":"39.2521380","Name":"Buguruni Gaya Road"},{"Latitude":"-4.8736379","Longitude":"29.6731735","Name":"Buhanda Street"},{"Latitude":"-6.7948538","Longitude":"39.1400955","Name":"Bujeke Road"},{"Latitude":"-2.5438511","Longitude":"33.0371717","Name":"Bujora Minor Road"},{"Latitude":"-6.7834426","Longitude":"39.2500734","Name":"Bukene Street"},{"Latitude":"-6.6513119","Longitude":"39.1894628","Name":"Bukindo Street"},{"Latitude":"-6.8281112","Longitude":"39.2619826","Name":"Bukoba Street"},{"Latitude":"-6.7852680","Longitude":"39.2507364","Name":"Bulunde Street"},{"Latitude":"-6.7211250","Longitude":"39.2134216","Name":"Bunda Street"},{"Latitude":"-6.7141019","Longitude":"39.2163245","Name":"Bunge Road"},{"Latitude":"-6.6301000","Longitude":"39.1787642","Name":"Bunge Street"},{"Latitude":"-6.8311062","Longitude":"39.2577241","Name":"Bungoni Road"},{"Latitude":"-6.8667894","Longitude":"39.2530592","Name":"Bunju Street"},{"Latitude":"-4.9062981","Longitude":"29.6524278","Name":"Burega Street"},{"Latitude":"-6.7213118","Longitude":"39.2316384","Name":"Burito Street"},{"Latitude":"-6.7896351","Longitude":"39.2749571","Name":"Burundi Street"},{"Latitude":"-6.7116624","Longitude":"39.2180265","Name":"Busara Street"},{"Latitude":"-4.8729229","Longitude":"29.6665023","Name":"Businde Road"},{"Latitude":"-6.7865427","Longitude":"39.2486737","Name":"Busoka Street"},{"Latitude":"-9.4106513","Longitude":"33.8261902","Name":"Busokelo Road"},{"Latitude":"-3.3416568","Longitude":"37.3368557","Name":"Bustani Alley Road"},{"Latitude":"-6.8784753","Longitude":"39.4394197","Name":"Bustani St."},{"Latitude":"-6.6990929","Longitude":"39.2131999","Name":"Bustani Street"},{"Latitude":"-2.5274416","Longitude":"32.9770797","Name":"Buswelu - Igoma"},{"Latitude":"-2.4874134","Longitude":"32.9457685","Name":"Buswelu - Kiseke"},{"Latitude":"-2.5362209","Longitude":"32.9574999","Name":"Buswelu Road"},{"Latitude":"-6.7787487","Longitude":"39.2344376","Name":"Butembo Street"},{"Latitude":"-6.8302907","Longitude":"39.2427332","Name":"Butiama Road"},{"Latitude":"-6.8468352","Longitude":"39.2219869","Name":"Butiama Street"},{"Latitude":"-6.8346329","Longitude":"39.2558609","Name":"Buwa Road"},{"Latitude":"-1.3370814","Longitude":"31.8093079","Name":"Buyekela Road"},{"Latitude":"-6.8386389","Longitude":"39.2486063","Name":"Buyuni"},{"Latitude":"-6.8376101","Longitude":"39.2462487","Name":"Buyuni Road"},{"Latitude":"-6.8915790","Longitude":"39.2334916","Name":"Buza Road"},{"Latitude":"-4.9087415","Longitude":"29.6707077","Name":"Buzebazeba Market Street"},{"Latitude":"-2.4806844","Longitude":"32.9143682","Name":"Buzuluga Road"},{"Latitude":"-6.7552821","Longitude":"39.2803434","Name":"Buzwagi Street"},{"Latitude":"-3.3740254","Longitude":"36.6922968","Name":"Bwalo Crescent"},{"Latitude":"-3.0346645","Longitude":"31.7607616","Name":"Bwanga"},{"Latitude":"-3.3085903","Longitude":"31.5561515","Name":"Bwanga Road"},{"Latitude":"-3.2206734","Longitude":"37.2037560","Name":"Bwani Road"},{"Latitude":"-6.7805248","Longitude":"39.2567204","Name":"Bwawani"},{"Latitude":"-6.7791637","Longitude":"39.2456633","Name":"Bwawani Street"},{"Latitude":"-6.7957012","Longitude":"39.2400590","Name":"Bwendes Street"},{"Latitude":"-6.8193874","Longitude":"39.2483102","Name":"Bwimbiru Street"},{"Latitude":"-3.3442261","Longitude":"36.6196512","Name":"Bypass"},{"Latitude":"-2.4998946","Longitude":"32.8985450","Name":"CCM Kirumba Stadium"},{"Latitude":"-6.7975339","Longitude":"39.2644497","Name":"CCM Road"},{"Latitude":"-6.7548233","Longitude":"39.2791269","Name":"CCM Street"},{"Latitude":"-6.8328693","Longitude":"39.2172870","Name":"CCM street"},{"Latitude":"-6.2147104","Longitude":"35.8123103","Name":"Cafe Road"},{"Latitude":"-3.4515919","Longitude":"31.8911124","Name":"California"},{"Latitude":"-6.6544376","Longitude":"39.1844360","Name":"Cannosa Street"},{"Latitude":"-4.6442664","Longitude":"34.6603575","Name":"Canto 34"},{"Latitude":"-2.5282476","Longitude":"32.8935029","Name":"Capripoint"},{"Latitude":"-2.5260627","Longitude":"32.8954351","Name":"Capripoint Road"},{"Latitude":"-8.9005658","Longitude":"33.4516772","Name":"Car Wash Street"},{"Latitude":"-6.9002683","Longitude":"39.2702055","Name":"Car alarms & window tint solution"},{"Latitude":"-6.7353479","Longitude":"39.2239333","Name":"Ccm"},{"Latitude":"-3.3491500","Longitude":"37.3326928","Name":"Cemetery Road"},{"Latitude":"-6.8307025","Longitude":"39.2226092","Name":"Centre Point Street"},{"Latitude":"-6.1721819","Longitude":"35.7500055","Name":"Chabase Street"},{"Latitude":"-6.8208186","Longitude":"39.2371018","Name":"Chagama Street"},{"Latitude":"-6.8178424","Longitude":"39.2819545","Name":"Chagga Street"},{"Latitude":"-6.7552676","Longitude":"39.2857647","Name":"Chake Chake Road"},{"Latitude":"-6.8087973","Longitude":"39.2310492","Name":"Chakwale"},{"Latitude":"-6.8021579","Longitude":"39.2502185","Name":"Chalinze"},{"Latitude":"-6.7936716","Longitude":"39.2182392","Name":"Chama Street"},{"Latitude":"-6.8545662","Longitude":"39.2541149","Name":"Chamakiwe Street"},{"Latitude":"-6.8312117","Longitude":"39.2039526","Name":"Chang'ombe"},{"Latitude":"-6.8473660","Longitude":"39.2669905","Name":"Chang'ombe Road"},{"Latitude":"-6.7667901","Longitude":"39.2135918","Name":"Changanyikeni Road"},{"Latitude":"-6.7755530","Longitude":"39.2003276","Name":"Changanyikeni Street"},{"Latitude":"-6.7053771","Longitude":"39.2281950","Name":"Changu street"},{"Latitude":"-6.8205043","Longitude":"39.2232995","Name":"Chanzi street"},{"Latitude":"-6.9708367","Longitude":"39.2201170","Name":"Charambe-Mbande Road"},{"Latitude":"-6.7760150","Longitude":"39.2444802","Name":"Chard Street"},{"Latitude":"-6.7738807","Longitude":"39.2610242","Name":"Chato Street"},{"Latitude":"-6.7836635","Longitude":"39.2280740","Name":"Chatu Road"},{"Latitude":"-6.7084990","Longitude":"39.2174061","Name":"Chaurembo Street"},{"Latitude":"-8.9057541","Longitude":"33.4424456","Name":"Check Point Street"},{"Latitude":"-6.7937596","Longitude":"39.2402267","Name":"Chegeka Street"},{"Latitude":"-6.8138260","Longitude":"39.0942270","Name":"Chekechea Street"},{"Latitude":"-6.7168550","Longitude":"39.2150542","Name":"Chekelea Street"},{"Latitude":"-6.8079913","Longitude":"39.2537445","Name":"Chekeni Street"},{"Latitude":"-6.8060063","Longitude":"39.2606057","Name":"Chem Chem Road"},{"Latitude":"-6.8051302","Longitude":"39.2609716","Name":"Chemchem Road"},{"Latitude":"-6.7801725","Longitude":"39.2338447","Name":"Chemchem Street"},{"Latitude":"-6.8201128","Longitude":"39.2319600","Name":"Chengula Street"},{"Latitude":"-6.9260481","Longitude":"39.1154503","Name":"Chibuda Road"},{"Latitude":"-6.8082116","Longitude":"39.2256539","Name":"Chidiboy Street"},{"Latitude":"-6.8091240","Longitude":"39.2490231","Name":"Chidya Street"},{"Latitude":"-6.7770274","Longitude":"39.2065269","Name":"Chief Kunambi Street"},{"Latitude":"-3.3315298","Longitude":"37.3182952","Name":"Chief T. Marealle Road"},{"Latitude":"-6.8692927","Longitude":"39.2550054","Name":"Chihota Street"},{"Latitude":"-6.8388843","Longitude":"39.2466796","Name":"Chile Road"},{"Latitude":"-6.7877758","Longitude":"39.2244876","Name":"Chimwaga Street"},{"Latitude":"-6.1587659","Longitude":"35.7300838","Name":"Chinagali West"},{"Latitude":"-6.8616680","Longitude":"39.2533027","Name":"Chiota Road"},{"Latitude":"-6.7630019","Longitude":"39.1999333","Name":"Chipa Road"},{"Latitude":"-6.8197609","Longitude":"39.2223879","Name":"Chips Street"},{"Latitude":"-6.7800396","Longitude":"39.2284000","Name":"Chipukizi Street"},{"Latitude":"-6.7759044","Longitude":"39.2816956","Name":"Chisiza Close Street"},{"Latitude":"-6.8659614","Longitude":"39.2608024","Name":"Chiwanda Street"},{"Latitude":"-6.7497372","Longitude":"39.2747559","Name":"Chole Road"},{"Latitude":"-6.7999875","Longitude":"39.2072909","Name":"Chonya Street"},{"Latitude":"-6.8177914","Longitude":"39.2733850","Name":"Chui Street"},{"Latitude":"-6.8029670","Longitude":"39.2437778","Name":"Chuma street"},{"Latitude":"-6.1583102","Longitude":"39.2199039","Name":"Chumbuni Road"},{"Latitude":"-6.6934237","Longitude":"39.2165420","Name":"Chumvini Street"},{"Latitude":"-6.8313014","Longitude":"39.2607168","Name":"Chunya Street"},{"Latitude":"-6.7154402","Longitude":"39.2256120","Name":"Church Road"},{"Latitude":"-6.8163936","Longitude":"39.2854742","Name":"Chusi Street"},{"Latitude":"-6.7710142","Longitude":"39.2578183","Name":"Chwaku Street"},{"Latitude":"-6.8217518","Longitude":"39.2838319","Name":"Clock Tower"},{"Latitude":"-3.3486150","Longitude":"37.3435166","Name":"Clock Tower Roundabout"},{"Latitude":"-6.8364256","Longitude":"39.2163779","Name":"Closed Double D Street"},{"Latitude":"-8.9686464","Longitude":"32.8969813","Name":"Clough Road"},{"Latitude":"-6.8155771","Longitude":"39.2286620","Name":"Club D Street"},{"Latitude":"-6.7640144","Longitude":"39.2295320","Name":"Coca Cola Road"},{"Latitude":"-6.7520868","Longitude":"39.2344591","Name":"Coca cola"},{"Latitude":"-8.9363612","Longitude":"33.4120331","Name":"Cocacola Road"},{"Latitude":"-6.8309953","Longitude":"39.2768577","Name":"Coco Cola Street"},{"Latitude":"-9.6187256","Longitude":"37.8579890","Name":"Cohen"},{"Latitude":"-3.3639307","Longitude":"36.6837608","Name":"Col Middleton Road"},{"Latitude":"-6.7049828","Longitude":"39.2265301","Name":"Coloneli Mitha Street"},{"Latitude":"-6.7424202","Longitude":"39.2783894","Name":"Coral Lane"},{"Latitude":"-6.7748845","Longitude":"39.2348859","Name":"Corner Bar Street"},{"Latitude":"-2.5189659","Longitude":"32.8993435","Name":"Court Road"},{"Latitude":"-3.5544142","Longitude":"36.6182975","Name":"Crater Road"},{"Latitude":"-6.1620645","Longitude":"39.1940515","Name":"Creek Road"},{"Latitude":"-4.6460962","Longitude":"34.6636135","Name":"Cribway 34"},{"Latitude":"-3.3748347","Longitude":"36.6985141","Name":"Cricket Street"},{"Latitude":"-5.0708160","Longitude":"39.1053154","Name":"Custom Road"},{"Latitude":"-2.5174116","Longitude":"32.8977607","Name":"Customs Road"},{"Latitude":"-9.5121707","Longitude":"33.3372979","Name":"D2"},{"Latitude":"-6.8164233","Longitude":"39.2842623","Name":"DTV Round About"},{"Latitude":"-6.7871053","Longitude":"39.2770975","Name":"Dahomey Road"},{"Latitude":"-6.7615525","Longitude":"39.2471143","Name":"Daima"},{"Latitude":"-6.8059683","Longitude":"39.2524583","Name":"Dakawa Street"},{"Latitude":"-5.4394213","Longitude":"37.7670002","Name":"Dampo"},{"Latitude":"-8.9105612","Longitude":"33.4603729","Name":"Dampo Road"},{"Latitude":"-3.3544974","Longitude":"37.3308817","Name":"Dar es Salaam Street"},{"Latitude":"-6.7709594","Longitude":"37.6463818","Name":"Dar group road"},{"Latitude":"-6.7237635","Longitude":"39.2055513","Name":"Daraja Mpya Road"},{"Latitude":"-6.1609622","Longitude":"39.1956259","Name":"Darajani Street"},{"Latitude":"-6.8312162","Longitude":"39.2294550","Name":"Dawasco Road"},{"Latitude":"-6.8319957","Longitude":"39.2190859","Name":"Dawasco Street"},{"Latitude":"-6.8176281","Longitude":"39.2297006","Name":"Demasey Street"},{"Latitude":"-6.7715936","Longitude":"39.2693337","Name":"Devergy Road"},{"Latitude":"-3.3324616","Longitude":"37.3263437","Name":"Dhiru Chauhan Road"},{"Latitude":"-3.3891340","Longitude":"32.9506099","Name":"Dirt Road"},{"Latitude":"-6.2168978","Longitude":"35.8129469","Name":"Dispensary Entrance"},{"Latitude":"-1.1762457","Longitude":"31.7644908","Name":"Dispensary Road"},{"Latitude":"-3.4568270","Longitude":"31.8944251","Name":"District Road"},{"Latitude":"-6.7948870","Longitude":"39.2393476","Name":"Diswela Street"},{"Latitude":"-6.8281570","Longitude":"39.2299582","Name":"Diwani Street"},{"Latitude":"-6.7681542","Longitude":"39.2318871","Name":"Django Street"},{"Latitude":"-6.8512793","Longitude":"39.2520170","Name":"Dk Omari Ali Juma Road"},{"Latitude":"-6.8621589","Longitude":"39.2609747","Name":"Dk Omari Ali Juma Street"},{"Latitude":"-6.8314618","Longitude":"39.2614511","Name":"Dodoma Street"},{"Latitude":"-6.7352017","Longitude":"39.2220171","Name":"Doeni"},{"Latitude":"-6.7628571","Longitude":"39.1891411","Name":"Don's Street"},{"Latitude":"-6.8180413","Longitude":"39.2740187","Name":"Donge"},{"Latitude":"-6.7609413","Longitude":"39.2633686","Name":"Dongxing Road"},{"Latitude":"-6.8075305","Longitude":"39.2613309","Name":"Dosi Road"},{"Latitude":"-6.8106320","Longitude":"39.2602210","Name":"Dosi Street"},{"Latitude":"-6.8249190","Longitude":"39.2312651","Name":"Dr.Omary Ally Juma"},{"Latitude":"-6.8722646","Longitude":"39.2593904","Name":"Dragon Street"},{"Latitude":"-3.0352717","Longitude":"37.5510209","Name":"Drive way"},{"Latitude":"-3.1325487","Longitude":"37.5744484","Name":"Driveway"},{"Latitude":"-6.7776073","Longitude":"39.2306174","Name":"Duara Mbili Street"},{"Latitude":"-6.7865767","Longitude":"39.2298281","Name":"Dubu Street"},{"Latitude":"-3.3874183","Longitude":"36.7815693","Name":"Duluti West Bypass"},{"Latitude":"-6.7252784","Longitude":"39.2140034","Name":"Duma"},{"Latitude":"-6.7848208","Longitude":"39.2292219","Name":"Dunda road"},{"Latitude":"-6.7838474","Longitude":"39.2574613","Name":"Dunga street"},{"Latitude":"-3.3660867","Longitude":"37.3205037","Name":"Dunia Street"},{"Latitude":"-6.8045012","Longitude":"39.2462759","Name":"Dutumi Street Road"},{"Latitude":"-3.7876796","Longitude":"36.0489111","Name":"East Bank Road"},{"Latitude":"-8.9086323","Longitude":"33.5023490","Name":"Echa Street"},{"Latitude":"-5.0728344","Longitude":"39.1105329","Name":"Eckernforde Avenue"},{"Latitude":"-6.1797592","Longitude":"35.7453919","Name":"Eighth Street"},{"Latitude":"-5.0855617","Longitude":"39.0972442","Name":"Ekonforde Avenue"},{"Latitude":"-6.7724231","Longitude":"39.2284079","Name":"Elevenstreet"},{"Latitude":"-6.1803681","Longitude":"35.7441721","Name":"Eleventh Street"},{"Latitude":"-6.7271896","Longitude":"39.2104303","Name":"Elisa Street"},{"Latitude":"-6.8268556","Longitude":"39.2034429","Name":"Emirate street"},{"Latitude":"-6.7269280","Longitude":"39.2188303","Name":"Esebi Street"},{"Latitude":"-8.9173999","Longitude":"33.4516141","Name":"Esso Road"},{"Latitude":"-8.9098902","Longitude":"33.4504211","Name":"Esso Street"},{"Latitude":"-6.7198962","Longitude":"39.2254570","Name":"Ethan Street"},{"Latitude":"-6.7795986","Longitude":"39.2832567","Name":"Ethiopia Drive"},{"Latitude":"-6.7814151","Longitude":"39.2823381","Name":"Ethiopia Drive Road"},{"Latitude":"-3.3675658","Longitude":"36.6868578","Name":"Ethiopia Street"},{"Latitude":"-6.7804685","Longitude":"39.2469042","Name":"Evening Star Road"},{"Latitude":"-3.3975210","Longitude":"36.7342103","Name":"Excel East Road"},{"Latitude":"-3.3948569","Longitude":"36.7353422","Name":"Excel North Road"},{"Latitude":"-3.3893567","Longitude":"36.7392769","Name":"Excel Onsea Road"},{"Latitude":"-3.3975123","Longitude":"36.7169087","Name":"Excel West Road"},{"Latitude":"-6.7627795","Longitude":"39.2375976","Name":"Eyasi Street"},{"Latitude":"-4.8846494","Longitude":"29.6603174","Name":"FIELD FORCE STREET"},{"Latitude":"-3.3456596","Longitude":"37.3458669","Name":"Factory Street"},{"Latitude":"-6.1903032","Longitude":"35.7483831","Name":"Faharani Road"},{"Latitude":"-3.3642118","Longitude":"36.6974162","Name":"Faida Street"},{"Latitude":"-6.8304686","Longitude":"39.2187339","Name":"Family street"},{"Latitude":"-6.6463156","Longitude":"39.1789439","Name":"Fareway Pub Street"},{"Latitude":"-6.7853713","Longitude":"39.2263757","Name":"Faru Road"},{"Latitude":"-6.8432798","Longitude":"39.2324732","Name":"Faru Street"},{"Latitude":"-3.3716680","Longitude":"36.6791897","Name":"Father Babu Road"},{"Latitude":"-6.7849020","Longitude":"39.2199346","Name":"Fatumani Street"},{"Latitude":"-6.1597195","Longitude":"39.2042442","Name":"Felix Moumi Road"},{"Latitude":"-6.7871283","Longitude":"39.2547781","Name":"Fera street"},{"Latitude":"-6.0328124","Longitude":"37.1698983","Name":"Ferandez"},{"Latitude":"-6.6590782","Longitude":"39.1968524","Name":"Feza Road"},{"Latitude":"-8.9082050","Longitude":"33.4563450","Name":"Fine Street"},{"Latitude":"-3.3746226","Longitude":"36.6932558","Name":"Fire Road"},{"Latitude":"-4.8507628","Longitude":"39.2065901","Name":"Fish Eagle Point road"},{"Latitude":"-6.7276000","Longitude":"39.2114515","Name":"Five Star Street"},{"Latitude":"-3.3654966","Longitude":"36.6843903","Name":"Florida Roundabout"},{"Latitude":"-6.8363318","Longitude":"37.6779768","Name":"Forest Hill Road"},{"Latitude":"-2.5264814","Longitude":"32.8881851","Name":"Forest Street"},{"Latitude":"-6.1778047","Longitude":"35.7479333","Name":"Fourth Street"},{"Latitude":"-6.8187251","Longitude":"39.2506868","Name":"Foya Street"},{"Latitude":"-6.8272688","Longitude":"39.2047264","Name":"Freeland"},{"Latitude":"-6.7999210","Longitude":"39.2415268","Name":"Friends Corner"},{"Latitude":"-6.7990930","Longitude":"39.2432980","Name":"Friends corner"},{"Latitude":"-8.9104405","Longitude":"33.4727708","Name":"Friendship Logde Street"},{"Latitude":"-6.8074301","Longitude":"39.2214277","Name":"Full Doz Road"},{"Latitude":"-6.7889858","Longitude":"39.2252547","Name":"Fulwe Road"},{"Latitude":"-6.7896323","Longitude":"39.2258262","Name":"Fulwe Street"},{"Latitude":"-6.8035028","Longitude":"39.2572990","Name":"Fundikila Street"},{"Latitude":"-6.6594537","Longitude":"39.2021329","Name":"Furaha Street"},{"Latitude":"-2.5036768","Longitude":"32.8997370","Name":"Furahisha Grounds"},{"Latitude":"-6.1732350","Longitude":"35.7523152","Name":"Gaid"},{"Latitude":"-6.7840284","Longitude":"39.2552762","Name":"Gairo street"},{"Latitude":"-6.7810549","Longitude":"39.2414877","Name":"Gambia Street"},{"Latitude":"-6.7636630","Longitude":"39.2506102","Name":"Gamshard"},{"Latitude":"-6.7633100","Longitude":"39.2514932","Name":"Gamshard Circle Street"},{"Latitude":"-6.7956833","Longitude":"39.2382796","Name":"Ganda Street"},{"Latitude":"-6.8296801","Longitude":"39.2547213","Name":"Garage"},{"Latitude":"-6.7938190","Longitude":"39.2563059","Name":"Garage Mchangani Road"},{"Latitude":"-6.8050451","Longitude":"39.2153048","Name":"Garage Street"},{"Latitude":"-6.8129054","Longitude":"39.2915884","Name":"Garden Avenue"},{"Latitude":"-6.7726175","Longitude":"39.2693851","Name":"Garden Road"},{"Latitude":"-6.7891962","Longitude":"39.2490965","Name":"Garden Street"},{"Latitude":"-6.7666597","Longitude":"39.2361481","Name":"Gardian Street"},{"Latitude":"-4.6512354","Longitude":"34.6636684","Name":"Gateway"},{"Latitude":"-3.3684601","Longitude":"37.3192210","Name":"Gati Street"},{"Latitude":"-6.7898331","Longitude":"39.2223351","Name":"Gatundu Street"},{"Latitude":"-3.4580271","Longitude":"31.9024793","Name":"Geita Road"},{"Latitude":"-6.8025395","Longitude":"39.2463727","Name":"Geita Street"},{"Latitude":"-6.7735740","Longitude":"39.2289240","Name":"Geji Street"},{"Latitude":"-6.7799807","Longitude":"39.2580785","Name":"Gemeapande Road"},{"Latitude":"-6.8266058","Longitude":"39.2815192","Name":"Gerezani Street"},{"Latitude":"-3.3500249","Longitude":"37.3457364","Name":"Ghala Road"},{"Latitude":"-2.4973442","Longitude":"32.9045054","Name":"Ghana"},{"Latitude":"-6.8315004","Longitude":"39.2416139","Name":"Ghana Road"},{"Latitude":"-6.7763410","Longitude":"39.2450815","Name":"Ghana Street"},{"Latitude":"-6.8103003","Longitude":"39.2910785","Name":"Ghana street"},{"Latitude":"-6.7680327","Longitude":"39.2780557","Name":"Ghuba Road"},{"Latitude":"-6.8256929","Longitude":"39.2270013","Name":"Giblea Street"},{"Latitude":"-6.7190849","Longitude":"39.2248625","Name":"Glorious Lane"},{"Latitude":"-6.7273868","Longitude":"39.2103579","Name":"Goba Road"},{"Latitude":"-6.7666447","Longitude":"39.1220704","Name":"Goba road"},{"Latitude":"-6.7917047","Longitude":"39.2434438","Name":"Godoro Street"},{"Latitude":"-6.7852685","Longitude":"39.2566089","Name":"Goeke (1) street"},{"Latitude":"-6.7838717","Longitude":"39.2567375","Name":"Goeke Street"},{"Latitude":"-6.6768549","Longitude":"39.2035103","Name":"Goele Street"},{"Latitude":"-6.8202824","Longitude":"39.2760342","Name":"Gogo Street"},{"Latitude":"-6.8264110","Longitude":"39.2111054","Name":"Gogud Street"},{"Latitude":"-6.7229244","Longitude":"39.2086730","Name":"Goig Street"},{"Latitude":"-6.7853218","Longitude":"39.2561094","Name":"Goima Street"},{"Latitude":"-6.7947197","Longitude":"39.1464229","Name":"Golani Road"},{"Latitude":"-3.8290283","Longitude":"32.6043930","Name":"Golden Rock Lodge Road"},{"Latitude":"-6.7856008","Longitude":"39.2205191","Name":"Goldenpark Street"},{"Latitude":"-3.3713541","Longitude":"36.6935445","Name":"Goliondoi Road"},{"Latitude":"-6.6992694","Longitude":"39.2093354","Name":"Gombe Crescent"},{"Latitude":"-6.8766381","Longitude":"39.4386099","Name":"Gombe St."},{"Latitude":"-6.7966875","Longitude":"39.2359456","Name":"Gome Street"},{"Latitude":"-6.8218264","Longitude":"39.2645854","Name":"Gonga Road"},{"Latitude":"-6.7629868","Longitude":"39.2681221","Name":"Gongoni"},{"Latitude":"-6.8037526","Longitude":"39.2460801","Name":"Gonja Street Road"},{"Latitude":"-6.8239144","Longitude":"39.2061282","Name":"Goodhope street"},{"Latitude":"-4.2130535","Longitude":"35.7505919","Name":"Gorowa Road"},{"Latitude":"-5.0683102","Longitude":"39.0984109","Name":"Government Street"},{"Latitude":"-6.8493561","Longitude":"39.2256774","Name":"Gozo street"},{"Latitude":"-6.7758867","Longitude":"39.2377937","Name":"Grand Villa Road"},{"Latitude":"-6.7203274","Longitude":"39.2093609","Name":"Grita Villa Street"},{"Latitude":"-6.8236724","Longitude":"39.2271924","Name":"Grory Tempo Street"},{"Latitude":"-6.7730544","Longitude":"39.2747993","Name":"Guinea Road"},{"Latitude":"-6.7940114","Longitude":"39.2684001","Name":"Gujo"},{"Latitude":"-6.7855823","Longitude":"39.2583970","Name":"Gulue Street"},{"Latitude":"-6.7900037","Longitude":"39.2267727","Name":"Gungu Street"},{"Latitude":"-6.8212883","Longitude":"39.2406327","Name":"Guruwe Road"},{"Latitude":"-6.1579279","Longitude":"35.7247480","Name":"HIJRA ROAD"},{"Latitude":"-4.3776263","Longitude":"35.6283734","Name":"HORBI"},{"Latitude":"-6.8259977","Longitude":"39.2283420","Name":"Hai Road"},{"Latitude":"-6.7811140","Longitude":"39.2751870","Name":"Haile Selassie Road"},{"Latitude":"-3.3719816","Longitude":"36.7021753","Name":"Haille Sellassie"},{"Latitude":"-6.7979806","Longitude":"39.2365637","Name":"Hakunaga Street"},{"Latitude":"-6.8660954","Longitude":"39.2578639","Name":"Hale Street"},{"Latitude":"-8.9257970","Longitude":"33.4338333","Name":"Halengo Road"},{"Latitude":"-5.4646818","Longitude":"37.7610424","Name":"Handeni-Kilindi Road"},{"Latitude":"-6.1437390","Longitude":"37.5965828","Name":"Handeni-Turian Road"},{"Latitude":"-6.7642714","Longitude":"39.2663900","Name":"Hassan Hydar Street"},{"Latitude":"-1.3319514","Longitude":"33.8750466","Name":"Hatari Road"},{"Latitude":"-6.1803868","Longitude":"35.7475294","Name":"Hatibu Avenue"},{"Latitude":"-6.1853853","Longitude":"35.7584882","Name":"Hazina Road"},{"Latitude":"-6.7762459","Longitude":"39.2228974","Name":"Hekima Street"},{"Latitude":"-6.7785432","Longitude":"39.2484936","Name":"Heko Street"},{"Latitude":"-3.2373200","Longitude":"35.6257900","Name":"Henry Fosbrooke Road"},{"Latitude":"-3.4666151","Longitude":"36.7936880","Name":"Herbert Road"},{"Latitude":"-6.8024258","Longitude":"39.1415536","Name":"Herman Ndambalilo Road"},{"Latitude":"-3.3254555","Longitude":"35.6655650","Name":"Highview Hotel Road"},{"Latitude":"-3.3535867","Longitude":"37.3415928","Name":"Hill Street"},{"Latitude":"-5.0237703","Longitude":"32.8243453","Name":"Hill road"},{"Latitude":"-3.3304768","Longitude":"37.5723499","Name":"Himo Road, Njia Panda, Holili"},{"Latitude":"-3.3743509","Longitude":"36.6838370","Name":"Hindu Street"},{"Latitude":"-6.7815051","Longitude":"39.2664337","Name":"Holili Street"},{"Latitude":"-3.3639995","Longitude":"36.7064878","Name":"Hollywood Street"},{"Latitude":"-6.7931471","Longitude":"39.2659303","Name":"Honolulu"},{"Latitude":"-8.9117803","Longitude":"33.4724861","Name":"Hope Villa Street"},{"Latitude":"-6.1777594","Longitude":"35.7530815","Name":"Hospital Road"},{"Latitude":"-6.7720931","Longitude":"39.2271752","Name":"Hostel Street"},{"Latitude":"-6.2180256","Longitude":"35.8126518","Name":"Hostels Junction"},{"Latitude":"-3.4383293","Longitude":"37.1894509","Name":"Hot Springs Road"},{"Latitude":"-3.3701601","Longitude":"37.3248452","Name":"Hotelini Street"},{"Latitude":"-6.8470837","Longitude":"39.2277902","Name":"Huba ya Wagemi Street"},{"Latitude":"-6.7722383","Longitude":"39.2544208","Name":"Hubert Kairuki Street"},{"Latitude":"-6.7506992","Longitude":"39.2421140","Name":"Huruma Road"},{"Latitude":"-3.3360515","Longitude":"37.3199759","Name":"Hussein Mongi Street"},{"Latitude":"-3.4537933","Longitude":"31.8944542","Name":"Hwima English Medium Primary School Road"},{"Latitude":"-9.1134212","Longitude":"32.9445150","Name":"ILOLO ROAD"},{"Latitude":"-4.3311544","Longitude":"34.8359958","Name":"Iambi Main Road"},{"Latitude":"-6.7767483","Longitude":"39.2414320","Name":"Ibanda Street"},{"Latitude":"-3.3273401","Longitude":"37.3248950","Name":"Ibra Line Road"},{"Latitude":"-6.8087581","Longitude":"39.2601738","Name":"Idrisa Road"},{"Latitude":"-6.8050336","Longitude":"39.2613847","Name":"Idrisa Street"},{"Latitude":"-6.8070561","Longitude":"39.2599039","Name":"Idrisa road"},{"Latitude":"-9.2689748","Longitude":"34.5721549","Name":"Idunda Road"},{"Latitude":"-6.8015817","Longitude":"39.2525774","Name":"Ifakara Street"},{"Latitude":"-6.8114779","Longitude":"39.2533369","Name":"Ifunda Street"},{"Latitude":"-6.8076358","Longitude":"39.2530738","Name":"Ifunda road"},{"Latitude":"-6.7873788","Longitude":"39.2556572","Name":"Igawa Street"},{"Latitude":"-6.7801059","Longitude":"39.2207577","Name":"Igesa Road"},{"Latitude":"-6.8486556","Longitude":"39.2697492","Name":"Igombe Road"},{"Latitude":"-6.7546531","Longitude":"39.2416014","Name":"Igombe Street"},{"Latitude":"-9.2754694","Longitude":"34.5368543","Name":"Igosi - Ivigo Road"},{"Latitude":"-6.7869669","Longitude":"39.2573288","Name":"Igumila Street"},{"Latitude":"-6.7908096","Longitude":"39.2592106","Name":"Igusule"},{"Latitude":"-6.7905573","Longitude":"39.2584482","Name":"Igusule road"},{"Latitude":"-6.7862800","Longitude":"39.2555955","Name":"Ihanda street"},{"Latitude":"-8.9086373","Longitude":"33.4730859","Name":"Ihanga Secondary Street"},{"Latitude":"-6.7867838","Longitude":"39.2567058","Name":"Iheme Street"},{"Latitude":"-6.7088612","Longitude":"39.2118230","Name":"Ijjrose Street"},{"Latitude":"-6.7878265","Longitude":"39.2566622","Name":"Ikamba Street"},{"Latitude":"-6.7586440","Longitude":"39.2406462","Name":"Ikinga"},{"Latitude":"-3.8290399","Longitude":"32.5996486","Name":"Ikombe Road"},{"Latitude":"-8.9166931","Longitude":"33.5011240","Name":"Ikula Street"},{"Latitude":"-8.9295421","Longitude":"33.4162550","Name":"Ikuti Road"},{"Latitude":"-6.9073301","Longitude":"31.2171739","Name":"Ikuu Bridge"},{"Latitude":"-6.7893175","Longitude":"39.2548897","Name":"Ikuu Street"},{"Latitude":"-2.1078467","Longitude":"33.4856118","Name":"Ilamba Road"},{"Latitude":"-3.3327343","Longitude":"36.6828540","Name":"Ilboru Road"},{"Latitude":"-8.9041520","Longitude":"33.4544635","Name":"Ilolo Kati"},{"Latitude":"-6.7897527","Longitude":"39.2560610","Name":"Ilongele Road"},{"Latitude":"-6.7889007","Longitude":"39.2560644","Name":"Ilunde Road"},{"Latitude":"-6.7779001","Longitude":"39.2254183","Name":"Iman Close Street"},{"Latitude":"-6.7782105","Longitude":"39.2249661","Name":"Iman road"},{"Latitude":"-3.3773962","Longitude":"36.7030745","Name":"Impala Roundabout"},{"Latitude":"-6.7148115","Longitude":"39.2129596","Name":"Impala strret"},{"Latitude":"-5.0703699","Longitude":"39.1014780","Name":"Independance Avenue"},{"Latitude":"-8.8907042","Longitude":"33.4362459","Name":"Independece Avenue"},{"Latitude":"-6.8166323","Longitude":"39.2863852","Name":"India Street"},{"Latitude":"-3.3711712","Longitude":"36.6944934","Name":"Indian Street"},{"Latitude":"-6.8195073","Longitude":"39.2836403","Name":"Indira Ghandi"},{"Latitude":"-6.2185478","Longitude":"35.8093678","Name":"Into Cive Corner Road"},{"Latitude":"-6.2180932","Longitude":"35.8099145","Name":"Into cive Junction"},{"Latitude":"-6.1999120","Longitude":"39.3047753","Name":"Ipa Road"},{"Latitude":"-9.5116944","Longitude":"33.8818667","Name":"Ipinda-Matema Road"},{"Latitude":"-6.7906021","Longitude":"39.2591175","Name":"Ipogole"},{"Latitude":"-6.7909930","Longitude":"39.2571931","Name":"Ipogole Road"},{"Latitude":"-6.8025132","Longitude":"39.2468655","Name":"Iramba Street"},{"Latitude":"-6.7182754","Longitude":"39.2149646","Name":"Iraqw Street"},{"Latitude":"-6.7685251","Longitude":"39.2331641","Name":"Iringa Street"},{"Latitude":"-3.8358692","Longitude":"32.6153130","Name":"Isaka Road"},{"Latitude":"-6.7915060","Longitude":"39.2262281","Name":"Isaka Street"},{"Latitude":"-2.5090451","Longitude":"32.9102512","Name":"Isamilo"},{"Latitude":"-2.5102297","Longitude":"32.9093530","Name":"Isamilo Street"},{"Latitude":"-2.5958225","Longitude":"33.4232906","Name":"Isandula School Way"},{"Latitude":"-8.9075112","Longitude":"33.4656926","Name":"Isanga Milk Daily Road"},{"Latitude":"-8.8977810","Longitude":"33.4524035","Name":"Isanga Road"},{"Latitude":"-6.7275278","Longitude":"39.2086802","Name":"Isawerwa Street"},{"Latitude":"-6.7830401","Longitude":"39.2619301","Name":"Isere Street"},{"Latitude":"-6.8017888","Longitude":"39.2802418","Name":"Isimani Street"},{"Latitude":"-6.7831780","Longitude":"39.2624933","Name":"Isisi Street"},{"Latitude":"-6.6371268","Longitude":"39.1838685","Name":"Islamic Street"},{"Latitude":"-3.3448981","Longitude":"37.3268315","Name":"Ismaila Road"},{"Latitude":"-3.3439654","Longitude":"37.3296739","Name":"Ismalia Road"},{"Latitude":"-8.9271299","Longitude":"33.4015526","Name":"Isoko Road"},{"Latitude":"-6.7839246","Longitude":"39.2629226","Name":"Itaga Street"},{"Latitude":"-6.7336677","Longitude":"39.1637720","Name":"Italiano Street"},{"Latitude":"-6.7923240","Longitude":"39.2537064","Name":"Italu Road"},{"Latitude":"-9.2605738","Longitude":"34.5501300","Name":"Ivigo - Idunda Road"},{"Latitude":"-9.2552596","Longitude":"34.5426592","Name":"Ivigo Primary School Road"},{"Latitude":"-3.1887074","Longitude":"37.2040555","Name":"Iwala Road"},{"Latitude":"-8.9281967","Longitude":"33.3870633","Name":"JB road"},{"Latitude":"-8.9091659","Longitude":"33.4570163","Name":"JJ Grocery Street"},{"Latitude":"-4.8899670","Longitude":"29.6643183","Name":"JUST IN TIME STREET"},{"Latitude":"-3.3741579","Longitude":"36.6886176","Name":"Jakaranda Street"},{"Latitude":"-6.6304834","Longitude":"39.1813996","Name":"Jakaya"},{"Latitude":"-6.1862705","Longitude":"35.7544221","Name":"Jakaya Kikwete Road"},{"Latitude":"-5.0778671","Longitude":"39.1101378","Name":"Jamatini Road"},{"Latitude":"-6.1745257","Longitude":"35.7530883","Name":"Jamhuri Road"},{"Latitude":"-6.8170503","Longitude":"39.2835555","Name":"Jamhuri Street"},{"Latitude":"-3.3817616","Longitude":"36.6982220","Name":"Jandu Road"},{"Latitude":"-6.8282564","Longitude":"39.2126459","Name":"Jangala Street"},{"Latitude":"-6.8199676","Longitude":"39.2724807","Name":"Jangwani"},{"Latitude":"-6.6932422","Longitude":"39.2111499","Name":"Jangwani Road"},{"Latitude":"-6.8320500","Longitude":"39.2204067","Name":"Janibu street"},{"Latitude":"-6.8096182","Longitude":"39.2610254","Name":"Jaribu Road"},{"Latitude":"-6.8087162","Longitude":"39.2575295","Name":"Jaribu Street"},{"Latitude":"-6.7100937","Longitude":"39.2290501","Name":"Javan"},{"Latitude":"-6.8004910","Longitude":"39.2571210","Name":"Jelifish Street"},{"Latitude":"-6.7821845","Longitude":"39.2232789","Name":"Jemedali Street"},{"Latitude":"-6.7395514","Longitude":"39.2253264","Name":"Jeshini"},{"Latitude":"-6.8138457","Longitude":"39.2257850","Name":"Jeshini Hospital"},{"Latitude":"-6.8139808","Longitude":"39.2275156","Name":"Jeshini Kanisani Road"},{"Latitude":"-6.8138942","Longitude":"39.2263747","Name":"Jeshini Msikitini"},{"Latitude":"-6.9035796","Longitude":"39.2786434","Name":"Jeshini Road"},{"Latitude":"-6.9014267","Longitude":"39.2785250","Name":"Jeshini Street"},{"Latitude":"-6.8707473","Longitude":"39.2232136","Name":"Jet Road"},{"Latitude":"-6.8279434","Longitude":"39.2066822","Name":"Jiandae Street"},{"Latitude":"-6.8266986","Longitude":"39.2072100","Name":"Jirani"},{"Latitude":"-6.8090384","Longitude":"39.2257556","Name":"Jitegemee"},{"Latitude":"-6.8082866","Longitude":"39.2244455","Name":"Jitegemee Road"},{"Latitude":"-6.8069901","Longitude":"39.2269851","Name":"Jitegemee Street"},{"Latitude":"-6.6709966","Longitude":"39.1985337","Name":"Jiwe Gumu Street"},{"Latitude":"-3.3719396","Longitude":"36.6936630","Name":"Joel Maeda"},{"Latitude":"-6.7070001","Longitude":"39.2128395","Name":"Jogoo Street"},{"Latitude":"-4.6551603","Longitude":"34.6882553","Name":"Johannes Road"},{"Latitude":"-6.7369640","Longitude":"39.1959411","Name":"John Bula Street"},{"Latitude":"-6.8269484","Longitude":"37.6640800","Name":"John Mahenge Road"},{"Latitude":"-6.7204196","Longitude":"39.2025098","Name":"John Mushi Street"},{"Latitude":"-6.7797282","Longitude":"39.2394695","Name":"Jovine Street"},{"Latitude":"-8.9099367","Longitude":"33.4611574","Name":"Juakali Road"},{"Latitude":"-6.8008320","Longitude":"39.2663954","Name":"Juhudi Road"},{"Latitude":"-6.7929759","Longitude":"39.2560159","Name":"Juhudi road"},{"Latitude":"-6.7719583","Longitude":"39.2285809","Name":"Juhumustreet"},{"Latitude":"-10.9553526","Longitude":"39.2913602","Name":"Julia Road"},{"Latitude":"-6.7060771","Longitude":"39.2160362","Name":"Juliana"},{"Latitude":"-6.7034561","Longitude":"39.2162374","Name":"Juliana Street"},{"Latitude":"-6.8320299","Longitude":"39.2224284","Name":"Juma Cargo Street"},{"Latitude":"-6.7782909","Longitude":"39.2228553","Name":"Juma Ikangaa Street"},{"Latitude":"-6.8369575","Longitude":"39.2167950","Name":"Juma Mpenda Street"},{"Latitude":"-6.8017234","Longitude":"39.2148936","Name":"Junction Road"},{"Latitude":"-6.2161007","Longitude":"35.8114481","Name":"JunctionRoad"},{"Latitude":"-6.7063553","Longitude":"39.2094628","Name":"Jupiter Street"},{"Latitude":"-3.3313574","Longitude":"37.3247561","Name":"Justin Nyaki Way"},{"Latitude":"-4.8878860","Longitude":"29.6561900","Name":"KATUBUKA MANGURUWENI"},{"Latitude":"-7.8169563","Longitude":"35.6639814","Name":"KKK"},{"Latitude":"-6.8212442","Longitude":"39.2132662","Name":"KLM Street"},{"Latitude":"-6.8382675","Longitude":"39.2216772","Name":"Kaburi Moja Street"},{"Latitude":"-8.9098126","Longitude":"33.4626240","Name":"Kabwe Dust"},{"Latitude":"-8.9075704","Longitude":"33.4641510","Name":"Kabwe_Isanga Road"},{"Latitude":"-6.8285259","Longitude":"39.2119250","Name":"Kachelewa Street"},{"Latitude":"-6.8154504","Longitude":"39.2491487","Name":"Kachenje Street"},{"Latitude":"-6.7779483","Longitude":"39.2427089","Name":"Kachube Road"},{"Latitude":"-3.4527785","Longitude":"31.8984349","Name":"Kadi's Primary School Road"},{"Latitude":"-3.4546677","Longitude":"31.8985826","Name":"Kadis Road"},{"Latitude":"-6.1945306","Longitude":"35.7477536","Name":"Kaeka Road"},{"Latitude":"-6.6972499","Longitude":"39.2181403","Name":"Kafanabo Street"},{"Latitude":"-5.0392405","Longitude":"29.7884038","Name":"Kagame Road"},{"Latitude":"-6.8010020","Longitude":"39.2465926","Name":"Kagera Road"},{"Latitude":"-6.8073896","Longitude":"39.2499240","Name":"Kagera Street"},{"Latitude":"-4.8464431","Longitude":"29.6543229","Name":"Kahabwa Street"},{"Latitude":"-6.7528041","Longitude":"39.2822475","Name":"Kahama Road"},{"Latitude":"-3.5221243","Longitude":"37.3466788","Name":"Kahe Road"},{"Latitude":"-6.7806759","Longitude":"39.2406875","Name":"Kajenge Road"},{"Latitude":"-6.1726811","Longitude":"35.7515266","Name":"Kajimbwa Street"},{"Latitude":"-6.8996585","Longitude":"39.1209633","Name":"Kajungu Road"},{"Latitude":"-6.7856739","Longitude":"39.2295667","Name":"Kakakuona road"},{"Latitude":"-6.7801285","Longitude":"39.2391577","Name":"Kakobe Street"},{"Latitude":"-3.5711219","Longitude":"32.4433243","Name":"Kakola Road"},{"Latitude":"-8.9376025","Longitude":"31.7486988","Name":"Kakungu Road"},{"Latitude":"-3.2196015","Longitude":"37.2186696","Name":"Kalali Road"},{"Latitude":"-8.5995382","Longitude":"31.2406480","Name":"Kalambo Trail"},{"Latitude":"-1.4728080","Longitude":"31.6749261","Name":"Kalebe"},{"Latitude":"-6.8094495","Longitude":"39.2535110","Name":"Kalema Street"},{"Latitude":"-6.7250091","Longitude":"39.2191474","Name":"Kalembo Street"},{"Latitude":"-6.8068708","Longitude":"39.2749681","Name":"Kalenga Road"},{"Latitude":"-6.8005847","Longitude":"39.2780404","Name":"Kalenga Street"},{"Latitude":"-6.8019067","Longitude":"39.2512160","Name":"Kalisa Street"},{"Latitude":"-6.8027702","Longitude":"39.2477252","Name":"Kaliua"},{"Latitude":"-1.6328039","Longitude":"31.6010912","Name":"Kamachumu-Nshamba Road"},{"Latitude":"-1.6602225","Longitude":"31.6084726","Name":"Kamachumu-Rubya Road"},{"Latitude":"-6.7676014","Longitude":"39.1890931","Name":"Kamba Road"},{"Latitude":"-6.7898807","Longitude":"39.2548987","Name":"Kambangwa"},{"Latitude":"-6.8298932","Longitude":"39.2183273","Name":"Kambangwa Street"},{"Latitude":"-8.9086024","Longitude":"33.4513279","Name":"Kambarage Street"},{"Latitude":"-6.8200030","Longitude":"39.2228868","Name":"Kamoti"},{"Latitude":"-1.6841853","Longitude":"31.6157864","Name":"Kamwana Bridge"},{"Latitude":"-6.7919971","Longitude":"39.1944510","Name":"Kamwole Street"},{"Latitude":"-6.7808726","Longitude":"39.2613743","Name":"Kananga Road"},{"Latitude":"-1.3439848","Longitude":"31.8011038","Name":"Kanazi Road"},{"Latitude":"-6.7852287","Longitude":"39.2627939","Name":"Kanazi Street"},{"Latitude":"-3.3740554","Longitude":"37.3212534","Name":"Kando Street"},{"Latitude":"-6.7752020","Longitude":"39.2395111","Name":"Kanembo"},{"Latitude":"-6.7193876","Longitude":"39.2235132","Name":"Kanga Street"},{"Latitude":"-3.3681286","Longitude":"36.6997583","Name":"Kanisa Road"},{"Latitude":"-3.3346457","Longitude":"37.3203796","Name":"Kanisa Street"},{"Latitude":"-6.8272660","Longitude":"39.2374569","Name":"Kanisa la Mitume Street"},{"Latitude":"-8.9067394","Longitude":"33.4662221","Name":"Kanisa la Roma Street"},{"Latitude":"-8.9069920","Longitude":"33.4667835","Name":"Kanisa la Wasabato Street"},{"Latitude":"-6.7361950","Longitude":"39.2273807","Name":"Kanisan Street"},{"Latitude":"-6.7133268","Longitude":"39.2234510","Name":"Kanisani"},{"Latitude":"-6.8726930","Longitude":"39.1413950","Name":"Kanisani KKT Road"},{"Latitude":"-6.8796729","Longitude":"39.2292955","Name":"Kanisani Road"},{"Latitude":"-6.8280455","Longitude":"39.2191019","Name":"Kanisani Street"},{"Latitude":"-6.8207183","Longitude":"39.1793534","Name":"Kanisani street"},{"Latitude":"-6.7988609","Longitude":"39.2576105","Name":"Kanjape Street"},{"Latitude":"-6.7755772","Longitude":"39.2353865","Name":"Kantini Street"},{"Latitude":"-6.7908238","Longitude":"39.2277980","Name":"Kanyigo Street"},{"Latitude":"-3.3693386","Longitude":"36.6880224","Name":"Kaoleni Road"},{"Latitude":"-6.8062601","Longitude":"39.2486115","Name":"Kapera Road"},{"Latitude":"-6.8066522","Longitude":"39.2480911","Name":"Kapera Street"},{"Latitude":"-6.6965988","Longitude":"39.2169392","Name":"Kapinga Street"},{"Latitude":"-6.7902590","Longitude":"39.2592278","Name":"Karafuu Road"},{"Latitude":"-6.7885377","Longitude":"39.2642423","Name":"Karago Road"},{"Latitude":"-6.7885737","Longitude":"39.2626070","Name":"Karago Street"},{"Latitude":"-6.7945468","Longitude":"39.2439468","Name":"Karama Street"},{"Latitude":"-6.7764194","Longitude":"39.2368347","Name":"Karantini Street"},{"Latitude":"-6.8366017","Longitude":"39.2722489","Name":"Kariakoo Ndogo Street"},{"Latitude":"-6.8185762","Longitude":"39.2710055","Name":"Kariakoo Street"},{"Latitude":"-6.8537665","Longitude":"39.2631588","Name":"Karibuni Street"},{"Latitude":"-8.8923908","Longitude":"33.4450278","Name":"Karume Avenue"},{"Latitude":"-6.1647383","Longitude":"39.1956916","Name":"Karume Road"},{"Latitude":"-6.8316942","Longitude":"37.6628508","Name":"Karume Street"},{"Latitude":"-2.5225146","Longitude":"32.9008716","Name":"Karuta Street"},{"Latitude":"-6.7941137","Longitude":"39.2601971","Name":"Kasaba"},{"Latitude":"-6.7914639","Longitude":"39.2605130","Name":"Kasaba Road"},{"Latitude":"-6.7906818","Longitude":"39.2619306","Name":"Kasana Street"},{"Latitude":"-6.8023640","Longitude":"39.2516893","Name":"Kasanga Street"},{"Latitude":"-6.7260295","Longitude":"39.2197940","Name":"Kasembo Street"},{"Latitude":"-6.7023255","Longitude":"39.2126440","Name":"Kasenga"},{"Latitude":"-4.8317382","Longitude":"39.1144034","Name":"Kasera Road"},{"Latitude":"-8.7309459","Longitude":"31.4324453","Name":"Kasesha Road"},{"Latitude":"-1.0207516","Longitude":"31.8339596","Name":"Kashozi Road"},{"Latitude":"-6.7695431","Longitude":"39.2322447","Name":"Kasimpya Street"},{"Latitude":"-6.8331363","Longitude":"39.2542263","Name":"Kasongo Street"},{"Latitude":"-6.8779357","Longitude":"39.4394265","Name":"Katavi St."},{"Latitude":"-6.7914926","Longitude":"39.2614093","Name":"Kate Road"},{"Latitude":"-3.4549958","Longitude":"31.8858899","Name":"Katente Secondary Road"},{"Latitude":"-6.7773872","Longitude":"39.2312131","Name":"Katikati Street"},{"Latitude":"-1.8751247","Longitude":"31.4954692","Name":"Katobago Road"},{"Latitude":"-3.4268567","Longitude":"31.9137499","Name":"Katome Road"},{"Latitude":"-6.7967201","Longitude":"39.2668494","Name":"Katumba Road"},{"Latitude":"-6.7848549","Longitude":"39.2808275","Name":"Kaunda Drive"},{"Latitude":"-6.1671890","Longitude":"39.1898578","Name":"Kaunda Road"},{"Latitude":"-3.3493629","Longitude":"37.3448701","Name":"Kaunda Street"},{"Latitude":"-8.8891612","Longitude":"33.4422492","Name":"Kaunde Avenue"},{"Latitude":"-8.8900986","Longitude":"33.4459706","Name":"Kaunde Avenue Hospital Hill Road"},{"Latitude":"-6.8172466","Longitude":"39.2549146","Name":"Kawawa Road"},{"Latitude":"-3.3552777","Longitude":"37.3371419","Name":"Kawawa Street"},{"Latitude":"-6.7346862","Longitude":"39.2250687","Name":"Kawe B shule"},{"Latitude":"-6.7258755","Longitude":"39.2329755","Name":"Kawe Beach Close Street"},{"Latitude":"-6.7415912","Longitude":"39.2368123","Name":"Kawe Road"},{"Latitude":"-8.9286867","Longitude":"31.7303165","Name":"Kawimbe Road"},{"Latitude":"-6.7296855","Longitude":"39.2041017","Name":"Kayuni Road"},{"Latitude":"-6.1890629","Longitude":"35.7485757","Name":"Kazembo Road"},{"Latitude":"-6.7857830","Longitude":"39.2643568","Name":"Kazima Road"},{"Latitude":"-6.7171770","Longitude":"39.2305966","Name":"Kazita Road"},{"Latitude":"-6.1877845","Longitude":"35.7487743","Name":"Keeka Road"},{"Latitude":"-6.7171538","Longitude":"39.2142230","Name":"Keissy Street"},{"Latitude":"-2.5170225","Longitude":"32.8992040","Name":"Kemondo"},{"Latitude":"-3.3607274","Longitude":"37.3217847","Name":"Kenneth Kaunda Street"},{"Latitude":"-6.7715662","Longitude":"39.2328770","Name":"Kenton Street"},{"Latitude":"-1.3899987","Longitude":"31.6749909","Name":"Kenyabassy Ferry"},{"Latitude":"-6.7885738","Longitude":"39.2821840","Name":"Kenyatta Drive"},{"Latitude":"-3.3731725","Longitude":"36.6991740","Name":"Kenyatta Road"},{"Latitude":"-3.3537106","Longitude":"37.3364196","Name":"Kenyatta Street"},{"Latitude":"-3.3052005","Longitude":"37.3798544","Name":"Keys Road"},{"Latitude":"-1.7494911","Longitude":"33.8647935","Name":"Kiabakari"},{"Latitude":"-6.8788525","Longitude":"39.3422368","Name":"Kibada Road"},{"Latitude":"-6.9163567","Longitude":"39.3202695","Name":"Kibada St."},{"Latitude":"-6.8016874","Longitude":"39.2521235","Name":"Kibada Street"},{"Latitude":"-6.8025039","Longitude":"39.2506628","Name":"Kibaya"},{"Latitude":"-6.8015359","Longitude":"39.2500418","Name":"Kibaya Street"},{"Latitude":"-8.9029251","Longitude":"33.5008877","Name":"Kibe Road"},{"Latitude":"-6.9141528","Longitude":"39.2012390","Name":"Kibeberu Road"},{"Latitude":"-6.6407714","Longitude":"39.1629016","Name":"Kibela Street"},{"Latitude":"-6.8249530","Longitude":"39.2269961","Name":"Kiberenge Street"},{"Latitude":"-6.8193157","Longitude":"39.2454524","Name":"Kibia Road"},{"Latitude":"-6.8005773","Longitude":"39.2464813","Name":"Kibiti"},{"Latitude":"-3.3458733","Longitude":"37.3441527","Name":"Kibo Road"},{"Latitude":"-6.8280284","Longitude":"39.2137059","Name":"Kibo Street"},{"Latitude":"-6.7925685","Longitude":"39.2414184","Name":"Kiboko Bar Street"},{"Latitude":"-6.9106831","Longitude":"39.2776796","Name":"Kibonde Maji B"},{"Latitude":"-6.9049803","Longitude":"39.2737012","Name":"Kibondemaji Road"},{"Latitude":"-6.8108042","Longitude":"39.2536267","Name":"Kibondo Street"},{"Latitude":"-3.3458239","Longitude":"37.3261066","Name":"Kibongoo Road"},{"Latitude":"-3.2704167","Longitude":"37.3063474","Name":"Kibosho Road"},{"Latitude":"-6.8050662","Longitude":"39.2266348","Name":"Kibrateni Street"},{"Latitude":"-6.9148650","Longitude":"39.2701327","Name":"Kiburugwa Road"},{"Latitude":"-6.7604801","Longitude":"39.2687992","Name":"Kibuyuni Bay Road"},{"Latitude":"-6.7970084","Longitude":"39.2525360","Name":"Kidela Street"},{"Latitude":"-6.8610436","Longitude":"37.6546444","Name":"Kididimo Road"},{"Latitude":"-6.8516631","Longitude":"39.2303529","Name":"Kiembe Mbuzi Road"},{"Latitude":"-6.8010362","Longitude":"39.2435074","Name":"Kiembeni Street"},{"Latitude":"-6.7602370","Longitude":"39.2431290","Name":"Kifaru"},{"Latitude":"-6.7750194","Longitude":"39.2287666","Name":"Kifaru Street"},{"Latitude":"-2.4977291","Longitude":"32.9702209","Name":"Kigala Road"},{"Latitude":"-6.8180070","Longitude":"39.2544544","Name":"Kigango Street"},{"Latitude":"-7.2350148","Longitude":"38.0037531","Name":"Kiganila Primary School Road"},{"Latitude":"-6.8180957","Longitude":"39.2469187","Name":"Kigogo"},{"Latitude":"-6.8253073","Longitude":"39.2345970","Name":"Kigogo Road"},{"Latitude":"-6.7190981","Longitude":"39.2283383","Name":"Kigoma Road"},{"Latitude":"-6.8278830","Longitude":"39.2606865","Name":"Kigoma Street"},{"Latitude":"-3.3821310","Longitude":"36.7717344","Name":"Kigongoni Road"},{"Latitude":"-7.2307625","Longitude":"37.9116979","Name":"Kigude Road"},{"Latitude":"-6.7911017","Longitude":"39.2253405","Name":"Kigugu Street"},{"Latitude":"-6.8674472","Longitude":"39.2536820","Name":"Kigwe Road"},{"Latitude":"-6.8684755","Longitude":"39.2536792","Name":"Kigwe Street"},{"Latitude":"-6.7725103","Longitude":"39.2351675","Name":"Kihonda Street"},{"Latitude":"-3.3747748","Longitude":"36.7078544","Name":"Kijenge Juu Street"},{"Latitude":"-6.9140042","Longitude":"39.2827820","Name":"Kijichi Road"},{"Latitude":"-6.7840395","Longitude":"39.2670415","Name":"Kijijini Road"},{"Latitude":"-6.8077930","Longitude":"39.2629259","Name":"Kijiweni Road"},{"Latitude":"-6.8570200","Longitude":"39.2576988","Name":"Kikale Street"},{"Latitude":"-3.4459164","Longitude":"37.3068356","Name":"Kikavu/Newlands Road"},{"Latitude":"-6.7646157","Longitude":"39.2551576","Name":"Kiko"},{"Latitude":"-6.7913428","Longitude":"39.2257751","Name":"Kikundi Street"},{"Latitude":"-6.1853218","Longitude":"35.7476861","Name":"Kikuyu Road"},{"Latitude":"-6.1666234","Longitude":"39.1973416","Name":"Kikwajuni Juu Street"},{"Latitude":"-6.1658038","Longitude":"39.1953695","Name":"Kikwajuni kwa Bi Thania Street"},{"Latitude":"-6.8013232","Longitude":"39.2485682","Name":"Kikwetu Street"},{"Latitude":"-6.7874556","Longitude":"39.2234974","Name":"Kilakukicha Street"},{"Latitude":"-6.7811745","Longitude":"39.2503722","Name":"Kilendemo Street"},{"Latitude":"-6.8223706","Longitude":"39.2414883","Name":"Kilihindi Road"},{"Latitude":"-5.7983159","Longitude":"37.9275534","Name":"Kilima Mzinga-Gole Road"},{"Latitude":"-6.8245856","Longitude":"39.2629055","Name":"Kilima Tinde Street"},{"Latitude":"-6.7360882","Longitude":"39.2207975","Name":"Kilimahewa"},{"Latitude":"-6.8689536","Longitude":"39.2520935","Name":"Kilimahewa Road"},{"Latitude":"-6.7748604","Longitude":"39.2060877","Name":"Kilimahewa Street"},{"Latitude":"-6.7274693","Longitude":"39.2034982","Name":"Kilimani Primary Street"},{"Latitude":"-6.7881790","Longitude":"39.2756113","Name":"Kilimani Road"},{"Latitude":"-6.7974883","Longitude":"39.2317467","Name":"Kilimani Street"},{"Latitude":"-6.7668019","Longitude":"39.2505158","Name":"Kilimanjaro"},{"Latitude":"-3.3936067","Longitude":"37.0645940","Name":"Kilimanjaro Airport Road"},{"Latitude":"-3.3406727","Longitude":"37.3331311","Name":"Kilimanjaro Road"},{"Latitude":"-5.0340548","Longitude":"32.8305356","Name":"Kilimatinde Load"},{"Latitude":"-3.0874515","Longitude":"35.2746925","Name":"Kiloki Track"},{"Latitude":"-2.4812695","Longitude":"32.9095410","Name":"Kiloleli Marke"},{"Latitude":"-7.7896704","Longitude":"35.7172206","Name":"Kilolo Road"},{"Latitude":"-6.8037978","Longitude":"39.2787609","Name":"Kilombero Street"},{"Latitude":"-6.8298685","Longitude":"39.2610605","Name":"Kilosa Street"},{"Latitude":"-6.7700705","Longitude":"39.2271425","Name":"Kilwa Street"},{"Latitude":"-8.7994919","Longitude":"39.3491502","Name":"Kilwa-Nangurukuru Road"},{"Latitude":"-6.7667248","Longitude":"39.2016452","Name":"Kimambo Road"},{"Latitude":"-6.8273948","Longitude":"39.2114378","Name":"Kimanga Road"},{"Latitude":"-6.7945413","Longitude":"39.1782842","Name":"Kimara Baruti Bridge"},{"Latitude":"-6.7820175","Longitude":"39.2483188","Name":"Kimbanga Street"},{"Latitude":"-6.7677050","Longitude":"39.2292458","Name":"Kimbiji Street"},{"Latitude":"-6.8856521","Longitude":"39.2419825","Name":"Kimwaga Street"},{"Latitude":"-6.7768975","Longitude":"39.2703561","Name":"Kimweri Avenue"},{"Latitude":"-6.7877578","Longitude":"39.2798497","Name":"Kimweri Avenue Road"},{"Latitude":"-6.7861062","Longitude":"39.2814761","Name":"Kimweri Road"},{"Latitude":"-6.7060680","Longitude":"39.2139208","Name":"Kinanzi Street"},{"Latitude":"-6.7951066","Longitude":"39.2264059","Name":"Kindo Street"},{"Latitude":"-9.2438387","Longitude":"34.5942867","Name":"Kinenulo-Idunda Road"},{"Latitude":"-6.8708383","Longitude":"39.2602349","Name":"Kinesi Street"},{"Latitude":"-6.8148147","Longitude":"39.2400776","Name":"King Stoni Street"},{"Latitude":"-6.8248241","Longitude":"37.6613243","Name":"Kingo Street"},{"Latitude":"-6.7795211","Longitude":"39.2501886","Name":"Kingunge Street"},{"Latitude":"-4.2106017","Longitude":"35.7500387","Name":"Kino-Gorowa \"B\" Road"},{"Latitude":"-6.7909416","Longitude":"39.2796400","Name":"Kinondoni Road"},{"Latitude":"-6.7837221","Longitude":"39.2668184","Name":"Kinondoni Shamba Road"},{"Latitude":"-6.8165643","Longitude":"39.2501896","Name":"Kintiku Road"},{"Latitude":"-3.9981110","Longitude":"33.5566027","Name":"Kinungu Main Road"},{"Latitude":"-6.8060922","Longitude":"39.2821317","Name":"Kinyangalo Street"},{"Latitude":"-6.6450368","Longitude":"39.1751875","Name":"Kinyemela street"},{"Latitude":"-6.7726855","Longitude":"39.2341877","Name":"Kinyonga Street"},{"Latitude":"-6.8033902","Longitude":"39.2309969","Name":"Kione"},{"Latitude":"-6.8098701","Longitude":"39.2617870","Name":"Kionga Street"},{"Latitude":"-6.8048205","Longitude":"39.2607875","Name":"Kiongi Road"},{"Latitude":"-6.8144542","Longitude":"39.2766675","Name":"Kipande Street"},{"Latitude":"-3.3643520","Longitude":"36.6916901","Name":"Kipanga Street"},{"Latitude":"-6.8337807","Longitude":"39.2573543","Name":"Kipanzi Street"},{"Latitude":"-6.8222019","Longitude":"39.2786398","Name":"Kipata & Sukukuu Street"},{"Latitude":"-6.8237569","Longitude":"39.2749366","Name":"Kipata & Swahili Street"},{"Latitude":"-6.8997423","Longitude":"39.2728329","Name":"Kipati Road"},{"Latitude":"-8.4886398","Longitude":"38.9256227","Name":"Kipatimu - Njia Nne Road"},{"Latitude":"-8.3079520","Longitude":"38.9885095","Name":"Kipatimu - Nyamwage Road"},{"Latitude":"-8.4062607","Longitude":"38.8344061","Name":"Kipatimu - Utete Road"},{"Latitude":"-6.7807431","Longitude":"39.2313039","Name":"Kipaumbele Street"},{"Latitude":"-6.7778170","Longitude":"39.2209733","Name":"Kipemba Street"},{"Latitude":"-6.7919739","Longitude":"39.1992452","Name":"Kipembawe Street"},{"Latitude":"-6.7709664","Longitude":"39.2333325","Name":"Kipepeo Street"},{"Latitude":"-7.4317072","Longitude":"30.6315947","Name":"Kipili Road"},{"Latitude":"-6.7188972","Longitude":"39.2053537","Name":"Kipong'oso Street"},{"Latitude":"-6.8644175","Longitude":"39.2555562","Name":"Kipungo Steet"},{"Latitude":"-6.8601106","Longitude":"39.2558840","Name":"Kipungo Street"},{"Latitude":"-6.7217203","Longitude":"39.2231404","Name":"Kirando Street"},{"Latitude":"-3.3517467","Longitude":"36.6722348","Name":"Kiranyi Sakina"},{"Latitude":"-3.2416567","Longitude":"37.2747998","Name":"Kirenga Loop"},{"Latitude":"-3.2652254","Longitude":"37.1903602","Name":"Kirikiri Road"},{"Latitude":"-2.4956301","Longitude":"32.8983050","Name":"Kirumba"},{"Latitude":"-2.5034674","Longitude":"32.8991668","Name":"Kirumba Market"},{"Latitude":"-2.5024429","Longitude":"32.8963193","Name":"Kirumba Police"},{"Latitude":"-2.5021419","Longitude":"32.9015107","Name":"Kirumba Road"},{"Latitude":"-2.5011960","Longitude":"32.8984154","Name":"Kirumba road"},{"Latitude":"-10.0952231","Longitude":"34.6891909","Name":"Kisaka road"},{"Latitude":"-6.8025823","Longitude":"39.2604696","Name":"Kisangiro Road"},{"Latitude":"-6.8251225","Longitude":"39.2785978","Name":"Kisarawe Street"},{"Latitude":"-6.8283008","Longitude":"39.2071860","Name":"Kisauti"},{"Latitude":"-3.2118830","Longitude":"37.2009944","Name":"Kiselu Road"},{"Latitude":"-6.7755225","Longitude":"39.2293823","Name":"Kishapu Street"},{"Latitude":"-3.2988000","Longitude":"37.3631125","Name":"Kishumundu Road"},{"Latitude":"-6.8143708","Longitude":"39.2624821","Name":"Kisiju Road"},{"Latitude":"-6.7979760","Longitude":"39.0957981","Name":"Kisima Cha Njeteni"},{"Latitude":"-6.1653412","Longitude":"39.1969152","Name":"Kisima Majongoo Street"},{"Latitude":"-3.3241332","Longitude":"37.3243633","Name":"Kisinane Road"},{"Latitude":"-6.7788094","Longitude":"39.2292201","Name":"Kisiwajusi Street"},{"Latitude":"-6.7942850","Longitude":"39.2524829","Name":"Kisiwani Ndugumbi Street"},{"Latitude":"-6.7983868","Longitude":"39.2541997","Name":"Kisiwani Ndugumbi road"},{"Latitude":"-6.7690381","Longitude":"39.1986985","Name":"Kisiwani Road"},{"Latitude":"-6.8086214","Longitude":"39.2510509","Name":"Kisiwani Street"},{"Latitude":"-3.3714120","Longitude":"36.6808725","Name":"Kisumayo Street"},{"Latitude":"-6.8146698","Longitude":"39.2850341","Name":"Kisutu Street"},{"Latitude":"-6.8127161","Longitude":"39.2335294","Name":"Kiswara Street"},{"Latitude":"-1.9477824","Longitude":"31.5155593","Name":"Kitaba Road"},{"Latitude":"-6.7421706","Longitude":"39.2378694","Name":"Kitalu"},{"Latitude":"-2.4909120","Longitude":"32.8985809","Name":"Kitangiri"},{"Latitude":"-6.7997957","Longitude":"39.2469884","Name":"Kitega Road"},{"Latitude":"-5.0395499","Longitude":"29.7850586","Name":"Kitila Road"},{"Latitude":"-6.6918610","Longitude":"39.2141516","Name":"Kitonga"},{"Latitude":"-6.8031151","Longitude":"39.2823001","Name":"Kitonga Street"},{"Latitude":"-6.7898066","Longitude":"39.2273950","Name":"Kitumbi Street"},{"Latitude":"-6.8195532","Longitude":"39.2820215","Name":"Kitumbini Street"},{"Latitude":"-6.8715162","Longitude":"39.1891644","Name":"Kitunda Road"},{"Latitude":"-6.8662315","Longitude":"39.2627300","Name":"Kitunda Street"},{"Latitude":"-8.9117803","Longitude":"33.4724861","Name":"Kituo cha Bajaji"},{"Latitude":"-3.3728953","Longitude":"36.6854451","Name":"Kituoni Street"},{"Latitude":"-8.9084638","Longitude":"33.4557193","Name":"Kitwe Road"},{"Latitude":"-6.8244965","Longitude":"39.2772230","Name":"Kiungani Street"},{"Latitude":"-3.3552302","Longitude":"37.3362689","Name":"Kiusa Street"},{"Latitude":"-6.7868561","Longitude":"39.2249865","Name":"Kivanga Street"},{"Latitude":"-6.7540340","Longitude":"39.2394546","Name":"Kivinje Road"},{"Latitude":"-6.9411408","Longitude":"39.1787037","Name":"Kivule Road"},{"Latitude":"-6.8266517","Longitude":"39.2014948","Name":"Kivulini street"},{"Latitude":"-6.8674527","Longitude":"39.2611801","Name":"Kivungo Street"},{"Latitude":"-6.8064461","Longitude":"39.2472090","Name":"Kiwamba Street Road"},{"Latitude":"-6.8097042","Longitude":"39.2766340","Name":"Kiwanuka Street"},{"Latitude":"-8.9058707","Longitude":"33.4466269","Name":"Kiwila Street"},{"Latitude":"-6.8101268","Longitude":"39.2588219","Name":"Kizingo Street"},{"Latitude":"-6.7226102","Longitude":"39.2227073","Name":"Kizota Avenue"},{"Latitude":"-6.9050145","Longitude":"39.2714586","Name":"Kizuiani Subward Office Street"},{"Latitude":"-6.7271722","Longitude":"39.2156057","Name":"Kobe"},{"Latitude":"-6.7833351","Longitude":"39.2335470","Name":"Kobe Close Street"},{"Latitude":"-6.7672625","Longitude":"39.1330936","Name":"Kobelo Street"},{"Latitude":"-6.7272015","Longitude":"39.2092234","Name":"Kofi Annan Street"},{"Latitude":"-6.7813440","Longitude":"39.2362677","Name":"Kofiatausi Street"},{"Latitude":"-6.8102781","Longitude":"39.2629755","Name":"Koja Road"},{"Latitude":"-6.6881284","Longitude":"39.2125736","Name":"Kokoni"},{"Latitude":"-6.7080359","Longitude":"39.2314122","Name":"Kolekole"},{"Latitude":"-6.8674525","Longitude":"39.2530519","Name":"Koma Street"},{"Latitude":"-6.7758910","Longitude":"39.2438191","Name":"Komanya Street"},{"Latitude":"-6.8338055","Longitude":"39.2327745","Name":"Kombo Road"},{"Latitude":"-6.8426410","Longitude":"39.2284528","Name":"Kombo Street"},{"Latitude":"-6.8011875","Longitude":"39.2486445","Name":"Konde Street"},{"Latitude":"-6.7873731","Longitude":"39.2255447","Name":"Kondeni Street"},{"Latitude":"-6.6476429","Longitude":"39.1871547","Name":"Kondo Road"},{"Latitude":"-6.8016322","Longitude":"39.2484669","Name":"Kondoa"},{"Latitude":"-6.1746956","Longitude":"35.7457616","Name":"Kondoa Road"},{"Latitude":"-6.7757602","Longitude":"39.2227384","Name":"Kondoa Street"},{"Latitude":"-6.8028611","Longitude":"39.2519281","Name":"Kondoa street"},{"Latitude":"-6.8210231","Longitude":"39.2739339","Name":"Kongo Street"},{"Latitude":"-6.8077555","Longitude":"39.2616828","Name":"Kongwa Road"},{"Latitude":"-7.2534819","Longitude":"37.8970008","Name":"Kongwa Village Road"},{"Latitude":"-6.7192422","Longitude":"39.2090010","Name":"Kononze B Street"},{"Latitude":"-6.7184479","Longitude":"39.2095089","Name":"Kononze Street"},{"Latitude":"-6.8226130","Longitude":"39.2207735","Name":"Kontena"},{"Latitude":"-6.7818826","Longitude":"39.2507592","Name":"Kopa"},{"Latitude":"-6.7824617","Longitude":"39.2541161","Name":"Kopa Road"},{"Latitude":"-6.7805385","Longitude":"39.2539471","Name":"Kopa Street"},{"Latitude":"-6.7758163","Longitude":"39.2243591","Name":"Kopabelt Street"},{"Latitude":"-5.0764572","Longitude":"39.0922613","Name":"Korogwe Road"},{"Latitude":"-6.8291140","Longitude":"39.2657831","Name":"Korogwe Street"},{"Latitude":"-6.8072495","Longitude":"39.2622836","Name":"Korongo Road"},{"Latitude":"-6.7705097","Longitude":"39.2146030","Name":"Koroshoni Street"},{"Latitude":"-3.2541923","Longitude":"37.1494318","Name":"Kraber Way"},{"Latitude":"-3.3762910","Longitude":"36.6835406","Name":"Krokon Street"},{"Latitude":"-6.7821829","Longitude":"39.2350291","Name":"Kubunisiku Street"},{"Latitude":"-6.7772161","Longitude":"39.2540436","Name":"Kufa Kunoga Street"},{"Latitude":"-2.6220636","Longitude":"32.4096996","Name":"Kukati Sreet"},{"Latitude":"-1.7587748","Longitude":"33.8588308","Name":"Kukiugu Street"},{"Latitude":"-3.3708786","Longitude":"36.6869653","Name":"Kukuyu Street"},{"Latitude":"-6.7803390","Longitude":"39.2657915","Name":"Kumbukumbu"},{"Latitude":"-6.8118633","Longitude":"39.2241444","Name":"Kumekucha Street"},{"Latitude":"-6.7713557","Longitude":"39.2286325","Name":"Kumilindastreet"},{"Latitude":"-6.6692172","Longitude":"39.2171934","Name":"Kunduchi Pwani"},{"Latitude":"-6.6718025","Longitude":"39.2110581","Name":"Kunduchi Road"},{"Latitude":"-6.6577491","Longitude":"39.1993971","Name":"Kuringa Street"},{"Latitude":"-6.7678500","Longitude":"39.1365150","Name":"Kwa Abas Road"},{"Latitude":"-6.7651920","Longitude":"39.1389580","Name":"Kwa Abasi Road"},{"Latitude":"-6.7800471","Longitude":"39.2664919","Name":"Kwa Almasi"},{"Latitude":"-6.7374747","Longitude":"39.2154846","Name":"Kwa Baba Jack Street"},{"Latitude":"-6.8400038","Longitude":"39.2213723","Name":"Kwa Baba Mkuu Street"},{"Latitude":"-6.7980288","Longitude":"39.2673759","Name":"Kwa Bilela Street"},{"Latitude":"-6.8285116","Longitude":"39.2195526","Name":"Kwa Bwaza Street"},{"Latitude":"-6.8158180","Longitude":"39.2271604","Name":"Kwa Doctor Malema"},{"Latitude":"-6.8310306","Longitude":"39.2200977","Name":"Kwa Figo Street"},{"Latitude":"-6.8254837","Longitude":"39.2133254","Name":"Kwa Gewe Street"},{"Latitude":"-6.8405547","Longitude":"39.2390124","Name":"Kwa Jongo Street"},{"Latitude":"-6.7414586","Longitude":"39.2313065","Name":"Kwa Joseph"},{"Latitude":"-6.8776801","Longitude":"39.1451938","Name":"Kwa Joti Road"},{"Latitude":"-6.8645400","Longitude":"39.1590980","Name":"Kwa Kamba road"},{"Latitude":"-6.8673730","Longitude":"39.1428050","Name":"Kwa Kavikuta Road"},{"Latitude":"-6.7332769","Longitude":"39.1993757","Name":"Kwa Kayuni Street"},{"Latitude":"-6.8398643","Longitude":"39.2204760","Name":"Kwa Kibwalu Street"},{"Latitude":"-6.8337463","Longitude":"39.2186365","Name":"Kwa Lamude Street"},{"Latitude":"-6.8645930","Longitude":"39.1600100","Name":"Kwa Mabala Road"},{"Latitude":"-6.8354025","Longitude":"39.2208216","Name":"Kwa Mama Ngoni Street"},{"Latitude":"-6.7330730","Longitude":"39.2233751","Name":"Kwa Mama kessy"},{"Latitude":"-6.7945509","Longitude":"39.0710132","Name":"Kwa Mangi"},{"Latitude":"-6.8676331","Longitude":"39.1424278","Name":"Kwa Mbagala Road"},{"Latitude":"-6.8345248","Longitude":"39.2319106","Name":"Kwa Mbise Road"},{"Latitude":"-6.8351594","Longitude":"39.2302682","Name":"Kwa Mbise Street"},{"Latitude":"-6.8050092","Longitude":"39.1019526","Name":"Kwa Mbonde Road"},{"Latitude":"-6.8135397","Longitude":"39.0925434","Name":"Kwa Mbwambo Street"},{"Latitude":"-6.7987462","Longitude":"39.2278876","Name":"Kwa Mfuga Mbwa Street"},{"Latitude":"-6.7512412","Longitude":"39.1922055","Name":"Kwa Mkondola Road"},{"Latitude":"-6.8609774","Longitude":"39.1579252","Name":"Kwa Mkurugenzi Road"},{"Latitude":"-6.7560356","Longitude":"39.2027218","Name":"Kwa Mongela Road"},{"Latitude":"-6.8706700","Longitude":"39.1419280","Name":"Kwa Mpemba Bonde La Mpunga Road"},{"Latitude":"-6.8167669","Longitude":"39.2353228","Name":"Kwa Mpemba Street"},{"Latitude":"-6.7252170","Longitude":"39.1991195","Name":"Kwa Msafiri Street"},{"Latitude":"-6.6472579","Longitude":"39.1787432","Name":"Kwa Msangi Street"},{"Latitude":"-6.8743890","Longitude":"39.1376170","Name":"Kwa Mwanajeshi Mstaafu Road"},{"Latitude":"-6.8768774","Longitude":"39.1519048","Name":"Kwa Mwandishi Wa Habari Road"},{"Latitude":"-6.8798189","Longitude":"39.2452220","Name":"Kwa Mwinyi Road"},{"Latitude":"-6.7402892","Longitude":"39.2057334","Name":"Kwa Mzee Juma Street"},{"Latitude":"-6.8608122","Longitude":"39.1580528","Name":"Kwa Mzee Mohammed Road"},{"Latitude":"-6.8545125","Longitude":"39.1557859","Name":"Kwa Mzee Wasiwasi Road"},{"Latitude":"-6.8347180","Longitude":"39.2206647","Name":"Kwa Nabola Street"},{"Latitude":"-6.7400384","Longitude":"39.1934103","Name":"Kwa Ndambi Street"},{"Latitude":"-6.7987399","Longitude":"39.2684195","Name":"Kwa Ndege Street"},{"Latitude":"-6.7658445","Longitude":"39.1368786","Name":"Kwa Ndende Road"},{"Latitude":"-6.8562307","Longitude":"39.1567537","Name":"Kwa Ngoli Road"},{"Latitude":"-6.7907527","Longitude":"39.2394558","Name":"Kwa Niga Street"},{"Latitude":"-6.8336611","Longitude":"39.2508873","Name":"Kwa Nyota Road"},{"Latitude":"-6.8453774","Longitude":"39.2281635","Name":"Kwa Pelapela Street"},{"Latitude":"-6.8698374","Longitude":"39.1368628","Name":"Kwa Pepeteka Road"},{"Latitude":"-6.7861172","Longitude":"39.1487797","Name":"Kwa Pesapesa Road"},{"Latitude":"-6.7258740","Longitude":"39.1974460","Name":"Kwa Power Nyati Street"},{"Latitude":"-6.7845309","Longitude":"39.2309568","Name":"Kwa Remi Road"},{"Latitude":"-6.7824662","Longitude":"39.2237382","Name":"Kwa Remi Street"},{"Latitude":"-6.7377307","Longitude":"39.2015746","Name":"Kwa Sanya Street"},{"Latitude":"-6.7930555","Longitude":"39.1038623","Name":"Kwa Saronga Daraja La Blue"},{"Latitude":"-6.7196597","Longitude":"39.2017218","Name":"Kwa Semi Street"},{"Latitude":"-6.7226279","Longitude":"39.2000502","Name":"Kwa Seni Street"},{"Latitude":"-6.8081650","Longitude":"39.2293399","Name":"Kwa Shirima Street"},{"Latitude":"-6.8206192","Longitude":"39.2133969","Name":"Kwa Singa Street"},{"Latitude":"-6.8659580","Longitude":"39.1601870","Name":"Kwa Swai Road"},{"Latitude":"-6.8956570","Longitude":"39.1255870","Name":"Kwa Tambi"},{"Latitude":"-6.7776807","Longitude":"39.2234638","Name":"Kwa Upendo Road"},{"Latitude":"-6.7245777","Longitude":"39.1985469","Name":"Kwa Wagogo Street"},{"Latitude":"-6.7920467","Longitude":"39.1076372","Name":"Kwa Yusufu"},{"Latitude":"-6.7075894","Longitude":"39.2292872","Name":"Kwa Zena"},{"Latitude":"-6.7109023","Longitude":"39.2274222","Name":"Kwa zena"},{"Latitude":"-8.9083216","Longitude":"33.4713535","Name":"Kwachaula Road"},{"Latitude":"-6.8967455","Longitude":"39.2412463","Name":"Kwadona"},{"Latitude":"-6.8069807","Longitude":"39.2383944","Name":"Kwajongo Street"},{"Latitude":"-6.8722636","Longitude":"39.2278546","Name":"Kwalimboa Road"},{"Latitude":"-6.7797329","Longitude":"39.2651719","Name":"Kwamsama"},{"Latitude":"-6.8096140","Longitude":"39.2341759","Name":"Kwanjani Street"},{"Latitude":"-3.3022291","Longitude":"37.1560558","Name":"Kware Road"},{"Latitude":"-6.8079019","Longitude":"39.0951619","Name":"Kwembe Kati Dispensary Street"},{"Latitude":"-6.8133946","Longitude":"39.0935398","Name":"Kwembe Road"},{"Latitude":"-6.7770701","Longitude":"39.2384725","Name":"Kwetu Street"},{"Latitude":"-2.6711951","Longitude":"33.3673066","Name":"Kwimba-Magu"},{"Latitude":"-6.8079110","Longitude":"39.2351461","Name":"Kwizikira Road"},{"Latitude":"-6.6904625","Longitude":"39.2064708","Name":"Kyala Road"},{"Latitude":"-1.3360666","Longitude":"33.8983516","Name":"Kyamosana Road"},{"Latitude":"-6.8212451","Longitude":"39.2621169","Name":"Kyera Sreet"},{"Latitude":"-3.4773805","Longitude":"31.9061695","Name":"Kziba Road"},{"Latitude":"-6.2133799","Longitude":"35.8097462","Name":"LRB parking road"},{"Latitude":"-6.1670195","Longitude":"39.1997036","Name":"Labama Street"},{"Latitude":"-6.7737778","Longitude":"39.2264371","Name":"Lagana Street"},{"Latitude":"-6.7867974","Longitude":"39.2826735","Name":"Laibon Road"},{"Latitude":"-9.2379143","Longitude":"35.1776755","Name":"Lailalo"},{"Latitude":"-2.5026472","Longitude":"32.8984850","Name":"Lakairo"},{"Latitude":"-6.7172346","Longitude":"39.2182339","Name":"Lake Victoria Street"},{"Latitude":"-7.4342819","Longitude":"30.5937607","Name":"Lakeshore Access Road"},{"Latitude":"-6.8011814","Longitude":"39.2503662","Name":"Lalago"},{"Latitude":"-6.7938287","Longitude":"39.2621746","Name":"Lalanguru Road"},{"Latitude":"-6.7697825","Longitude":"39.2131271","Name":"Lamboni Street"},{"Latitude":"-3.3300468","Longitude":"37.3227427","Name":"Lameck Kaaya Avenue"},{"Latitude":"-6.6688061","Longitude":"39.2091255","Name":"Lamwai Street"},{"Latitude":"-6.7898455","Longitude":"39.2660533","Name":"Lang'ata"},{"Latitude":"-6.6665338","Longitude":"39.2088604","Name":"Lango la Jeshi"},{"Latitude":"-4.4978686","Longitude":"38.1704561","Name":"Langoni - Mkomazi Road"},{"Latitude":"-4.4253641","Longitude":"37.9273472","Name":"Lay-Mar Rd."},{"Latitude":"-6.7878449","Longitude":"39.2742774","Name":"Leaders Club Road"},{"Latitude":"-8.9111052","Longitude":"33.4424722","Name":"Lehner Street"},{"Latitude":"-3.3283855","Longitude":"37.3206678","Name":"Lema Road"},{"Latitude":"-3.1518321","Longitude":"35.6455210","Name":"Lemala Ascent & Descent Road"},{"Latitude":"-6.7201113","Longitude":"39.2213972","Name":"Lemiri Street"},{"Latitude":"-6.7861022","Longitude":"39.2205215","Name":"Lengojarari Street"},{"Latitude":"-6.8524555","Longitude":"39.2582603","Name":"Leo Street"},{"Latitude":"-3.2419508","Longitude":"35.5110333","Name":"Lerai Ascent Road"},{"Latitude":"-6.7804595","Longitude":"39.2411572","Name":"Lesoto Street"},{"Latitude":"-6.8769567","Longitude":"39.1501480","Name":"Lexus Road"},{"Latitude":"-9.2195004","Longitude":"35.1840811","Name":"Lialalo"},{"Latitude":"-2.5201766","Longitude":"32.9048798","Name":"Liberty Street"},{"Latitude":"-6.2158090","Longitude":"35.8128174","Name":"Library Path"},{"Latitude":"-6.8177160","Longitude":"39.2820358","Name":"Libya Street"},{"Latitude":"-6.8008467","Longitude":"39.2461049","Name":"Lihuri"},{"Latitude":"-6.8225735","Longitude":"39.2722837","Name":"Likoma Street"},{"Latitude":"-6.7606855","Longitude":"39.2808160","Name":"Lincoln Road"},{"Latitude":"-6.1782137","Longitude":"35.7478474","Name":"Lindi Avenue"},{"Latitude":"-3.3712335","Longitude":"36.6839864","Name":"Lindi Street"},{"Latitude":"-6.7913460","Longitude":"39.2456935","Name":"Lingo la kuni Street"},{"Latitude":"-6.7892203","Longitude":"39.2702857","Name":"Link Street"},{"Latitude":"-6.8656304","Longitude":"39.2510826","Name":"Lituhi Road"},{"Latitude":"-6.7796864","Longitude":"39.2679538","Name":"Liundi"},{"Latitude":"-8.9077583","Longitude":"33.4573919","Name":"Living Covenant Church Road"},{"Latitude":"-6.7929872","Longitude":"39.2650869","Name":"Livingstone"},{"Latitude":"-3.3709353","Longitude":"36.6864892","Name":"Livingstone Street"},{"Latitude":"-6.8573959","Longitude":"39.2567401","Name":"Liwale Street"},{"Latitude":"-3.3566850","Longitude":"37.3376150","Name":"Liwali Street"},{"Latitude":"-8.9188583","Longitude":"33.5020761","Name":"Lizy Street"},{"Latitude":"-3.3657298","Longitude":"36.6973811","Name":"Lodge Road"},{"Latitude":"-6.8251236","Longitude":"39.2071454","Name":"Loleta street"},{"Latitude":"-6.8020650","Longitude":"39.2782806","Name":"Longido"},{"Latitude":"-3.1359525","Longitude":"36.7436135","Name":"Losinoni Juu road"},{"Latitude":"-6.7915190","Longitude":"39.2619322","Name":"Lowa Street"},{"Latitude":"-3.2306267","Longitude":"37.6725608","Name":"Lower Road"},{"Latitude":"-7.1377239","Longitude":"37.5360270","Name":"Luale - Kikeo Road"},{"Latitude":"-8.9094317","Longitude":"33.4574457","Name":"Luas Inn Street"},{"Latitude":"-6.7579413","Longitude":"39.2498416","Name":"Lucy Lamec Road"},{"Latitude":"-3.3432755","Longitude":"37.3525017","Name":"Lucy lameck road"},{"Latitude":"-6.7708286","Longitude":"39.2324264","Name":"Ludewa Road"},{"Latitude":"-6.7695417","Longitude":"39.2307368","Name":"Ludewa Street"},{"Latitude":"-6.8014477","Longitude":"39.2829688","Name":"Lugalo Street"},{"Latitude":"-3.6223498","Longitude":"32.1784435","Name":"Lugunga Road"},{"Latitude":"-6.8104585","Longitude":"39.2326153","Name":"Luhanga Street"},{"Latitude":"-6.7920684","Longitude":"39.2611627","Name":"Luhumbo"},{"Latitude":"-4.6942178","Longitude":"38.2948503","Name":"Lukozi-Magamba Road"},{"Latitude":"-4.6062717","Longitude":"38.3306068","Name":"Lukozi-Mlalo Road"},{"Latitude":"-4.5994702","Longitude":"38.2706004","Name":"Lukozi-Rangwi Road Eastbound"},{"Latitude":"-4.6079594","Longitude":"38.2431372","Name":"Lukozi-Rangwi Road Westbound"},{"Latitude":"-6.7738215","Longitude":"39.2583674","Name":"Lukuledi Street"},{"Latitude":"-7.2139736","Longitude":"37.8854390","Name":"Lukulunge Road"},{"Latitude":"-6.8613484","Longitude":"39.2678854","Name":"Lukwati Street"},{"Latitude":"-2.5206294","Longitude":"32.9023268","Name":"Lumumba"},{"Latitude":"-2.5195883","Longitude":"32.9027704","Name":"Lumumba Road"},{"Latitude":"-5.0800883","Longitude":"39.1040246","Name":"Lumumba Street"},{"Latitude":"-8.9105489","Longitude":"33.4697676","Name":"Lunch Time Street"},{"Latitude":"-6.8251987","Longitude":"39.2647562","Name":"Lungemba Road"},{"Latitude":"-6.7943819","Longitude":"39.2621589","Name":"Lunguya Road"},{"Latitude":"-8.8904035","Longitude":"33.4440136","Name":"Lupa Way"},{"Latitude":"-6.7949417","Longitude":"39.2622418","Name":"Lupilo Road"},{"Latitude":"-8.9090344","Longitude":"33.4668736","Name":"Lupimo Road"},{"Latitude":"-6.8015468","Longitude":"39.2587781","Name":"Luponda Road"},{"Latitude":"-6.8628393","Longitude":"39.2530166","Name":"Lusaka Road"},{"Latitude":"-6.8337657","Longitude":"39.2765711","Name":"Lusaka Street"},{"Latitude":"-6.7855378","Longitude":"39.2547039","Name":"Lusama street"},{"Latitude":"-6.6501103","Longitude":"39.1878684","Name":"Lusanje Street"},{"Latitude":"-6.1882422","Longitude":"35.7515891","Name":"Lusinde Road"},{"Latitude":"-6.8112098","Longitude":"39.2958771","Name":"Luthuli Street"},{"Latitude":"-6.7730091","Longitude":"39.2583963","Name":"Luwanja Road"},{"Latitude":"-4.3214769","Longitude":"33.4173355","Name":"Lwiyala Road"},{"Latitude":"-3.3291069","Longitude":"37.3266993","Name":"Lyndi Street"},{"Latitude":"-6.7193754","Longitude":"39.2313798","Name":"M140 Road"},{"Latitude":"-4.9033247","Longitude":"30.0587214","Name":"M211 Street"},{"Latitude":"-6.1645835","Longitude":"35.7304461","Name":"MATOVOLWA ROAD"},{"Latitude":"-4.8783654","Longitude":"29.6434146","Name":"MKATUTU"},{"Latitude":"-9.7771821","Longitude":"34.5230383","Name":"MLANGALI CENTER TO ITUNDU ROAD"},{"Latitude":"-9.7762412","Longitude":"34.5189489","Name":"MLANGALI HEALTH CENTRE ROAD"},{"Latitude":"-9.7777746","Longitude":"34.5226296","Name":"MLANGALI ITUNDU ROAD"},{"Latitude":"-4.8992402","Longitude":"30.0589818","Name":"MM1 Mkulima Path"},{"Latitude":"-4.8970800","Longitude":"30.0554531","Name":"MM2 Path"},{"Latitude":"-4.9000695","Longitude":"30.0547619","Name":"MM3 Muzindakaya Path"},{"Latitude":"-2.5192717","Longitude":"32.9015442","Name":"MMakoroboi"},{"Latitude":"-8.5252143","Longitude":"35.3506534","Name":"MPM Road"},{"Latitude":"-4.8720021","Longitude":"29.6589789","Name":"MWASENGA KWA KIDAGALA"},{"Latitude":"-4.8597257","Longitude":"29.6494174","Name":"MWASENGA ROAD"},{"Latitude":"-6.7931513","Longitude":"39.2414403","Name":"Maalim Sultan Street"},{"Latitude":"-6.7777647","Longitude":"39.2227705","Name":"Maarifa Street"},{"Latitude":"-2.5250854","Longitude":"32.9197972","Name":"Mabatini"},{"Latitude":"-8.9053120","Longitude":"33.4538549","Name":"Mabena Street"},{"Latitude":"-6.8160499","Longitude":"39.2266753","Name":"Mabibo Jeshini Steet"},{"Latitude":"-6.8150882","Longitude":"39.2289368","Name":"Mabibo Lodge Street"},{"Latitude":"-6.8053925","Longitude":"39.2235553","Name":"Mabibo Road"},{"Latitude":"-6.8042272","Longitude":"39.2156747","Name":"Mabibo Salali"},{"Latitude":"-4.8876638","Longitude":"30.0861717","Name":"Mabo Road"},{"Latitude":"-8.9087502","Longitude":"33.4700071","Name":"Mabuchani Road"},{"Latitude":"-6.7954865","Longitude":"39.2622320","Name":"Mabuki Road"},{"Latitude":"-8.9247211","Longitude":"33.4098258","Name":"Mabwawani Road"},{"Latitude":"-6.9130673","Longitude":"39.2719718","Name":"Machano Street"},{"Latitude":"-2.5123569","Longitude":"32.9042898","Name":"Machemba Street"},{"Latitude":"-6.8817291","Longitude":"39.2297965","Name":"Machimbo Rd"},{"Latitude":"-6.9064791","Longitude":"39.1772547","Name":"Machimbo Road"},{"Latitude":"-6.7998187","Longitude":"39.2665995","Name":"Machine Road"},{"Latitude":"-8.9229173","Longitude":"33.5035264","Name":"Machinjioni Road"},{"Latitude":"-6.7749031","Longitude":"39.2241602","Name":"Machungwadamu Street"},{"Latitude":"-6.8146065","Longitude":"39.2600890","Name":"Madaba Road"},{"Latitude":"-6.7152275","Longitude":"39.2264019","Name":"Madaba Street"},{"Latitude":"-6.7834125","Longitude":"39.2740528","Name":"Madai"},{"Latitude":"-6.7427469","Longitude":"39.2823912","Name":"Madaktari Road"},{"Latitude":"-4.5818313","Longitude":"38.2106574","Name":"Madala West Road"},{"Latitude":"-6.7961777","Longitude":"39.2624034","Name":"Madanga Road"},{"Latitude":"-6.1785853","Longitude":"35.7450311","Name":"Madaraka Avenue"},{"Latitude":"-6.8273929","Longitude":"37.6659052","Name":"Madaraka Road"},{"Latitude":"-1.7644903","Longitude":"33.8545794","Name":"Madaraka Street"},{"Latitude":"-6.8031941","Longitude":"39.2449867","Name":"Madege street"},{"Latitude":"-6.8372581","Longitude":"39.2469142","Name":"Madenge Street"},{"Latitude":"-6.7967431","Longitude":"39.2607107","Name":"Madibila Road"},{"Latitude":"-6.7972209","Longitude":"39.2623656","Name":"Madizini Road"},{"Latitude":"-6.7222562","Longitude":"39.2189111","Name":"Madongoni Street"},{"Latitude":"-6.8055184","Longitude":"39.2447121","Name":"Madoto Road"},{"Latitude":"-6.8236667","Longitude":"39.2234176","Name":"Maduka Manne Street"},{"Latitude":"-2.5189309","Longitude":"32.9398156","Name":"Madukatisa to buzuruga"},{"Latitude":"-3.3409445","Longitude":"37.3237874","Name":"Maendeleo Road"},{"Latitude":"-6.7763960","Longitude":"39.2214837","Name":"Maendeleo Street"},{"Latitude":"-6.8255628","Longitude":"39.2617347","Name":"Mafao Street"},{"Latitude":"-6.7943618","Longitude":"39.2607631","Name":"Mafele"},{"Latitude":"-6.7982564","Longitude":"39.2626855","Name":"Mafele Road"},{"Latitude":"-6.8179542","Longitude":"39.2758004","Name":"Mafia Street"},{"Latitude":"-6.7917098","Longitude":"39.2786120","Name":"Mafinga Road"},{"Latitude":"-6.8351649","Longitude":"39.2539492","Name":"Mafuriko Road"},{"Latitude":"-3.3574642","Longitude":"37.3355394","Name":"Mafuta Street"},{"Latitude":"-6.8570983","Longitude":"39.2530728","Name":"Maganga"},{"Latitude":"-6.7247350","Longitude":"39.2098664","Name":"Maganga Street"},{"Latitude":"-6.9025800","Longitude":"39.2713526","Name":"Magarimabovu Road"},{"Latitude":"-6.1726776","Longitude":"35.7523279","Name":"Mage Kibonge Street"},{"Latitude":"-6.8213294","Longitude":"39.2396193","Name":"Magenge Road"},{"Latitude":"-6.7680991","Longitude":"39.2670094","Name":"Magengeni"},{"Latitude":"-6.8925786","Longitude":"39.2642752","Name":"Magengeni Road"},{"Latitude":"-6.7775241","Longitude":"39.2366655","Name":"Magengeni Street"},{"Latitude":"-6.8194531","Longitude":"39.2195485","Name":"Magengeni street"},{"Latitude":"-9.4855259","Longitude":"34.6814781","Name":"Magereza Road"},{"Latitude":"-6.8419338","Longitude":"39.2757078","Name":"Magereza Street"},{"Latitude":"-6.7068881","Longitude":"39.2070775","Name":"Maghorofa Matatu Street"},{"Latitude":"-6.8225735","Longitude":"39.2722837","Name":"Magila Street"},{"Latitude":"-6.7832495","Longitude":"39.2206765","Name":"Magizani Street"},{"Latitude":"-6.8024357","Longitude":"39.2669420","Name":"Magogoni Road"},{"Latitude":"-7.2269417","Longitude":"37.9905889","Name":"Magogoni Village Road"},{"Latitude":"-6.7897845","Longitude":"39.2263365","Name":"Magoli matatu Street"},{"Latitude":"-6.8090258","Longitude":"39.2608395","Name":"Magomeni Street"},{"Latitude":"-6.8007492","Longitude":"39.2660726","Name":"Magongo Road"},{"Latitude":"-6.8057237","Longitude":"39.2812529","Name":"Magore Street"},{"Latitude":"-6.7681512","Longitude":"39.2304382","Name":"Magorofa ya Jeshi Street"},{"Latitude":"-6.6749940","Longitude":"39.2097149","Name":"Magoye Street"},{"Latitude":"-2.6000124","Longitude":"33.4246795","Name":"Magu Circle"},{"Latitude":"-6.8420410","Longitude":"39.2752359","Name":"Magurumbasi Street"},{"Latitude":"-6.8628343","Longitude":"39.2545798","Name":"Maguruwe Road"},{"Latitude":"-6.8648827","Longitude":"39.2535169","Name":"Maguruwe Street"},{"Latitude":"-8.9064192","Longitude":"33.4437403","Name":"Mahakama Avenue"},{"Latitude":"-6.7873487","Longitude":"39.2604507","Name":"Mahakamani Road"},{"Latitude":"-6.7885920","Longitude":"39.2566723","Name":"Mahakamani Street"},{"Latitude":"-6.7904943","Longitude":"39.2667059","Name":"Mahande"},{"Latitude":"-6.7426633","Longitude":"39.2835219","Name":"Mahando Street"},{"Latitude":"-6.7730544","Longitude":"39.2747993","Name":"Mahenge Road"},{"Latitude":"-6.8093577","Longitude":"37.6365209","Name":"Mahita Road"},{"Latitude":"-6.8200375","Longitude":"39.2778718","Name":"Mahiwa Street"},{"Latitude":"-6.2223926","Longitude":"39.2042498","Name":"Mahodhini Street"},{"Latitude":"-6.8600573","Longitude":"39.2566591","Name":"Mahunda Road"},{"Latitude":"-6.8636949","Longitude":"39.2607398","Name":"Mahunda Street"},{"Latitude":"-6.7538341","Longitude":"39.2378080","Name":"Mailimbili"},{"Latitude":"-3.3477673","Longitude":"37.3180089","Name":"Mailimoja Road"},{"Latitude":"-3.4018658","Longitude":"32.9897857","Name":"Main Dirt Road"},{"Latitude":"-2.5210241","Longitude":"32.9042136","Name":"Main Market"},{"Latitude":"-2.8572900","Longitude":"32.5600532","Name":"Main Road"},{"Latitude":"-2.1546920","Longitude":"33.4581794","Name":"Main Roads"},{"Latitude":"-6.2148871","Longitude":"35.8079401","Name":"Maintanance Lab Road"},{"Latitude":"-6.7641645","Longitude":"39.2327094","Name":"Majembe"},{"Latitude":"-6.7944326","Longitude":"39.2633654","Name":"Majembe Road"},{"Latitude":"-4.8920786","Longitude":"29.6563167","Name":"Majengo Mwanga Street"},{"Latitude":"-10.9542446","Longitude":"39.2835564","Name":"Majengo Road"},{"Latitude":"-6.8412596","Longitude":"39.2271275","Name":"Majengo Street"},{"Latitude":"-6.8237009","Longitude":"39.2120190","Name":"Maji Chumvi Street"},{"Latitude":"-2.5063018","Longitude":"32.9025471","Name":"Maji House"},{"Latitude":"-6.7669519","Longitude":"39.2434374","Name":"Maji maji Street"},{"Latitude":"-6.8168440","Longitude":"39.1859111","Name":"Maji ya chumvi"},{"Latitude":"-6.7630107","Longitude":"39.2461302","Name":"Majimaji"},{"Latitude":"-6.7239405","Longitude":"39.2125024","Name":"Majimaji Street"},{"Latitude":"-2.5192470","Longitude":"32.9029379","Name":"Majukano"},{"Latitude":"-8.9372175","Longitude":"33.3888325","Name":"Makabulini Road"},{"Latitude":"-6.8215142","Longitude":"39.2103420","Name":"Makaburi Street"},{"Latitude":"-6.8783962","Longitude":"39.2548080","Name":"Makaburi ya City Road"},{"Latitude":"-6.8604665","Longitude":"39.3400369","Name":"Makaburini Road"},{"Latitude":"-6.8247935","Longitude":"39.2351313","Name":"Makaburini Street"},{"Latitude":"-6.7460493","Longitude":"39.2750804","Name":"Makai Road"},{"Latitude":"-6.7850123","Longitude":"39.1599234","Name":"Makaloni Road"},{"Latitude":"-6.8813782","Longitude":"39.2384191","Name":"Makangarawe Road"},{"Latitude":"-6.7997366","Longitude":"39.2545308","Name":"Makanya Mwananyamala Road"},{"Latitude":"-6.7973936","Longitude":"39.2482179","Name":"Makanya Street"},{"Latitude":"-8.9043348","Longitude":"33.4462335","Name":"Makete Street"},{"Latitude":"-6.7177329","Longitude":"39.2067739","Name":"Makonde Baraza la Mitihani"},{"Latitude":"-6.7463933","Longitude":"39.2061899","Name":"Makongo Kaskazini Road"},{"Latitude":"-6.7654117","Longitude":"39.2167560","Name":"Makongo Road"},{"Latitude":"-6.7894310","Longitude":"39.2250471","Name":"Makongo Street"},{"Latitude":"-2.4476857","Longitude":"32.9212745","Name":"Makongoro Road"},{"Latitude":"-6.8114295","Longitude":"39.2547951","Name":"Makongoro Street"},{"Latitude":"-6.8762220","Longitude":"39.1527180","Name":"Makontena Road"},{"Latitude":"-2.5203212","Longitude":"32.9018598","Name":"Makoroboi"},{"Latitude":"-3.3711137","Longitude":"36.6849871","Name":"Makua Street"},{"Latitude":"-6.8106042","Longitude":"39.2112255","Name":"Makuburi Rd"},{"Latitude":"-6.7805954","Longitude":"39.2486173","Name":"Makumbusho Road"},{"Latitude":"-6.8168520","Longitude":"39.2883786","Name":"Makunganya Street"},{"Latitude":"-8.9051049","Longitude":"33.4649380","Name":"Makunguru Road"},{"Latitude":"-6.8197050","Longitude":"39.2456723","Name":"Makunja Street"},{"Latitude":"-6.8102539","Longitude":"39.2592374","Name":"Makurumla Road"},{"Latitude":"-6.8091889","Longitude":"39.2574069","Name":"Makurumla Street"},{"Latitude":"-6.8089281","Longitude":"39.2378532","Name":"Makutano Road"},{"Latitude":"-6.8588889","Longitude":"39.2609129","Name":"Makuti Street"},{"Latitude":"-6.7590784","Longitude":"39.2439108","Name":"Makuyuni"},{"Latitude":"-6.7749524","Longitude":"39.2547463","Name":"Makwania Street"},{"Latitude":"-6.7179983","Longitude":"39.2207352","Name":"Makyote"},{"Latitude":"-6.7193461","Longitude":"39.2179607","Name":"Makyote Street"},{"Latitude":"-6.8334775","Longitude":"39.2274151","Name":"Malafina Road"},{"Latitude":"-6.8081216","Longitude":"39.2479167","Name":"Malala Street"},{"Latitude":"-6.8091326","Longitude":"39.0970593","Name":"Malamba Mawili Road"},