[{"Latitude":"34.9324396","Longitude":"33.6144809","Name":"1"},{"Latitude":"34.7131190","Longitude":"33.0231135","Name":"1 Apriliou"},{"Latitude":"34.9151790","Longitude":"33.6163400","Name":"1 Apriliou Avenue"},{"Latitude":"35.2020500","Longitude":"33.3145035","Name":"1 Ağustos Sokak"},{"Latitude":"34.8505238","Longitude":"32.3821778","Name":"1 Bougaziou"},{"Latitude":"34.6719163","Longitude":"32.9384779","Name":"1 Maiou"},{"Latitude":"34.6722939","Longitude":"32.9218498","Name":"1 Maiou Side Street"},{"Latitude":"34.8466714","Longitude":"32.8090776","Name":"1 Octovriou Street"},{"Latitude":"34.6701560","Longitude":"32.9297188","Name":"1 Oktovriou"},{"Latitude":"35.1473348","Longitude":"33.8984946","Name":"1. Cadde"},{"Latitude":"35.1450646","Longitude":"33.8963680","Name":"1. Sokak"},{"Latitude":"35.2034209","Longitude":"33.3106033","Name":"10 Kasım Sokak"},{"Latitude":"35.1451813","Longitude":"33.9022252","Name":"10. Sokak"},{"Latitude":"34.7011500","Longitude":"32.9946028","Name":"102nd Street"},{"Latitude":"34.7023461","Longitude":"32.9942382","Name":"103rd Street"},{"Latitude":"34.7065066","Longitude":"32.9943646","Name":"104th Street"},{"Latitude":"34.7061784","Longitude":"32.9946302","Name":"104th Street Parodos"},{"Latitude":"34.7010866","Longitude":"32.9965763","Name":"105th Street"},{"Latitude":"34.7006564","Longitude":"32.9958240","Name":"106th Street"},{"Latitude":"34.7016546","Longitude":"32.9956495","Name":"107th Street"},{"Latitude":"34.7019367","Longitude":"32.9961478","Name":"108th Street"},{"Latitude":"34.7021938","Longitude":"32.9965899","Name":"109th Street"},{"Latitude":"34.6652222","Longitude":"32.9075676","Name":"10th Road"},{"Latitude":"34.6984606","Longitude":"32.9943124","Name":"10th Street"},{"Latitude":"35.1457791","Longitude":"33.9020988","Name":"11. Sokak"},{"Latitude":"34.7024374","Longitude":"32.9961732","Name":"110th Street"},{"Latitude":"34.7022347","Longitude":"32.9958323","Name":"111th Street"},{"Latitude":"34.7023857","Longitude":"32.9948263","Name":"112th Street"},{"Latitude":"34.7017737","Longitude":"32.9933336","Name":"117th Street"},{"Latitude":"34.7014877","Longitude":"32.9929016","Name":"118th Street"},{"Latitude":"34.7012123","Longitude":"32.9924504","Name":"119th Street"},{"Latitude":"35.1470304","Longitude":"33.9022999","Name":"12. Sokak"},{"Latitude":"34.7046345","Longitude":"32.9934201","Name":"120th Street"},{"Latitude":"34.7017001","Longitude":"32.9921965","Name":"121st Street"},{"Latitude":"34.7040023","Longitude":"32.9907625","Name":"125th Street"},{"Latitude":"34.7053247","Longitude":"32.9911776","Name":"126th Street"},{"Latitude":"34.7055101","Longitude":"32.9936465","Name":"127th Street"},{"Latitude":"34.7034655","Longitude":"32.9950137","Name":"128th Street"},{"Latitude":"34.7062138","Longitude":"32.9934971","Name":"129th Street"},{"Latitude":"34.6645471","Longitude":"32.9049953","Name":"12th Road"},{"Latitude":"34.6938068","Longitude":"32.9982542","Name":"12th Street"},{"Latitude":"35.3346299","Longitude":"33.3024332","Name":"13 Şubat Sokak"},{"Latitude":"35.1457791","Longitude":"33.9020988","Name":"13. Sokak"},{"Latitude":"34.7054345","Longitude":"32.9903721","Name":"130th Street"},{"Latitude":"34.7072532","Longitude":"32.9906009","Name":"131st Street"},{"Latitude":"34.7060743","Longitude":"32.9888651","Name":"132nd Street"},{"Latitude":"34.7073500","Longitude":"32.9919165","Name":"133rd Street"},{"Latitude":"34.7059929","Longitude":"32.9901588","Name":"134th Street"},{"Latitude":"34.7052215","Longitude":"32.9889363","Name":"135th Street"},{"Latitude":"34.7056768","Longitude":"32.9883844","Name":"136th Street"},{"Latitude":"34.7068729","Longitude":"32.9950921","Name":"137th Street"},{"Latitude":"34.7058148","Longitude":"32.9974624","Name":"138th Street"},{"Latitude":"34.7059961","Longitude":"32.9956969","Name":"139th Street"},{"Latitude":"34.6935591","Longitude":"32.9918597","Name":"13th Street"},{"Latitude":"35.1445123","Longitude":"33.9011781","Name":"14. Sokak"},{"Latitude":"34.7045057","Longitude":"32.9964604","Name":"140th Street"},{"Latitude":"34.7088936","Longitude":"32.9907588","Name":"141st Street"},{"Latitude":"34.7069100","Longitude":"32.9890538","Name":"142nd Street"},{"Latitude":"34.7061336","Longitude":"32.9856967","Name":"143rd street"},{"Latitude":"34.6930581","Longitude":"32.9899969","Name":"14th Street"},{"Latitude":"35.1130609","Longitude":"33.9258958","Name":"15 Ağustos Bulvari"},{"Latitude":"34.9278922","Longitude":"33.6318752","Name":"15 Ianouariou"},{"Latitude":"35.2006050","Longitude":"33.3180775","Name":"15 Kasım Sokak"},{"Latitude":"35.1447616","Longitude":"33.9021110","Name":"15. Sokak"},{"Latitude":"34.7042762","Longitude":"32.9896662","Name":"151st Street"},{"Latitude":"34.6695438","Longitude":"32.9090434","Name":"15th Road"},{"Latitude":"34.6924274","Longitude":"32.9908628","Name":"15th Street"},{"Latitude":"35.1446415","Longitude":"33.9027155","Name":"16. Sokak"},{"Latitude":"35.1758167","Longitude":"33.3788792","Name":"16th August"},{"Latitude":"35.1126205","Longitude":"33.9496742","Name":"16th Iouniou"},{"Latitude":"34.6780164","Longitude":"33.0377803","Name":"16th June 1943"},{"Latitude":"34.6918397","Longitude":"32.9910070","Name":"16th Street"},{"Latitude":"34.6652447","Longitude":"32.9018040","Name":"17th Street"},{"Latitude":"34.6659462","Longitude":"32.9016648","Name":"18th Street"},{"Latitude":"35.3728005","Longitude":"33.7540193","Name":"19 Mayis Sokak"},{"Latitude":"35.2059040","Longitude":"33.3083188","Name":"19 Mayıs Sokak"},{"Latitude":"34.6662369","Longitude":"32.9022178","Name":"19th Street"},{"Latitude":"34.9954728","Longitude":"33.7727828","Name":"1St Maiou"},{"Latitude":"35.1531878","Longitude":"33.3626809","Name":"1is Apriliou"},{"Latitude":"34.7750975","Longitude":"32.4259006","Name":"1s Aprilliou"},{"Latitude":"34.8204490","Longitude":"32.4029226","Name":"1st April"},{"Latitude":"35.0036012","Longitude":"33.8441008","Name":"1st Apriliou"},{"Latitude":"34.9436961","Longitude":"33.6408548","Name":"1st Iouliou"},{"Latitude":"34.9842252","Longitude":"33.6506381","Name":"1st June"},{"Latitude":"34.7031118","Longitude":"33.0574464","Name":"1st October"},{"Latitude":"34.9441360","Longitude":"33.6421336","Name":"1st Octovriou"},{"Latitude":"34.6680526","Longitude":"32.9035075","Name":"1st Road"},{"Latitude":"34.6925961","Longitude":"32.9951397","Name":"1st Street"},{"Latitude":"35.0644160","Longitude":"33.9635951","Name":"1tis Oktovriou"},{"Latitude":"35.0566254","Longitude":"33.2396512","Name":"1ης Απριλίου"},{"Latitude":"35.1477172","Longitude":"33.9015388","Name":"2. Cadde"},{"Latitude":"35.1455143","Longitude":"33.8992963","Name":"2. Sokak"},{"Latitude":"35.3407199","Longitude":"33.2859973","Name":"20 Temmuz Caddesi"},{"Latitude":"35.3414848","Longitude":"33.3164218","Name":"20 Temmuz Kordonboyu Caddesi"},{"Latitude":"35.1256013","Longitude":"33.9293980","Name":"20 Temmuz Sokak"},{"Latitude":"34.6927914","Longitude":"32.9894654","Name":"20th Street"},{"Latitude":"34.6913464","Longitude":"32.9906712","Name":"22nd Street"},{"Latitude":"34.6902703","Longitude":"33.0118645","Name":"23rd Street"},{"Latitude":"35.1664234","Longitude":"33.3308730","Name":"25 March Street"},{"Latitude":"34.7732545","Longitude":"32.4228793","Name":"25 Martiou"},{"Latitude":"35.2179384","Longitude":"33.3406240","Name":"25. Sokak"},{"Latitude":"35.0607293","Longitude":"33.9655890","Name":"25Th Martiou Street"},{"Latitude":"34.8768588","Longitude":"33.6035792","Name":"25is Maritou"},{"Latitude":"34.7379471","Longitude":"32.5342324","Name":"25th March"},{"Latitude":"34.7660865","Longitude":"33.0779274","Name":"25th Martiou"},{"Latitude":"35.0233789","Longitude":"33.9529375","Name":"25th Martiou Street"},{"Latitude":"34.6730299","Longitude":"32.8976013","Name":"25th Road"},{"Latitude":"35.1607823","Longitude":"33.8816510","Name":"26 Eylül Sokak"},{"Latitude":"34.6723847","Longitude":"32.8982535","Name":"26th Road"},{"Latitude":"34.6899008","Longitude":"33.0133447","Name":"26th Street"},{"Latitude":"34.6668620","Longitude":"32.9069961","Name":"27th Street"},{"Latitude":"35.1822836","Longitude":"33.3560740","Name":"28 Kasım Sokak"},{"Latitude":"35.1122870","Longitude":"33.9469115","Name":"28 Octovriou"},{"Latitude":"34.6807407","Longitude":"33.0541363","Name":"28 Oktovriou"},{"Latitude":"35.1093049","Longitude":"33.9362589","Name":"28. Tümen Caddesi"},{"Latitude":"34.9539482","Longitude":"33.5976654","Name":"28Th Oktovrou Avenue"},{"Latitude":"34.9105389","Longitude":"33.6312640","Name":"28is Oktovriou Street"},{"Latitude":"34.9910709","Longitude":"33.7829044","Name":"28th Martiou"},{"Latitude":"35.0518751","Longitude":"33.3936672","Name":"28th October"},{"Latitude":"35.1625345","Longitude":"33.3176158","Name":"28th October Avenue"},{"Latitude":"34.7430901","Longitude":"33.1603918","Name":"28th Octovirou"},{"Latitude":"35.0212301","Longitude":"33.7462931","Name":"28th Oktovirou"},{"Latitude":"34.9788582","Longitude":"33.8507110","Name":"28th Oktovriou"},{"Latitude":"34.7974526","Longitude":"32.4316540","Name":"28th Oktroviou"},{"Latitude":"34.6887951","Longitude":"33.0129648","Name":"28th Street"},{"Latitude":"35.3741640","Longitude":"33.7538886","Name":"29 Ekim Sokak"},{"Latitude":"34.6879751","Longitude":"33.0127540","Name":"29th Road"},{"Latitude":"34.6731270","Longitude":"32.8986015","Name":"29th Street"},{"Latitude":"34.6898563","Longitude":"32.9987829","Name":"2nd Street"},{"Latitude":"35.1134469","Longitude":"33.9507478","Name":"3 Oktovriou"},{"Latitude":"35.1469896","Longitude":"33.9029402","Name":"3. Cadde"},{"Latitude":"35.1468670","Longitude":"33.9001435","Name":"3. Sokak"},{"Latitude":"34.6888831","Longitude":"33.0114371","Name":"30th Street"},{"Latitude":"34.6725243","Longitude":"32.9059592","Name":"31st Street"},{"Latitude":"34.6898369","Longitude":"33.0121079","Name":"32nd Street"},{"Latitude":"34.6897438","Longitude":"33.0120758","Name":"33rd Street"},{"Latitude":"34.6893918","Longitude":"33.0098787","Name":"34th Street"},{"Latitude":"34.6805804","Longitude":"32.9991210","Name":"35th Street"},{"Latitude":"34.6816939","Longitude":"32.9987987","Name":"36th Street"},{"Latitude":"34.6844931","Longitude":"32.9995290","Name":"37th Street"},{"Latitude":"34.6835943","Longitude":"32.9998712","Name":"38th Street"},{"Latitude":"35.1129987","Longitude":"33.9348733","Name":"39. Tümen Caddesi"},{"Latitude":"34.6827406","Longitude":"33.0001662","Name":"39th Street"},{"Latitude":"34.6934996","Longitude":"32.9979665","Name":"3rd Street"},{"Latitude":"35.0132486","Longitude":"33.7463285","Name":"3st Avgoustou"},{"Latitude":"35.1475230","Longitude":"33.9001765","Name":"4. Sokak"},{"Latitude":"34.6820464","Longitude":"32.9985711","Name":"41st Street"},{"Latitude":"35.0472614","Longitude":"34.0205186","Name":"42"},{"Latitude":"34.6818169","Longitude":"32.9976419","Name":"42nd Street"},{"Latitude":"34.6812529","Longitude":"32.9996531","Name":"45th Street"},{"Latitude":"34.6806139","Longitude":"32.9978744","Name":"47th Street"},{"Latitude":"34.6791350","Longitude":"32.9997002","Name":"49th Street"},{"Latitude":"34.6677073","Longitude":"32.9054684","Name":"4th Road"},{"Latitude":"35.1481450","Longitude":"33.8984150","Name":"5. Sokak"},{"Latitude":"34.6804332","Longitude":"32.9985590","Name":"51st Street"},{"Latitude":"34.6779989","Longitude":"33.0020238","Name":"52nd Street"},{"Latitude":"34.6942421","Longitude":"32.9959603","Name":"55th Street"},{"Latitude":"34.6966472","Longitude":"32.9896698","Name":"56th Street"},{"Latitude":"34.6958269","Longitude":"32.9895488","Name":"57th Street"},{"Latitude":"34.6963780","Longitude":"32.9897022","Name":"58th Street"},{"Latitude":"34.6964016","Longitude":"32.9903518","Name":"59th Street"},{"Latitude":"34.6667610","Longitude":"32.9057519","Name":"5th Street"},{"Latitude":"35.1488336","Longitude":"33.8983024","Name":"6. Sokak"},{"Latitude":"34.6966991","Longitude":"32.9925618","Name":"62nd Stret"},{"Latitude":"34.6680129","Longitude":"32.9071567","Name":"6th Road"},{"Latitude":"34.6937619","Longitude":"32.9963010","Name":"6th Street"},{"Latitude":"35.1494315","Longitude":"33.8982047","Name":"7. Sokak"},{"Latitude":"34.6897541","Longitude":"33.0148909","Name":"71 Street"},{"Latitude":"34.6905505","Longitude":"33.0146163","Name":"72nd Street"},{"Latitude":"34.6802417","Longitude":"32.9971874","Name":"73rd Street"},{"Latitude":"34.6893608","Longitude":"33.0150932","Name":"74th street"},{"Latitude":"34.6699176","Longitude":"32.9067729","Name":"7th Road"},{"Latitude":"34.6919249","Longitude":"32.9955168","Name":"7th Street"},{"Latitude":"35.2196276","Longitude":"33.3711325","Name":"8 Mart Sokak"},{"Latitude":"35.2147655","Longitude":"33.3404517","Name":"8. Sokak"},{"Latitude":"34.6816900","Longitude":"33.0084016","Name":"82nd Street"},{"Latitude":"34.6832780","Longitude":"33.0071098","Name":"83rd Street"},{"Latitude":"35.2158670","Longitude":"33.2954001","Name":"86 Çıkmazı Sokak"},{"Latitude":"34.6817640","Longitude":"33.0053276","Name":"89th Street"},{"Latitude":"34.6616695","Longitude":"32.9111516","Name":"8th Street"},{"Latitude":"35.2595998","Longitude":"33.7340308","Name":"9 Eylül Sokak"},{"Latitude":"34.9536420","Longitude":"33.5894806","Name":"9 Iouliou"},{"Latitude":"35.1062788","Longitude":"33.9398184","Name":"9 Mart Caddesi"},{"Latitude":"35.1841456","Longitude":"33.3528323","Name":"9. Eylül Sokak"},{"Latitude":"35.1441627","Longitude":"33.9020370","Name":"9. Sokak"},{"Latitude":"34.6791224","Longitude":"33.0060774","Name":"93rd Street"},{"Latitude":"34.6778989","Longitude":"33.0063693","Name":"97th Street"},{"Latitude":"34.9288967","Longitude":"33.6324102","Name":"9is Iouliou Street"},{"Latitude":"34.9442436","Longitude":"33.6434479","Name":"9th Iouliou"},{"Latitude":"34.7775263","Longitude":"32.4198311","Name":"9th March Square"},{"Latitude":"34.6669765","Longitude":"32.9019939","Name":"9th Road"},{"Latitude":"34.6847870","Longitude":"32.9900085","Name":"9th Street"},{"Latitude":"34.7853903","Longitude":"32.4430051","Name":"A, Assioti"},{"Latitude":"35.1617352","Longitude":"33.3317992","Name":"A. Avraamidi Street"},{"Latitude":"35.2049302","Longitude":"33.3280829","Name":"A. Burhan Kadizade Sokak"},{"Latitude":"34.7119930","Longitude":"33.0652207","Name":"A. Ch. Sofokleous"},{"Latitude":"34.8008298","Longitude":"32.4091692","Name":"A. Charalambous"},{"Latitude":"34.7136294","Longitude":"33.0681562","Name":"A. Diamanti"},{"Latitude":"34.7957577","Longitude":"32.4157497","Name":"A. Elica"},{"Latitude":"35.2108270","Longitude":"33.3372192","Name":"A. Hulusi Hacı Bulgur Sokak"},{"Latitude":"34.9990152","Longitude":"33.7561309","Name":"A. Karkavtsa"},{"Latitude":"35.0592752","Longitude":"33.5427281","Name":"A. Karyou"},{"Latitude":"34.6674823","Longitude":"33.0191597","Name":"A. Kroize"},{"Latitude":"34.7612326","Longitude":"32.4657436","Name":"A. Lambrianou"},{"Latitude":"34.6899652","Longitude":"32.9975216","Name":"A. Londou"},{"Latitude":"35.0642758","Longitude":"33.5383333","Name":"A. Louka"},{"Latitude":"34.7849464","Longitude":"32.4236670","Name":"A. Mplaki"},{"Latitude":"35.0551454","Longitude":"33.5467263","Name":"A. Panagidi"},{"Latitude":"34.8688088","Longitude":"32.3757845","Name":"A. Papandreou Avenue"},{"Latitude":"35.1580953","Longitude":"33.3691547","Name":"A. Paraskevas Street"},{"Latitude":"34.6899781","Longitude":"32.9957860","Name":"A. Pavia Street"},{"Latitude":"35.1591394","Longitude":"33.3273328","Name":"A. Pavlidi Street"},{"Latitude":"35.2088160","Longitude":"33.3465055","Name":"A. Rifat Şener Sokak"},{"Latitude":"34.6763855","Longitude":"32.9956505","Name":"A. Ritaou"},{"Latitude":"34.6526966","Longitude":"32.9995837","Name":"A. Tassou"},{"Latitude":"34.9500886","Longitude":"33.6280230","Name":"A. Tsapalestra"},{"Latitude":"35.1600327","Longitude":"33.3430863","Name":"A. Zakou Street"},{"Latitude":"35.1308637","Longitude":"33.1833437","Name":"AKROPOLEOS"},{"Latitude":"34.7117754","Longitude":"32.5317164","Name":"ARTEMIS SOMARAKIS STREET"},{"Latitude":"35.1905695","Longitude":"33.1006405","Name":"ATATÜRK CADDESİ"},{"Latitude":"35.0662809","Longitude":"33.5418147","Name":"AVENUE GEORGIOU GRIVA DIGENI"},{"Latitude":"35.1429778","Longitude":"33.9147730","Name":"Abajur Sokak"},{"Latitude":"35.1352521","Longitude":"33.9143913","Name":"Abant Sokak"},{"Latitude":"35.1855861","Longitude":"33.3592581","Name":"Abdi İpekçi Caddesi"},{"Latitude":"35.1806702","Longitude":"33.3632682","Name":"Abdiçavuş Sokak"},{"Latitude":"35.1827331","Longitude":"33.3707859","Name":"Abdullah Parla Sokak"},{"Latitude":"35.1242347","Longitude":"33.9390100","Name":"Abdullah Pasa Sokak"},{"Latitude":"35.1335174","Longitude":"33.9260079","Name":"Abide Bayram Sokak"},{"Latitude":"34.6775163","Longitude":"33.0204305","Name":"Abraam Linkoln"},{"Latitude":"34.6574620","Longitude":"33.0136760","Name":"Abrosinis Street"},{"Latitude":"35.1576901","Longitude":"33.8951637","Name":"Acaroğlu Sokak"},{"Latitude":"35.2148055","Longitude":"33.2902680","Name":"Acelya Sokak"},{"Latitude":"34.7973479","Longitude":"32.4149571","Name":"Ach. Charalambous"},{"Latitude":"34.9353615","Longitude":"33.6266128","Name":"Achaias"},{"Latitude":"35.1689498","Longitude":"33.3452621","Name":"Achaion"},{"Latitude":"35.1650554","Longitude":"33.3438473","Name":"Achaion Akti"},{"Latitude":"34.9429620","Longitude":"33.5871477","Name":"Achaion Street"},{"Latitude":"34.6695932","Longitude":"32.9941921","Name":"Acharnon"},{"Latitude":"34.9193396","Longitude":"33.6153364","Name":"Acharnon Street"},{"Latitude":"34.9780546","Longitude":"33.6797102","Name":"Achaïas Street"},{"Latitude":"35.1643339","Longitude":"33.3857314","Name":"Acheiropoiitou"},{"Latitude":"34.9505892","Longitude":"33.5846116","Name":"Achellou Street"},{"Latitude":"34.7072199","Longitude":"33.0163251","Name":"Acheloou"},{"Latitude":"35.1554258","Longitude":"33.3880974","Name":"Acheloou Street"},{"Latitude":"34.6772914","Longitude":"32.6157169","Name":"Acheon Ave."},{"Latitude":"34.7902374","Longitude":"32.4424254","Name":"Achepans"},{"Latitude":"35.0718041","Longitude":"33.3860823","Name":"Acheritou"},{"Latitude":"35.0984818","Longitude":"33.3510322","Name":"Acheronos"},{"Latitude":"35.1666337","Longitude":"33.3956677","Name":"Acheronos Street"},{"Latitude":"34.9934882","Longitude":"33.7779566","Name":"Achiepiep Markaro III"},{"Latitude":"34.7493034","Longitude":"32.4648871","Name":"Achileos"},{"Latitude":"34.6774858","Longitude":"32.6131165","Name":"Achillea"},{"Latitude":"35.1445397","Longitude":"33.3014978","Name":"Achillea Achilleous"},{"Latitude":"34.7164185","Longitude":"33.0388230","Name":"Achillea Lympourides"},{"Latitude":"35.1734295","Longitude":"33.3430053","Name":"Achillea Parasxou"},{"Latitude":"34.8193992","Longitude":"32.4040384","Name":"Achillea Proxenou"},{"Latitude":"34.7132530","Longitude":"33.0583231","Name":"Achillea Pylioti"},{"Latitude":"35.0588227","Longitude":"33.9600779","Name":"Achillea Street"},{"Latitude":"35.1215500","Longitude":"33.3810531","Name":"Achilleos"},{"Latitude":"34.9371578","Longitude":"33.6278092","Name":"Achilleos Kourtelli"},{"Latitude":"35.1611225","Longitude":"33.3588614","Name":"Achilleos Kyrou"},{"Latitude":"35.1863171","Longitude":"33.3786803","Name":"Achilleos Street"},{"Latitude":"34.6823869","Longitude":"32.9412636","Name":"Achinas Street"},{"Latitude":"34.8189341","Longitude":"32.4091474","Name":"Achirona"},{"Latitude":"34.6998816","Longitude":"33.0682778","Name":"Achyronos Liopetriou"},{"Latitude":"35.2073684","Longitude":"33.3163364","Name":"Aci Badem Sokak"},{"Latitude":"35.3053530","Longitude":"33.3554005","Name":"Aci Limon Sokak"},{"Latitude":"35.2115242","Longitude":"33.3005625","Name":"Acisu Sokak"},{"Latitude":"35.1627526","Longitude":"33.3208647","Name":"Acropoleos"},{"Latitude":"34.6015048","Longitude":"32.9554177","Name":"Acropolis"},{"Latitude":"35.1375584","Longitude":"33.9276546","Name":"Acun Sokak"},{"Latitude":"35.2153189","Longitude":"33.3139407","Name":"Acıpınar Sokak"},{"Latitude":"34.8722019","Longitude":"33.5841697","Name":"Ad. Korai"},{"Latitude":"35.1063786","Longitude":"33.3921612","Name":"Ad. Papantoniou"},{"Latitude":"35.1604851","Longitude":"33.8923117","Name":"Ada Sokak"},{"Latitude":"35.1097494","Longitude":"33.9302546","Name":"Adalar Sokak"},{"Latitude":"35.3338698","Longitude":"33.3271233","Name":"Adalet Sokak"},{"Latitude":"35.2132365","Longitude":"33.3753297","Name":"Adalı Sokak"},{"Latitude":"34.6809333","Longitude":"33.0041440","Name":"Adamantiou Adamantiou"},{"Latitude":"34.7826285","Longitude":"32.4632960","Name":"Adamantiou Korae"},{"Latitude":"34.7710062","Longitude":"32.4162170","Name":"Adamantiou Korai"},{"Latitude":"34.9453842","Longitude":"33.5924805","Name":"Adamantiou Korai Street"},{"Latitude":"35.1030465","Longitude":"33.2968691","Name":"Adamantos"},{"Latitude":"35.0655181","Longitude":"33.9598201","Name":"Adamou Adamantos"},{"Latitude":"34.8727496","Longitude":"33.5888167","Name":"Adamou Adamou Street"},{"Latitude":"35.1496457","Longitude":"33.4074031","Name":"Adamou Christofi"},{"Latitude":"34.7122844","Longitude":"33.0658913","Name":"Adamou Sofokleous"},{"Latitude":"35.0507765","Longitude":"34.0149833","Name":"Adams Gardens"},{"Latitude":"35.1790998","Longitude":"33.3617622","Name":"Adana Sokak"},{"Latitude":"34.6761806","Longitude":"32.9965554","Name":"Adas"},{"Latitude":"35.1127097","Longitude":"33.9407317","Name":"Adatepe Sokak"},{"Latitude":"35.0713597","Longitude":"33.3894601","Name":"Adelfis Nos. Fetta"},{"Latitude":"34.7076501","Longitude":"33.0349382","Name":"Adelfis Terezas"},{"Latitude":"35.1213091","Longitude":"33.9176981","Name":"Adem Kemal Sokak"},{"Latitude":"35.3748856","Longitude":"33.7517139","Name":"Adem Yavuz Sokak"},{"Latitude":"35.3738242","Longitude":"33.7520405","Name":"Adem Yavuz sokak"},{"Latitude":"35.1477731","Longitude":"33.3200741","Name":"Adgias Paraskevis"},{"Latitude":"35.1651278","Longitude":"33.8849745","Name":"Adil Akil Sokak"},{"Latitude":"34.6747119","Longitude":"33.0091107","Name":"Aditis"},{"Latitude":"35.1764624","Longitude":"33.3933710","Name":"Admitou"},{"Latitude":"34.9376689","Longitude":"33.6328937","Name":"Admitou Street"},{"Latitude":"35.3254591","Longitude":"33.3903209","Name":"Adnan Menderes Sokak"},{"Latitude":"35.3303535","Longitude":"33.3077425","Name":"Adnan Meneres Sokak"},{"Latitude":"34.7248380","Longitude":"33.1400710","Name":"Adoni"},{"Latitude":"35.1598889","Longitude":"33.3062621","Name":"Adoni Theocharidi"},{"Latitude":"34.6786320","Longitude":"33.0231830","Name":"Adonidos"},{"Latitude":"34.9124089","Longitude":"33.6322223","Name":"Adonidos Street"},{"Latitude":"34.6900465","Longitude":"32.6222183","Name":"Adonis"},{"Latitude":"34.8769183","Longitude":"32.3665137","Name":"Adonis Street"},{"Latitude":"34.7147708","Longitude":"33.0203411","Name":"Adrastou"},{"Latitude":"34.8094660","Longitude":"32.4246124","Name":"Adrea Tollopou"},{"Latitude":"35.1076703","Longitude":"33.3109647","Name":"Adrianou"},{"Latitude":"34.9316809","Longitude":"33.6086819","Name":"Adrianoupoleos Street"},{"Latitude":"35.1371694","Longitude":"33.9196419","Name":"Adsız Asker Sokak"},{"Latitude":"35.2023424","Longitude":"33.3499337","Name":"Adım Sokak"},{"Latitude":"34.6664179","Longitude":"33.0024154","Name":"Aedonion"},{"Latitude":"34.9348944","Longitude":"33.6155354","Name":"Aedonon"},{"Latitude":"34.6970213","Longitude":"33.0247971","Name":"Aegeos"},{"Latitude":"35.1476713","Longitude":"33.3288536","Name":"Aeropis"},{"Latitude":"35.0386615","Longitude":"33.9792483","Name":"Aeschylou"},{"Latitude":"35.1736999","Longitude":"33.3641262","Name":"Aeschylus Street"},{"Latitude":"34.9155645","Longitude":"33.6357921","Name":"Aetha 30 Street"},{"Latitude":"34.6663099","Longitude":"33.0018734","Name":"Aetionos"},{"Latitude":"34.7146776","Longitude":"33.0196791","Name":"Aetiou"},{"Latitude":"35.1185996","Longitude":"33.3106933","Name":"Aeton"},{"Latitude":"34.7111067","Longitude":"33.0464507","Name":"Aetou"},{"Latitude":"34.6994237","Longitude":"33.0685326","Name":"Afami"},{"Latitude":"35.1231734","Longitude":"33.3332365","Name":"Afaneias"},{"Latitude":"34.7222946","Longitude":"33.0603846","Name":"Afanias"},{"Latitude":"35.1138446","Longitude":"33.3289262","Name":"Afanteias"},{"Latitude":"34.7167692","Longitude":"33.0154295","Name":"Afenrikas"},{"Latitude":"35.1775854","Longitude":"33.3383754","Name":"Afentrikas"},{"Latitude":"34.9288341","Longitude":"33.6346768","Name":"Afentrikas Street"},{"Latitude":"34.7037582","Longitude":"33.0041924","Name":"Afoplismou"},{"Latitude":"34.6882477","Longitude":"32.9750231","Name":"Afrikis"},{"Latitude":"34.7883065","Longitude":"32.4621266","Name":"Afrodites"},{"Latitude":"35.1040119","Longitude":"33.2869552","Name":"Afroditis"},{"Latitude":"34.7083446","Longitude":"33.1204148","Name":"Afroditis Amathousias"},{"Latitude":"34.6791424","Longitude":"33.0279994","Name":"Afstralias"},{"Latitude":"35.1509203","Longitude":"33.3250791","Name":"Afstrias"},{"Latitude":"34.9217587","Longitude":"33.6207924","Name":"Aftkratiras Theodoras"},{"Latitude":"35.1597512","Longitude":"33.3182815","Name":"Aftograteiras Theodoras"},{"Latitude":"34.6774200","Longitude":"33.0481329","Name":"Aftokrateiras Eirinis"},{"Latitude":"35.1730456","Longitude":"33.3277477","Name":"Aftokrateiras Theodoras"},{"Latitude":"34.7895867","Longitude":"32.4308798","Name":"Aftokratiras Theodoras"},{"Latitude":"34.6740945","Longitude":"32.9382359","Name":"Aftokratiras Theodoras Street"},{"Latitude":"35.1590325","Longitude":"33.3163827","Name":"Aftokratoros Ioustinianou"},{"Latitude":"34.9116211","Longitude":"33.6231421","Name":"Aftokratoros Irakleiou"},{"Latitude":"35.1727809","Longitude":"33.3282160","Name":"Aftokratoros Theofilou"},{"Latitude":"35.1461159","Longitude":"33.3717791","Name":"Ag. Aikaterinis"},{"Latitude":"34.7463123","Longitude":"33.3641087","Name":"Ag. Anargiron"},{"Latitude":"35.0663153","Longitude":"33.3824102","Name":"Ag. Anasatias"},{"Latitude":"35.0691520","Longitude":"33.3972759","Name":"Ag. Anasstasiou"},{"Latitude":"35.0353331","Longitude":"32.4239691","Name":"Ag. Andrikonou"},{"Latitude":"35.0703021","Longitude":"33.3967593","Name":"Ag. Annas"},{"Latitude":"35.1544378","Longitude":"33.3747965","Name":"Ag. Antonou"},{"Latitude":"34.7780869","Longitude":"32.4145336","Name":"Ag. Avgoustinou"},{"Latitude":"35.0654166","Longitude":"33.3815808","Name":"Ag. Christinas"},{"Latitude":"34.9250184","Longitude":"33.5918800","Name":"Ag. Chrysostomou Street"},{"Latitude":"34.8828886","Longitude":"32.3850908","Name":"Ag. Dimthtriou"},{"Latitude":"35.0807350","Longitude":"33.3888152","Name":"Ag. Efstathiou"},{"Latitude":"34.6946216","Longitude":"32.9608496","Name":"Ag. Ekaterinis Street"},{"Latitude":"35.0682777","Longitude":"33.3888882","Name":"Ag. Eleftheriou"},{"Latitude":"35.1721661","Longitude":"33.3851351","Name":"Ag. Ermolaou"},{"Latitude":"34.7603437","Longitude":"32.4156949","Name":"Ag. Faneromenis"},{"Latitude":"35.0281047","Longitude":"32.4167694","Name":"Ag. Georgiou"},{"Latitude":"35.0287295","Longitude":"32.4173894","Name":"Ag. Gergiou"},{"Latitude":"35.0231117","Longitude":"33.7480201","Name":"Ag. Ioan Prodromou"},{"Latitude":"34.6855365","Longitude":"32.9600894","Name":"Ag. Kassianou Street"},{"Latitude":"35.0677920","Longitude":"33.3922348","Name":"Ag. Kiriakis"},{"Latitude":"35.0712296","Longitude":"33.3859914","Name":"Ag. Konstinantou & Elenis"},{"Latitude":"35.0361220","Longitude":"32.4232531","Name":"Ag. Kyriakis"},{"Latitude":"35.0710473","Longitude":"33.3871757","Name":"Ag. Lazariou"},{"Latitude":"35.0668168","Longitude":"33.9538847","Name":"Ag. Louka Street"},{"Latitude":"34.6890994","Longitude":"32.9577818","Name":"Ag. Neofytou Street"},{"Latitude":"34.7806020","Longitude":"32.4212240","Name":"Ag. Neophytou"},{"Latitude":"35.0723605","Longitude":"33.3841628","Name":"Ag. Nikolaou"},{"Latitude":"34.8881927","Longitude":"32.3798087","Name":"Ag. Prokopiou"},{"Latitude":"35.0597493","Longitude":"33.9632633","Name":"Ag. Rafail Street"},{"Latitude":"34.7699820","Longitude":"32.4488477","Name":"Ag. Raphael"},{"Latitude":"34.8727805","Longitude":"33.5902913","Name":"Ag. Sofias"},{"Latitude":"35.0745781","Longitude":"33.3913713","Name":"Ag. Sofraniou"},{"Latitude":"35.0661333","Longitude":"33.3893455","Name":"Ag. Spiridonos"},{"Latitude":"35.0360420","Longitude":"33.9794001","Name":"Ag. Spyridonos"},{"Latitude":"34.6887589","Longitude":"32.9593763","Name":"Ag. Spyridonos Street"},{"Latitude":"35.0586054","Longitude":"33.9657008","Name":"Ag. Stylianou Street"},{"Latitude":"35.0706428","Longitude":"33.3854943","Name":"Ag. Symeon"},{"Latitude":"35.0644164","Longitude":"33.3838948","Name":"Ag. Theodosias"},{"Latitude":"35.0716861","Longitude":"33.3965231","Name":"Ag. Therissou"},{"Latitude":"35.0682792","Longitude":"33.3969815","Name":"Ag. Triados"},{"Latitude":"35.1779980","Longitude":"33.3625911","Name":"Agah Efendi Sokak"},{"Latitude":"34.8562960","Longitude":"32.3790880","Name":"Agailousas"},{"Latitude":"35.1471375","Longitude":"33.3317940","Name":"Agaiou"},{"Latitude":"34.9552923","Longitude":"33.6469980","Name":"Agairstis"},{"Latitude":"34.6947079","Longitude":"32.9856000","Name":"Agallianou Street"},{"Latitude":"35.0577837","Longitude":"33.9669955","Name":"Agamemnona Street"},{"Latitude":"35.1564230","Longitude":"33.3864312","Name":"Agamemnonos"},{"Latitude":"35.0257051","Longitude":"33.9353352","Name":"Agamemnonos Street"},{"Latitude":"34.7082380","Longitude":"33.0047644","Name":"Aganipis"},{"Latitude":"34.7541638","Longitude":"32.4583488","Name":"Agapinoros"},{"Latitude":"34.6837533","Longitude":"32.5910529","Name":"Agapinoros Avenue"},{"Latitude":"34.7671599","Longitude":"32.4191677","Name":"Agapinoros Street"},{"Latitude":"34.7979166","Longitude":"32.4325975","Name":"Agapiou Aristodimou"},{"Latitude":"34.8817577","Longitude":"32.3769201","Name":"Agapiou Zakka"},{"Latitude":"35.1123245","Longitude":"33.3908087","Name":"Agapis"},{"Latitude":"34.6577288","Longitude":"33.0100492","Name":"Agaristis"},{"Latitude":"34.6830741","Longitude":"32.9438424","Name":"Agastina Street"},{"Latitude":"35.1235883","Longitude":"33.3321825","Name":"Agastinas"},{"Latitude":"34.7136675","Longitude":"32.5731457","Name":"Agathangelou Christodoulou"},{"Latitude":"35.1102567","Longitude":"33.3306275","Name":"Agatharchou"},{"Latitude":"34.7225627","Longitude":"32.5653820","Name":"Agathocleous Avenue"},{"Latitude":"34.6780289","Longitude":"32.9605176","Name":"Agathodorou Chatzikyriakou"},{"Latitude":"35.1542679","Longitude":"33.3554417","Name":"Agathokleous"},{"Latitude":"35.1542679","Longitude":"33.3554417","Name":"Agathonos"},{"Latitude":"34.9393722","Longitude":"33.6189564","Name":"Agathonos Street"},{"Latitude":"34.6628513","Longitude":"33.0068696","Name":"Agchistou"},{"Latitude":"34.6564816","Longitude":"33.0056892","Name":"Agelaou"},{"Latitude":"34.7600250","Longitude":"32.4289062","Name":"Aggelikis Paschalidou"},{"Latitude":"34.9345617","Longitude":"33.6272979","Name":"Aggelon"},{"Latitude":"34.9061182","Longitude":"33.5795707","Name":"Aggelon Street"},{"Latitude":"34.9957770","Longitude":"32.5120723","Name":"Aggelou Georgiou"},{"Latitude":"34.8367988","Longitude":"32.4465221","Name":"Aggelou Sikelianou"},{"Latitude":"34.7171152","Longitude":"33.0736274","Name":"Aggelou Sikelianou Street"},{"Latitude":"34.7672312","Longitude":"32.4124213","Name":"Aggelou Sykelianou"},{"Latitude":"35.1622664","Longitude":"33.3914892","Name":"AgiAs Sofias"},{"Latitude":"34.8099312","Longitude":"32.4213676","Name":"Agia Eirini"},{"Latitude":"34.7980300","Longitude":"32.4241783","Name":"Agia Marina"},{"Latitude":"34.9814616","Longitude":"33.9268885","Name":"Agia Theckla Cottages"},{"Latitude":"34.7972461","Longitude":"32.4261039","Name":"Agia Varvara"},{"Latitude":"34.8239191","Longitude":"32.3993061","Name":"Agias"},{"Latitude":"35.1071565","Longitude":"33.3881661","Name":"Agias  Theklis"},{"Latitude":"35.1434625","Longitude":"33.3160293","Name":"Agias Agapis"},{"Latitude":"35.1463349","Longitude":"33.3204271","Name":"Agias Agathis"},{"Latitude":"35.0662202","Longitude":"33.3813945","Name":"Agias Aikaterinis"},{"Latitude":"34.8367333","Longitude":"32.4307491","Name":"Agias Akaterinis"},{"Latitude":"34.9244099","Longitude":"33.5849677","Name":"Agias Amastasias Street"},{"Latitude":"35.1473972","Longitude":"33.3200686","Name":"Agias Anastasias"},{"Latitude":"35.1159606","Longitude":"33.2280330","Name":"Agias Annas"},{"Latitude":"34.8778180","Longitude":"32.3769635","Name":"Agias Annias"},{"Latitude":"34.7598552","Longitude":"32.4265780","Name":"Agias Annis"},{"Latitude":"34.6796439","Longitude":"33.0199528","Name":"Agias Barbaras"},{"Latitude":"35.1871873","Longitude":"33.3793892","Name":"Agias Barvaras"},{"Latitude":"34.9226932","Longitude":"33.5854461","Name":"Agias Christinas Street"},{"Latitude":"34.7205002","Longitude":"33.0833302","Name":"Agias Christinis Street"},{"Latitude":"34.6669437","Longitude":"32.9294447","Name":"Agias Ecaterinis"},{"Latitude":"35.1153718","Longitude":"33.3315058","Name":"Agias Eftchias"},{"Latitude":"34.9455623","Longitude":"33.6000879","Name":"Agias Eftichias Street"},{"Latitude":"34.7136392","Longitude":"33.1144573","Name":"Agias Eirinis"},{"Latitude":"34.9049271","Longitude":"33.5894220","Name":"Agias Eirinis Street"},{"Latitude":"34.6844662","Longitude":"33.0222083","Name":"Agias Elenis"},{"Latitude":"35.0613567","Longitude":"33.9651921","Name":"Agias Elenis Street"},{"Latitude":"35.1330619","Longitude":"33.3025407","Name":"Agias Faneromenis"},{"Latitude":"34.7033390","Longitude":"33.0275204","Name":"Agias Filaxeos"},{"Latitude":"35.1500067","Longitude":"33.3811802","Name":"Agias Filotheis"},{"Latitude":"35.0995900","Longitude":"33.3724946","Name":"Agias Fotinis"},{"Latitude":"35.0489028","Longitude":"33.9577694","Name":"Agias Fotinis Street"},{"Latitude":"34.7602546","Longitude":"32.4107474","Name":"Agias Galatianis"},{"Latitude":"34.7272941","Longitude":"33.0675657","Name":"Agias Galinis"},{"Latitude":"35.1467051","Longitude":"33.3204313","Name":"Agias Grafis"},{"Latitude":"35.1153768","Longitude":"33.3290783","Name":"Agias Ioustinis"},{"Latitude":"34.7832878","Longitude":"32.4387773","Name":"Agias Irinis"},{"Latitude":"35.1548146","Longitude":"33.3158331","Name":"Agias Kasianis"},{"Latitude":"34.8773236","Longitude":"32.3920722","Name":"Agias Kassianis"},{"Latitude":"35.1760668","Longitude":"33.3419991","Name":"Agias Lavras"},{"Latitude":"34.7414471","Longitude":"33.1837275","Name":"Agias Marina"},{"Latitude":"35.0632747","Longitude":"33.9659410","Name":"Agias Marinas"},{"Latitude":"34.6843201","Longitude":"33.0412385","Name":"Agias Marinas Street"},{"Latitude":"35.1157803","Longitude":"33.3290644","Name":"Agias Markellas"},{"Latitude":"35.1059326","Longitude":"33.3796455","Name":"Agias Maton"},{"Latitude":"34.7255850","Longitude":"33.0681807","Name":"Agias Mavris"},{"Latitude":"34.8107397","Longitude":"32.4194835","Name":"Agias Napas"},{"Latitude":"35.0670847","Longitude":"33.3704183","Name":"Agias Olgas"},{"Latitude":"35.0288177","Longitude":"32.3867490","Name":"Agias Para."},{"Latitude":"34.7615998","Longitude":"32.9955223","Name":"Agias Paramythas"},{"Latitude":"35.1209188","Longitude":"33.2188332","Name":"Agias Paraskenis"},{"Latitude":"34.7193448","Longitude":"33.0989086","Name":"Agias Paraskevis"},{"Latitude":"34.8207249","Longitude":"33.3547213","Name":"Agias Paraskevis Street"},{"Latitude":"34.7249416","Longitude":"33.0147609","Name":"Agias Petroupolis"},{"Latitude":"34.9361508","Longitude":"33.6212777","Name":"Agias Photeinis"},{"Latitude":"34.9431258","Longitude":"33.5844446","Name":"Agias Pilis Street"},{"Latitude":"34.9977528","Longitude":"33.7643212","Name":"Agias Selomou"},{"Latitude":"35.1184654","Longitude":"33.2181526","Name":"Agias Sofias"},{"Latitude":"34.9510435","Longitude":"33.6306085","Name":"Agias Sofias Odos"},{"Latitude":"34.6884140","Longitude":"32.9590429","Name":"Agias Sofias Street"},{"Latitude":"34.7615324","Longitude":"32.4126574","Name":"Agias Solomonis"},{"Latitude":"34.7609333","Longitude":"32.4129047","Name":"Agias Solomonis Street"},{"Latitude":"34.6845942","Longitude":"33.0168319","Name":"Agias Sophias"},{"Latitude":"34.9761436","Longitude":"33.8962406","Name":"Agias Theklas"},{"Latitude":"35.1070830","Longitude":"33.3876456","Name":"Agias Theklis"},{"Latitude":"34.9351428","Longitude":"33.6234359","Name":"Agias Theklis Street"},{"Latitude":"35.0264101","Longitude":"33.9511308","Name":"Agias Thelklas Avenue"},{"Latitude":"35.1134422","Longitude":"33.3319540","Name":"Agias Theodoras"},{"Latitude":"35.1130087","Longitude":"33.3314980","Name":"Agias Theodosias"},{"Latitude":"34.8125679","Longitude":"32.4264743","Name":"Agias Triadas"},{"Latitude":"34.8647850","Longitude":"33.5903310","Name":"Agias Triadas Street"},{"Latitude":"35.0487404","Longitude":"34.0171912","Name":"Agias Triados"},{"Latitude":"34.9078618","Longitude":"33.5913554","Name":"Agias Triados Street"},{"Latitude":"34.8373751","Longitude":"32.4312612","Name":"Agias Varnavas"},{"Latitude":"34.7792045","Longitude":"33.3217602","Name":"Agias Varvaras"},{"Latitude":"34.8202415","Longitude":"33.3567613","Name":"Agias Varvaras Street"},{"Latitude":"35.1337765","Longitude":"33.3018560","Name":"Agias Varvars"},{"Latitude":"34.6752182","Longitude":"32.9990146","Name":"Agias Veronikis"},{"Latitude":"34.6905020","Longitude":"33.0446754","Name":"Agias Zonis"},{"Latitude":"35.0707726","Longitude":"33.9616230","Name":"Agias Zonis Street"},{"Latitude":"34.7211481","Longitude":"33.0836372","Name":"Agias christinis"},{"Latitude":"35.1797911","Longitude":"33.3364638","Name":"Agiasmatos"},{"Latitude":"34.6549942","Longitude":"33.0037306","Name":"Agidos"},{"Latitude":"34.9829673","Longitude":"33.7376886","Name":"Agincourt Lane"},{"Latitude":"34.7672290","Longitude":"32.4091504","Name":"Aginoros"},{"Latitude":"34.8745904","Longitude":"32.3754448","Name":"Agio Kosima"},{"Latitude":"34.9707238","Longitude":"33.8606674","Name":"AgioI Saranta"},{"Latitude":"34.9404856","Longitude":"33.5934253","Name":"Agioi Anargiroi Street"},{"Latitude":"34.9304895","Longitude":"33.6253339","Name":"Agion Anargiron"},{"Latitude":"35.1096110","Longitude":"33.3728432","Name":"Agion Anargyron"},{"Latitude":"34.8238669","Longitude":"33.3605191","Name":"Agion Anargyron Street"},{"Latitude":"35.1322062","Longitude":"33.3299885","Name":"Agion Apostolon"},{"Latitude":"34.9083609","Longitude":"33.6001432","Name":"Agion Apostolon Street"},{"Latitude":"34.6773845","Longitude":"32.9349102","Name":"Agion Kon/nou & Elenis Street"},{"Latitude":"34.6882815","Longitude":"32.9075263","Name":"Agion Konstantinou Kai"},{"Latitude":"35.1583368","Longitude":"33.3505990","Name":"Agion Omologiton Avenue"},{"Latitude":"34.6571022","Longitude":"32.9613117","Name":"Agion Panton"},{"Latitude":"34.9263149","Longitude":"33.5854232","Name":"Agion Panton Street"},{"Latitude":"34.7682912","Longitude":"32.4483784","Name":"Agion Pente"},{"Latitude":"34.7147495","Longitude":"33.1621215","Name":"Agion Saranta"},{"Latitude":"34.9206645","Longitude":"33.5867934","Name":"Agion Saranta Street"},{"Latitude":"35.1093584","Longitude":"33.3710652","Name":"Agion Theodoron"},{"Latitude":"34.6888574","Longitude":"32.9761968","Name":"Agion Theofanion"},{"Latitude":"34.8744795","Longitude":"32.3600553","Name":"Agiopetras"},{"Latitude":"35.0592711","Longitude":"32.8960425","Name":"Agios Andronikos Avenue"},{"Latitude":"34.8717933","Longitude":"32.3607329","Name":"Agios Georgios Avenue"},{"Latitude":"34.6565498","Longitude":"32.6991457","Name":"Agios Konstantinos"},{"Latitude":"34.7250713","Longitude":"33.1429052","Name":"Agios Nikolaos"},{"Latitude":"34.7138899","Longitude":"32.5278004","Name":"Agios Therapon"},{"Latitude":"34.7100995","Longitude":"32.5265304","Name":"Agios Vrionis"},{"Latitude":"34.9733958","Longitude":"33.8370919","Name":"Agiou  Dimitriou"},{"Latitude":"34.9786937","Longitude":"33.6512188","Name":"Agiou  Nikolaou"},{"Latitude":"35.1751477","Longitude":"33.3879111","Name":"Agiou  Nikolaou Street"},{"Latitude":"34.8777393","Longitude":"32.3868058","Name":"Agiou  Stylianou"},{"Latitude":"34.7787291","Longitude":"32.4134062","Name":"Agiou Afraim"},{"Latitude":"35.1393380","Longitude":"33.3165471","Name":"Agiou Afseviou"},{"Latitude":"34.9221097","Longitude":"33.5846571","Name":"Agiou Afxentiou Street"},{"Latitude":"35.1446727","Longitude":"33.3221585","Name":"Agiou Agapiou"},{"Latitude":"34.7629066","Longitude":"32.4150813","Name":"Agiou Agapitikou"},{"Latitude":"35.1458024","Longitude":"33.3238571","Name":"Agiou Aimilianou"},{"Latitude":"34.8749829","Longitude":"32.3857630","Name":"Agiou Akakiou"},{"Latitude":"35.1447139","Longitude":"33.3212307","Name":"Agiou Alexiou"},{"Latitude":"34.7038177","Longitude":"33.0760198","Name":"Agiou Ambrosiou"},{"Latitude":"34.8542933","Longitude":"33.4650359","Name":"Agiou Amvrosiou"},{"Latitude":"34.9051309","Longitude":"33.5884110","Name":"Agiou Amvrosiou Street"},{"Latitude":"34.6879942","Longitude":"32.9932916","Name":"Agiou Anargyron"},{"Latitude":"34.8769685","Longitude":"32.3706727","Name":"Agiou Anastasiou"},{"Latitude":"35.1713009","Longitude":"33.3347580","Name":"Agiou Andreou"},{"Latitude":"34.6760020","Longitude":"33.0470929","Name":"Agiou Andreou Street"},{"Latitude":"35.1346884","Longitude":"33.3658839","Name":"Agiou Andreous"},{"Latitude":"34.6781712","Longitude":"33.0347834","Name":"Agiou Andronikou"},{"Latitude":"34.8620177","Longitude":"33.5940064","Name":"Agiou Andronikou Street"},{"Latitude":"35.1447295","Longitude":"33.3193025","Name":"Agiou Anmvrosiou"},{"Latitude":"35.1202166","Longitude":"33.2348405","Name":"Agiou Antoniou"},{"Latitude":"34.7580759","Longitude":"32.4504580","Name":"Agiou Antreou"},{"Latitude":"35.1429675","Longitude":"33.3220362","Name":"Agiou Antypa"},{"Latitude":"34.8196730","Longitude":"32.4247855","Name":"Agiou Arseniou"},{"Latitude":"34.6868116","Longitude":"33.0364241","Name":"Agiou Artemiou"},{"Latitude":"34.9303179","Longitude":"33.6036577","Name":"Agiou Athanasiou"},{"Latitude":"34.6844793","Longitude":"32.9882341","Name":"Agiou Athinogenous"},{"Latitude":"34.6779422","Longitude":"32.9369455","Name":"Agiou Avgoustinou"},{"Latitude":"34.9104521","Longitude":"33.6170262","Name":"Agiou Charalambous"},{"Latitude":"34.8135004","Longitude":"32.4241905","Name":"Agiou Charalampous"},{"Latitude":"34.8071615","Longitude":"32.4211876","Name":"Agiou Chrisostomou"},{"Latitude":"35.1200619","Longitude":"33.2211124","Name":"Agiou Christoforou"},{"Latitude":"34.9074919","Longitude":"33.5961677","Name":"Agiou Chrysostomou Street"},{"Latitude":"35.1318730","Longitude":"33.3006057","Name":"Agiou Constantinou"},{"Latitude":"35.1420421","Longitude":"33.3169671","Name":"Agiou Damianou"},{"Latitude":"34.9285487","Longitude":"33.5891131","Name":"Agiou Daminoy Street"},{"Latitude":"35.1102928","Longitude":"33.3912518","Name":"Agiou Demetriou"},{"Latitude":"34.9257665","Longitude":"33.6270908","Name":"Agiou Demetriou Street"},{"Latitude":"34.7990034","Longitude":"32.4423706","Name":"Agiou Dimitiriou"},{"Latitude":"35.1142389","Longitude":"33.3144863","Name":"Agiou Dimitrianou"},{"Latitude":"35.1085393","Longitude":"33.3881404","Name":"Agiou Dimitriou"},{"Latitude":"35.1861198","Longitude":"33.3847876","Name":"Agiou Dimitriou Street"},{"Latitude":"35.1379187","Longitude":"33.3070391","Name":"Agiou Dimitrou"},{"Latitude":"34.7830477","Longitude":"32.4373517","Name":"Agiou Dionysiou"},{"Latitude":"34.7190052","Longitude":"33.0750945","Name":"Agiou Dionysiou Street"},{"Latitude":"34.9461574","Longitude":"33.6268407","Name":"Agiou Dometiou"},{"Latitude":"35.1427771","Longitude":"33.3175080","Name":"Agiou Dorotheou"},{"Latitude":"35.0047200","Longitude":"32.8024723","Name":"Agiou Efraim"},{"Latitude":"35.0659816","Longitude":"33.4017700","Name":"Agiou Efraim Street"},{"Latitude":"34.6659888","Longitude":"32.9341072","Name":"Agiou Efstathiou"},{"Latitude":"35.1401171","Longitude":"33.3147083","Name":"Agiou Efstratiou"},{"Latitude":"34.9498201","Longitude":"33.6028486","Name":"Agiou Efthimiou"},{"Latitude":"34.9073930","Longitude":"33.5938639","Name":"Agiou Efthymiou Street"},{"Latitude":"35.1398307","Longitude":"33.3152937","Name":"Agiou Eftychiou"},{"Latitude":"34.6951352","Longitude":"33.0119173","Name":"Agiou Eirinarchou"},{"Latitude":"35.1386102","Longitude":"33.3148755","Name":"Agiou Eleftheriou"},{"Latitude":"34.6700823","Longitude":"33.0285247","Name":"Agiou Eleftheriou Street"},{"Latitude":"34.7627081","Longitude":"32.4268915","Name":"Agiou Epifaniou"},{"Latitude":"34.7133514","Longitude":"33.0660591","Name":"Agiou Epiktitou"},{"Latitude":"35.1383653","Longitude":"33.3173513","Name":"Agiou Epiphaniou"},{"Latitude":"34.6887821","Longitude":"32.9788944","Name":"Agiou Ermogenous Street"},{"Latitude":"34.8084349","Longitude":"32.4219867","Name":"Agiou Ermolaou"},{"Latitude":"35.1391217","Longitude":"33.3170139","Name":"Agiou Evdokimou"},{"Latitude":"35.1396002","Longitude":"33.3173599","Name":"Agiou Evgeniou"},{"Latitude":"35.1393015","Longitude":"33.3395511","Name":"Agiou Evlaliou"},{"Latitude":"34.6964187","Longitude":"33.0740132","Name":"Agiou Fanouriou"},{"Latitude":"34.8831509","Longitude":"32.3857887","Name":"Agiou Filippou"},{"Latitude":"34.9499397","Longitude":"33.6023866","Name":"Agiou Filippou Street"},{"Latitude":"35.1777650","Longitude":"33.3373006","Name":"Agiou Filonos"},{"Latitude":"34.9401676","Longitude":"33.6079298","Name":"Agiou Foka"},{"Latitude":"34.7622193","Longitude":"32.4263721","Name":"Agiou Fotiou"},{"Latitude":"34.9228057","Longitude":"33.5869892","Name":"Agiou Fotiou Street"},{"Latitude":"34.9223271","Longitude":"33.6260020","Name":"Agiou Frankiskou Asizis"},{"Latitude":"34.7612030","Longitude":"32.4214677","Name":"Agiou Fylonos"},{"Latitude":"34.7587783","Longitude":"32.4212898","Name":"Agiou Gabriel"},{"Latitude":"35.1418107","Longitude":"33.3189871","Name":"Agiou Gavreil"},{"Latitude":"35.1425229","Longitude":"33.3286482","Name":"Agiou Gennadiou"},{"Latitude":"35.1040598","Longitude":"33.3823300","Name":"Agiou Georghiou"},{"Latitude":"34.7969947","Longitude":"32.4280283","Name":"Agiou Georgio"},{"Latitude":"34.6678202","Longitude":"32.9207509","Name":"Agiou Georgiou"},{"Latitude":"34.6776417","Longitude":"32.9454441","Name":"Agiou Georgiou Avenue"},{"Latitude":"34.9221650","Longitude":"33.6163302","Name":"Agiou Georgiou Kontou"},{"Latitude":"34.9141904","Longitude":"33.6109039","Name":"Agiou Georgiou Makri Street"},{"Latitude":"34.8214864","Longitude":"33.3588048","Name":"Agiou Georgiou Street"},{"Latitude":"35.0028450","Longitude":"32.5169665","Name":"Agiou Georgiou&Artemiou Monachou"},{"Latitude":"34.7833099","Longitude":"33.3221584","Name":"Agiou Geourgiou"},{"Latitude":"35.1429468","Longitude":"33.3189368","Name":"Agiou Gerasimou"},{"Latitude":"34.7830527","Longitude":"32.4378965","Name":"Agiou Gregoriou"},{"Latitude":"34.9222447","Longitude":"33.5872080","Name":"Agiou Grigoriou"},{"Latitude":"35.0939750","Longitude":"33.3828594","Name":"Agiou Grous"},{"Latitude":"34.9237655","Longitude":"33.6275288","Name":"Agiou Iacovou"},{"Latitude":"35.1764788","Longitude":"33.3677530","Name":"Agiou Iakobou"},{"Latitude":"34.7853060","Longitude":"32.4576457","Name":"Agiou Iakovou"},{"Latitude":"35.1369556","Longitude":"33.3150971","Name":"Agiou Ignatiou"},{"Latitude":"34.7165282","Longitude":"33.1106138","Name":"Agiou Ilariona"},{"Latitude":"35.1046267","Longitude":"33.3766250","Name":"Agiou Ilarionos"},{"Latitude":"34.9765624","Longitude":"33.6794474","Name":"Agiou Ilarionos Street"},{"Latitude":"35.1876362","Longitude":"33.3851627","Name":"Agiou Ilaririonos"},{"Latitude":"34.8716259","Longitude":"32.3635234","Name":"Agiou Ilia Street"},{"Latitude":"35.1366941","Longitude":"33.3156743","Name":"Agiou Ioakeim"},{"Latitude":"34.9247124","Longitude":"33.6238628","Name":"Agiou Ioanni"},{"Latitude":"34.9262820","Longitude":"33.6271531","Name":"Agiou Ioanni Chrysostomou"},{"Latitude":"34.7261876","Longitude":"33.1419401","Name":"Agiou Ioanni Eleimonos"},{"Latitude":"34.9232971","Longitude":"33.6237483","Name":"Agiou Ioanni Street"},{"Latitude":"35.0722799","Longitude":"33.3953964","Name":"Agiou Ioannou"},{"Latitude":"34.7859355","Longitude":"32.4395981","Name":"Agiou Ioannou Chrysostomou"},{"Latitude":"34.7038996","Longitude":"33.0454126","Name":"Agiou Ioannou Prodromou"},{"Latitude":"34.9425565","Longitude":"33.6217474","Name":"Agiou Ioannou Rossou"},{"Latitude":"34.9337140","Longitude":"33.6026930","Name":"Agiou Iosif"},{"Latitude":"35.1364916","Longitude":"33.3147713","Name":"Agiou Ioulianou"},{"Latitude":"35.1363558","Longitude":"33.3163606","Name":"Agiou Ioustinou"},{"Latitude":"34.9478373","Longitude":"32.4117602","Name":"Agiou Ipatiou"},{"Latitude":"34.7607448","Longitude":"32.4329180","Name":"Agiou Irakleidiou"},{"Latitude":"34.7599944","Longitude":"32.4251611","Name":"Agiou Isidorou"},{"Latitude":"34.8735820","Longitude":"32.3722652","Name":"Agiou Kalanti Street"},{"Latitude":"34.9440665","Longitude":"33.5934106","Name":"Agiou Kanouriou Street"},{"Latitude":"35.1771177","Longitude":"33.3692732","Name":"Agiou Kasianou"},{"Latitude":"34.9268025","Longitude":"33.5843499","Name":"Agiou Kasianou Street"},{"Latitude":"34.7764351","Longitude":"32.4205675","Name":"Agiou Kendea"},{"Latitude":"34.9137101","Longitude":"33.6096869","Name":"Agiou Kendeou"},{"Latitude":"34.9386862","Longitude":"33.5891817","Name":"Agiou Komstantinou Street"},{"Latitude":"34.8172694","Longitude":"32.4053469","Name":"Agiou Konona"},{"Latitude":"34.9941976","Longitude":"32.5082607","Name":"Agiou Konstantinou"},{"Latitude":"35.0623552","Longitude":"33.9635868","Name":"Agiou Konstantinou Street"},{"Latitude":"35.0394808","Longitude":"33.9787698","Name":"Agiou Korniliou"},{"Latitude":"35.1374405","Longitude":"33.3126231","Name":"Agiou Kosma"},{"Latitude":"34.8195602","Longitude":"32.3969588","Name":"Agiou Kournouta"},{"Latitude":"34.7627428","Longitude":"32.4116628","Name":"Agiou Lamprianou"},{"Latitude":"34.7613963","Longitude":"32.4349733","Name":"Agiou Lavrentiou"},{"Latitude":"35.0957829","Longitude":"33.3831651","Name":"Agiou Lazarou"},{"Latitude":"34.9120302","Longitude":"33.6344888","Name":"Agiou Lazarou Street"},{"Latitude":"34.6829149","Longitude":"33.0025240","Name":"Agiou Lianou"},{"Latitude":"34.6574044","Longitude":"32.9529848","Name":"Agiou Louka"},{"Latitude":"35.1099637","Longitude":"33.3917058","Name":"Agiou Mama"},{"Latitude":"35.0291763","Longitude":"33.9537513","Name":"Agiou Mama Street"},{"Latitude":"34.7626227","Longitude":"32.4186150","Name":"Agiou Mamantos"},{"Latitude":"34.8764122","Longitude":"32.3846596","Name":"Agiou Markou"},{"Latitude":"35.1733611","Longitude":"33.3580562","Name":"Agiou Marona"},{"Latitude":"34.6587449","Longitude":"33.0037625","Name":"Agiou Maronos"},{"Latitude":"35.1361445","Longitude":"33.3201955","Name":"Agiou Meletiou"},{"Latitude":"34.9068944","Longitude":"33.5929719","Name":"Agiou Meletiou Street"},{"Latitude":"34.6598962","Longitude":"32.9582276","Name":"Agiou Memnonos"},{"Latitude":"35.0705776","Longitude":"33.9611284","Name":"Agiou Memnonos Street"},{"Latitude":"34.9186605","Longitude":"33.6291174","Name":"Agiou Mesrop"},{"Latitude":"35.1351120","Longitude":"33.3149684","Name":"Agiou Methodiou"},{"Latitude":"34.6865347","Longitude":"33.0188892","Name":"Agiou Mina"},{"Latitude":"34.9082536","Longitude":"33.5981994","Name":"Agiou Mina Street"},{"Latitude":"34.7271240","Longitude":"33.1418037","Name":"Agiou Mnimoniou"},{"Latitude":"34.6856312","Longitude":"33.0100453","Name":"Agiou Myronos"},{"Latitude":"34.6804663","Longitude":"32.9372193","Name":"Agiou Nektariou"},{"Latitude":"34.8773290","Longitude":"32.3792864","Name":"Agiou Nektarou"},{"Latitude":"34.8022480","Longitude":"32.4228232","Name":"Agiou Neofitou"},{"Latitude":"35.1363480","Longitude":"33.3122175","Name":"Agiou Neofytou"},{"Latitude":"34.9382295","Longitude":"33.6248205","Name":"Agiou Neofytou Square"},{"Latitude":"34.7829581","Longitude":"32.4391084","Name":"Agiou Nicolaou"},{"Latitude":"34.6373539","Longitude":"32.9569879","Name":"Agiou Nikita"},{"Latitude":"34.9242351","Longitude":"33.5910386","Name":"Agiou Nikita Street"},{"Latitude":"34.6894979","Longitude":"32.9749449","Name":"Agiou Nikitas Street"},{"Latitude":"34.7788970","Longitude":"32.4623905","Name":"Agiou Nikolaou"},{"Latitude":"34.7015084","Longitude":"32.6134951","Name":"Agiou Nikolaou Street"},{"Latitude":"34.6794796","Longitude":"33.0406471","Name":"Agiou Nikolau Street"},{"Latitude":"35.1119864","Longitude":"33.3934882","Name":"Agiou Nikta"},{"Latitude":"34.9203159","Longitude":"33.6311424","Name":"Agiou Noefytou Street"},{"Latitude":"34.6866862","Longitude":"33.0169611","Name":"Agiou Orous"},{"Latitude":"34.9062128","Longitude":"33.5850521","Name":"Agiou Orous Street"},{"Latitude":"34.7601473","Longitude":"32.4334133","Name":"Agiou Panaretou"},{"Latitude":"34.9397080","Longitude":"33.6086727","Name":"Agiou Panteleimona"},{"Latitude":"34.7825178","Longitude":"32.4381396","Name":"Agiou Panteleimonos"},{"Latitude":"34.8702219","Longitude":"33.5912532","Name":"Agiou Panteleimonos Avenue"},{"Latitude":"34.8112582","Longitude":"32.4219619","Name":"Agiou Panton"},{"Latitude":"34.9781174","Longitude":"33.6510070","Name":"Agiou Pavlou"},{"Latitude":"35.1798996","Longitude":"33.3245092","Name":"Agiou Pavlou Street"},{"Latitude":"34.7199350","Longitude":"33.0223207","Name":"Agiou Photiou"},{"Latitude":"34.9265781","Longitude":"33.5836335","Name":"Agiou Pnevmatos Street"},{"Latitude":"34.9060737","Longitude":"33.5924577","Name":"Agiou Polykarpou"},{"Latitude":"35.1618357","Longitude":"33.3389928","Name":"Agiou Prokopiou"},{"Latitude":"34.9052742","Longitude":"33.5927375","Name":"Agiou Prokopiou Street"},{"Latitude":"34.6565303","Longitude":"32.9595048","Name":"Agiou Rafail"},{"Latitude":"34.6819388","Longitude":"32.9376572","Name":"Agiou Rafail Street"},{"Latitude":"35.0881255","Longitude":"33.2056039","Name":"Agiou Raphael"},{"Latitude":"34.7642198","Longitude":"33.0273873","Name":"Agiou Riginou Kai Oresti"},{"Latitude":"34.9486062","Longitude":"33.6346926","Name":"Agiou Savva"},{"Latitude":"34.9249630","Longitude":"33.5884165","Name":"Agiou Savva Street"},{"Latitude":"34.7669175","Longitude":"32.4256564","Name":"Agiou Sergiou"},{"Latitude":"34.9350760","Longitude":"33.6085123","Name":"Agiou Sergiou Street"},{"Latitude":"34.6009059","Longitude":"32.9547293","Name":"Agiou Sila Street"},{"Latitude":"34.9446242","Longitude":"33.5927541","Name":"Agiou Silouanou Street"},{"Latitude":"34.6725056","Longitude":"32.9434988","Name":"Agiou Sinesiou"},{"Latitude":"34.9257992","Longitude":"33.6375128","Name":"Agiou Sinesiou Street"},{"Latitude":"34.8108567","Longitude":"32.4220127","Name":"Agiou Sofronou"},{"Latitude":"34.8403550","Longitude":"32.4410827","Name":"Agiou Sothroniou"},{"Latitude":"35.1024273","Longitude":"33.4274488","Name":"Agiou Sozomenou"},{"Latitude":"34.6890619","Longitude":"32.9798773","Name":"Agiou Sozontos Street"},{"Latitude":"35.0030747","Longitude":"32.8023008","Name":"Agiou Spryridonos"},{"Latitude":"34.8007139","Longitude":"32.4294104","Name":"Agiou Spyridomos"},{"Latitude":"34.7588226","Longitude":"32.4658815","Name":"Agiou Spyridona"},{"Latitude":"34.7854086","Longitude":"32.4411169","Name":"Agiou Spyridonos"},{"Latitude":"35.0950502","Longitude":"33.3821407","Name":"Agiou Spyrindonos"},{"Latitude":"35.0241588","Longitude":"33.9490673","Name":"Agiou Spyrindonos Street"},{"Latitude":"34.8312514","Longitude":"32.4296250","Name":"Agiou Stefanou"},{"Latitude":"34.9282914","Longitude":"33.5907511","Name":"Agiou Stefanou Street"},{"Latitude":"34.9444278","Longitude":"33.5882107","Name":"Agiou Stilianou Street"},{"Latitude":"34.6624312","Longitude":"32.9619755","Name":"Agiou Stylianou"},{"Latitude":"34.6887645","Longitude":"32.9613235","Name":"Agiou Syla"},{"Latitude":"34.6902407","Longitude":"32.9760605","Name":"Agiou Synesiou Street"},{"Latitude":"35.1377901","Longitude":"33.3146901","Name":"Agiou Theocharous"},{"Latitude":"34.7732147","Longitude":"32.4213391","Name":"Agiou Theodorou"},{"Latitude":"34.9046551","Longitude":"33.5929007","Name":"Agiou Theodorou Street"},{"Latitude":"34.7895362","Longitude":"32.4443046","Name":"Agiou Theodosiou"},{"Latitude":"34.9494150","Longitude":"33.6029533","Name":"Agiou Theodosiou Street"},{"Latitude":"35.1359806","Longitude":"33.3136215","Name":"Agiou Theodotou"},{"Latitude":"34.6767617","Longitude":"32.9931701","Name":"Agiou Theona"},{"Latitude":"35.1370034","Longitude":"33.3136567","Name":"Agiou Theophanous"},{"Latitude":"35.1374796","Longitude":"33.3139930","Name":"Agiou Theophylaktou"},{"Latitude":"34.7610303","Longitude":"32.4267920","Name":"Agiou Therapontos"},{"Latitude":"34.6913766","Longitude":"32.9706536","Name":"Agiou Therisou"},{"Latitude":"34.9441417","Longitude":"33.6186957","Name":"Agiou Therissou"},{"Latitude":"34.9764535","Longitude":"33.6583593","Name":"Agiou Thoma"},{"Latitude":"34.9530816","Longitude":"33.5852086","Name":"Agiou Thoma Street"},{"Latitude":"35.1683966","Longitude":"33.3904243","Name":"Agiou Trifilliou"},{"Latitude":"34.7599969","Longitude":"32.4287186","Name":"Agiou Tychona"},{"Latitude":"34.9741936","Longitude":"33.6563323","Name":"Agiou Vasieiou"},{"Latitude":"35.1195290","Longitude":"33.2164633","Name":"Agiou Vasileiou"},{"Latitude":"34.9081210","Longitude":"33.5958078","Name":"Agiou Vasileiou Street"},{"Latitude":"35.1578304","Longitude":"33.2070908","Name":"Agiou Vasileou"},{"Latitude":"34.8161886","Longitude":"32.4253953","Name":"Agiou Vasiliou"},{"Latitude":"34.8787798","Longitude":"32.3745984","Name":"Agiou Ypatiou Street"},{"Latitude":"34.9220579","Longitude":"33.5888864","Name":"Agiou'ioakeim Street"},{"Latitude":"35.1358681","Longitude":"33.3065745","Name":"Agious Charalampous"},{"Latitude":"34.9044105","Longitude":"33.5890460","Name":"Agioy ErmoraouvStreet"},{"Latitude":"34.9454733","Longitude":"33.6019762","Name":"Agioy Ilariona Street"},{"Latitude":"34.7972906","Longitude":"32.4846150","Name":"Agioy Tychonos"},{"Latitude":"34.9583071","Longitude":"33.6495998","Name":"Agisandrou"},{"Latitude":"34.7635427","Longitude":"32.4213348","Name":"Agisilaou"},{"Latitude":"35.0448452","Longitude":"33.9838453","Name":"Agislaiou"},{"Latitude":"35.0989620","Longitude":"33.3863860","Name":"Agkastinas"},{"Latitude":"34.7037582","Longitude":"33.0041924","Name":"Agkylis"},{"Latitude":"34.6723559","Longitude":"33.0382590","Name":"Agkyras"},{"Latitude":"35.1751687","Longitude":"33.3739909","Name":"Aglaias"},{"Latitude":"35.1556834","Longitude":"33.3810622","Name":"Aglantzias"},{"Latitude":"34.7045362","Longitude":"33.0045753","Name":"Agnanton"},{"Latitude":"35.1783362","Longitude":"33.3833413","Name":"Agnooumenon"},{"Latitude":"34.7177364","Longitude":"33.0814268","Name":"Agnooumenon Street"},{"Latitude":"34.6709420","Longitude":"32.9891009","Name":"Agoras"},{"Latitude":"34.7136754","Longitude":"33.0836736","Name":"Agothonos"},{"Latitude":"35.1383315","Longitude":"33.3530834","Name":"Agrafon"},{"Latitude":"34.6985237","Longitude":"33.0786958","Name":"Agras"},{"Latitude":"34.6834222","Longitude":"33.0179041","Name":"Agravlou"},{"Latitude":"34.7139256","Longitude":"33.0415678","Name":"Agridaki"},{"Latitude":"34.6847996","Longitude":"33.0204477","Name":"Agriniou"},{"Latitude":"34.9507715","Longitude":"33.5993351","Name":"Agriniou Street"},{"Latitude":"34.6807984","Longitude":"33.0171537","Name":"Agripa"},{"Latitude":"34.8688504","Longitude":"33.5905722","Name":"Agropoleos Avenue"},{"Latitude":"34.8773523","Longitude":"32.3654048","Name":"Agrotissas"},{"Latitude":"35.1380873","Longitude":"33.3401381","Name":"Agrous"},{"Latitude":"34.9448325","Longitude":"33.6263679","Name":"Ahaion"},{"Latitude":"34.6764648","Longitude":"32.8865388","Name":"Aheon Street"},{"Latitude":"35.1472607","Longitude":"33.3498927","Name":"Ahilleos"},{"Latitude":"34.9085051","Longitude":"33.6365137","Name":"Ahmed Kenan Street"},{"Latitude":"35.1956870","Longitude":"33.3601282","Name":"Ahmet Ali Sokak"},{"Latitude":"35.2110287","Longitude":"33.3806941","Name":"Ahmet Buna Sokak"},{"Latitude":"35.1622442","Longitude":"33.8838135","Name":"Ahmet Fadıl Sokak"},{"Latitude":"35.2236571","Longitude":"33.3794855","Name":"Ahmet Hacet Sokak"},{"Latitude":"34.7829234","Longitude":"32.4180205","Name":"Ahmet Muhtar Pasa"},{"Latitude":"35.2001408","Longitude":"32.9927749","Name":"Ahmet Mulla Sokak"},{"Latitude":"35.1844706","Longitude":"33.3577122","Name":"Ahmet Tansel Sokak"},{"Latitude":"35.1260490","Longitude":"33.9302935","Name":"Ahmet İbrahim Sokak"},{"Latitude":"35.3487381","Longitude":"33.1978273","Name":"Ahmet Şükrü Efendi Sokak"},{"Latitude":"34.9777116","Longitude":"33.9135516","Name":"Ai'stahis Village No..2."},{"Latitude":"34.9185942","Longitude":"33.5896659","Name":"Aiakeiou Street"},{"Latitude":"34.7023977","Longitude":"33.0311316","Name":"Aiakou"},{"Latitude":"35.1780346","Longitude":"33.3787073","Name":"Aiakou Street"},{"Latitude":"34.6776226","Longitude":"32.8897221","Name":"Aianta"},{"Latitude":"34.9246716","Longitude":"33.5946724","Name":"Aianta Street"},{"Latitude":"34.7685235","Longitude":"32.4085763","Name":"Aiantos"},{"Latitude":"34.8806211","Longitude":"33.5843490","Name":"Aiantos Street"},{"Latitude":"34.6910408","Longitude":"33.0525228","Name":"Aidipsou"},{"Latitude":"34.7422681","Longitude":"33.1657632","Name":"Aidonion"},{"Latitude":"34.7767677","Longitude":"32.4370771","Name":"Aigaion Street"},{"Latitude":"34.6959961","Longitude":"33.0724658","Name":"Aigaiou"},{"Latitude":"35.0687818","Longitude":"33.3938698","Name":"Aigaiou Street"},{"Latitude":"34.7142218","Longitude":"33.0197423","Name":"Aigaleo"},{"Latitude":"35.1581985","Longitude":"33.3172026","Name":"Aigeos"},{"Latitude":"35.1751687","Longitude":"33.3739909","Name":"Aigeos Street"},{"Latitude":"35.0419988","Longitude":"33.3859324","Name":"Aigeou"},{"Latitude":"34.9405656","Longitude":"33.5943193","Name":"Aigeou Street"},{"Latitude":"34.8326105","Longitude":"32.4385271","Name":"Aigialousis"},{"Latitude":"34.6770012","Longitude":"32.9939083","Name":"Aigidos"},{"Latitude":"34.6943720","Longitude":"33.0755250","Name":"Aiginas"},{"Latitude":"34.7758533","Longitude":"32.4392759","Name":"Aiginis"},{"Latitude":"34.9129816","Longitude":"33.6051757","Name":"Aiginis Street"},{"Latitude":"35.1381397","Longitude":"33.3536711","Name":"Aigiou"},{"Latitude":"35.1552726","Longitude":"33.3252036","Name":"Aigisthou"},{"Latitude":"35.1476470","Longitude":"33.3323567","Name":"Aiglis"},{"Latitude":"35.1405320","Longitude":"33.3070252","Name":"Aigyptou"},{"Latitude":"34.9134528","Longitude":"33.6234985","Name":"Aigyptou Avenue"},{"Latitude":"34.7075969","Longitude":"33.0255218","Name":"Aikaterinis"},{"Latitude":"35.1432160","Longitude":"33.3671807","Name":"Aikaterinis Kornaro"},{"Latitude":"35.1561653","Longitude":"33.3928239","Name":"Aikaterinis Kornarou"},{"Latitude":"35.1843084","Longitude":"33.3854711","Name":"Aikaterinis Street"},{"Latitude":"34.7072042","Longitude":"33.0560325","Name":"Aimiliou Chourmouziou"},{"Latitude":"34.7058206","Longitude":"33.0324237","Name":"Aimiliou Frangou"},{"Latitude":"35.1487194","Longitude":"33.2995324","Name":"Aimiliou Monia"},{"Latitude":"34.6630908","Longitude":"33.0193646","Name":"Aimiliou Veaki"},{"Latitude":"34.7186031","Longitude":"33.0170943","Name":"Aimiliou Zola"},{"Latitude":"34.7112504","Longitude":"33.0188226","Name":"Aimou"},{"Latitude":"35.1713102","Longitude":"33.3464831","Name":"Aineiou"},{"Latitude":"35.1135494","Longitude":"33.3147064","Name":"Ainia"},{"Latitude":"35.1453668","Longitude":"33.3650353","Name":"Ainiou"},{"Latitude":"34.6585153","Longitude":"33.0101242","Name":"Ainou"},{"Latitude":"35.1549331","Longitude":"33.3534576","Name":"Ainstain"},{"Latitude":"35.0304360","Longitude":"33.9893524","Name":"Aiolias"},{"Latitude":"34.6803127","Longitude":"32.6141011","Name":"Aiolos St"},{"Latitude":"34.8428514","Longitude":"32.4311076","Name":"Aiolou"},{"Latitude":"35.1510705","Longitude":"33.3905533","Name":"Aipas Street"},{"Latitude":"34.6855735","Longitude":"33.0369487","Name":"Aipeias"},{"Latitude":"35.1870690","Longitude":"33.3952945","Name":"Aipeias Street"},{"Latitude":"34.7371830","Longitude":"32.4631644","Name":"Airport Connecting Road"},{"Latitude":"34.7099965","Longitude":"32.4890077","Name":"Airport Loop"},{"Latitude":"35.1650353","Longitude":"33.3796325","Name":"Aischilou"},{"Latitude":"34.6725667","Longitude":"33.0078246","Name":"Aischini"},{"Latitude":"34.7777797","Longitude":"32.4340171","Name":"Aischylou"},{"Latitude":"34.8719939","Longitude":"33.5846677","Name":"Aischylou Street"},{"Latitude":"34.9582640","Longitude":"33.6221554","Name":"Aishylou"},{"Latitude":"34.9995291","Longitude":"33.7328167","Name":"Aisne Street"},{"Latitude":"35.1526141","Longitude":"33.3828631","Name":"Aisopou"},{"Latitude":"34.9399105","Longitude":"33.5878428","Name":"Aisopou Street"},{"Latitude":"34.9435090","Longitude":"33.6293308","Name":"Aitheros Street"},{"Latitude":"34.6775530","Longitude":"32.9966823","Name":"Aithras"},{"Latitude":"34.6608186","Longitude":"33.0018286","Name":"Aitolias"},{"Latitude":"34.7034305","Longitude":"33.0757170","Name":"Aitolon"},{"Latitude":"34.9123251","Longitude":"33.5847774","Name":"Aitolon Street"},{"Latitude":"34.6812770","Longitude":"32.6152314","Name":"Ajax St"},{"Latitude":"34.9062161","Longitude":"33.6372928","Name":"Ak Deniz Street"},{"Latitude":"35.2008853","Longitude":"33.3230507","Name":"Ak Sokak"},{"Latitude":"35.1837427","Longitude":"33.3677606","Name":"Ak Şemsettin Sokak"},{"Latitude":"34.6752630","Longitude":"33.0352796","Name":"Ak. Sehir"},{"Latitude":"35.1861064","Longitude":"33.3524705","Name":"Aka Gündüz Sokak"},{"Latitude":"35.1705885","Longitude":"33.3915478","Name":"Akadamias"},{"Latitude":"34.9179194","Longitude":"33.6252490","Name":"Akademou"},{"Latitude":"35.1442324","Longitude":"33.3813356","Name":"Akadimeias"},{"Latitude":"35.1222902","Longitude":"33.3030903","Name":"Akadimias"},{"Latitude":"34.6776261","Longitude":"32.9971898","Name":"Akadimou"},{"Latitude":"34.6853957","Longitude":"33.0073739","Name":"Akakiou"},{"Latitude":"35.1967433","Longitude":"33.3579592","Name":"Akalan Sokak"},{"Latitude":"35.0893368","Longitude":"33.3946608","Name":"Akama"},{"Latitude":"35.0397601","Longitude":"32.3963968","Name":"Akamanthos Avenue"},{"Latitude":"34.7862843","Longitude":"32.4223574","Name":"Akamantidos"},{"Latitude":"34.8495041","Longitude":"32.4267506","Name":"Akamantos"},{"Latitude":"34.8766487","Longitude":"32.3671121","Name":"Akamantos Street"},{"Latitude":"34.7607723","Longitude":"32.4635741","Name":"Akanthous"},{"Latitude":"34.9444470","Longitude":"33.5989406","Name":"Akanthous Street"},{"Latitude":"34.7015131","Longitude":"33.0786465","Name":"Akarnanias"},{"Latitude":"35.1382399","Longitude":"33.3500129","Name":"Akarnanon"},{"Latitude":"35.3429641","Longitude":"33.5789669","Name":"Akasa"},{"Latitude":"35.1353441","Longitude":"33.9210624","Name":"Akasya Sokak"},{"Latitude":"35.1254354","Longitude":"33.9348352","Name":"Akatlar Sokak"},{"Latitude":"35.2073346","Longitude":"33.3139854","Name":"Akbelenk Sokak"},{"Latitude":"35.2002268","Longitude":"33.3617722","Name":"Akcasu Sokak"},{"Latitude":"35.1994527","Longitude":"32.9885779","Name":"Akdeniz Sokak"},{"Latitude":"35.1198715","Longitude":"33.9300416","Name":"Akdoğan Sokak"},{"Latitude":"35.2177659","Longitude":"33.3818487","Name":"Akdoğu Sokak"},{"Latitude":"35.0174157","Longitude":"34.0236197","Name":"Akefalou"},{"Latitude":"35.1387000","Longitude":"33.9185696","Name":"Akgöl Sokak"},{"Latitude":"35.1978580","Longitude":"33.3684209","Name":"Akgün Sokak"},{"Latitude":"35.2163125","Longitude":"33.2964450","Name":"Akgünler Sokak"},{"Latitude":"35.1292087","Longitude":"33.9173627","Name":"Akhisar Sokak"},{"Latitude":"34.7232059","Longitude":"33.0541159","Name":"Aki Papaioannou Street"},{"Latitude":"35.2224276","Longitude":"33.2955617","Name":"Akkaya Sokak"},{"Latitude":"35.2004373","Longitude":"33.3222879","Name":"Akkent Sokak"},{"Latitude":"35.1883650","Longitude":"33.3684358","Name":"Akkoyunlu Sokak"},{"Latitude":"34.6985042","Longitude":"33.0352492","Name":"Aklkimou"},{"Latitude":"34.6860127","Longitude":"33.0188334","Name":"Aklkiviadou"},{"Latitude":"34.7044481","Longitude":"33.0852489","Name":"Akminis"},{"Latitude":"35.2075291","Longitude":"33.3739777","Name":"Aknar Sokak"},{"Latitude":"34.8509829","Longitude":"32.3838061","Name":"Akoursou"},{"Latitude":"35.3199322","Longitude":"33.3531187","Name":"Akrep Sokak"},{"Latitude":"35.1148368","Longitude":"33.3266491","Name":"Akridakiou"},{"Latitude":"34.6763736","Longitude":"32.9972191","Name":"Akrisiou"},{"Latitude":"34.7179729","Longitude":"33.0990045","Name":"Akrita"},{"Latitude":"35.0619757","Longitude":"33.9668909","Name":"Akropoleos"},{"Latitude":"34.8658289","Longitude":"33.5917575","Name":"Akropoleos Avenue"},{"Latitude":"34.7801122","Longitude":"32.4646070","Name":"Akropoleos Street"},{"Latitude":"35.1176967","Longitude":"33.9287970","Name":"Aksaray Sokak"},{"Latitude":"35.1776226","Longitude":"33.3697071","Name":"Aksiotheas"},{"Latitude":"35.1236735","Longitude":"33.9348000","Name":"Aksu Sokak"},{"Latitude":"34.6651847","Longitude":"33.0290920","Name":"Aktaias Street"},{"Latitude":"34.7026267","Longitude":"33.1005082","Name":"Aktaiou"},{"Latitude":"35.1756460","Longitude":"33.3834105","Name":"Akteonos"},{"Latitude":"34.6986724","Longitude":"33.0928967","Name":"Aktinou"},{"Latitude":"34.9762444","Longitude":"33.6717029","Name":"Aktis"},{"Latitude":"35.1293449","Longitude":"33.9167566","Name":"Akçadağ Sokak"},{"Latitude":"35.1306847","Longitude":"33.9156336","Name":"Akçahoca Sokak"},{"Latitude":"35.1910703","Longitude":"33.3548584","Name":"Akçakoca Sokak"},{"Latitude":"35.1988808","Longitude":"33.3714188","Name":"Akın Başak Sokak"},{"Latitude":"35.1262620","Longitude":"33.9325155","Name":"Akıncılar Sokak"},{"Latitude":"35.1113854","Longitude":"33.3764824","Name":"Al. Konstantinou"},{"Latitude":"35.0992348","Longitude":"33.3819529","Name":"Al. Papadiamanti"},{"Latitude":"35.1166958","Longitude":"33.3059478","Name":"Al. Ypsilanti"},{"Latitude":"35.1856759","Longitude":"33.3525585","Name":"Alaca Sokak"},{"Latitude":"35.2249597","Longitude":"33.3031001","Name":"Alacakaranlık Sokak"},{"Latitude":"35.1996786","Longitude":"33.3651565","Name":"Aladağ Sokak"},{"Latitude":"35.1060450","Longitude":"33.9272123","Name":"Alageyik Sokak"},{"Latitude":"35.0594366","Longitude":"33.9437719","Name":"Alakatis Street"},{"Latitude":"35.0939785","Longitude":"33.3820656","Name":"Alamanas"},{"Latitude":"34.7194132","Longitude":"33.0860162","Name":"Alamanas Street"},{"Latitude":"35.1489444","Longitude":"33.3654845","Name":"Alasias"},{"Latitude":"35.1608568","Longitude":"33.3630142","Name":"Alasias Street"},{"Latitude":"34.6544577","Longitude":"33.0050606","Name":"Alaskas"},{"Latitude":"35.1353651","Longitude":"33.1984029","Name":"Alasonos"},{"Latitude":"35.1780630","Longitude":"33.3366197","Name":"Alastou dorou"},{"Latitude":"34.6876134","Longitude":"33.0341014","Name":"Alaxandrou Papadiamanti"},{"Latitude":"35.1782722","Longitude":"33.3630059","Name":"Alay Bey Sokak"},{"Latitude":"35.3191617","Longitude":"33.3304797","Name":"Alaçam Sokak"},{"Latitude":"35.3247600","Longitude":"33.3549029","Name":"Albayrak Sokak"},{"Latitude":"35.1441192","Longitude":"33.9097738","Name":"Albert Einstein Street"},{"Latitude":"34.5815023","Longitude":"32.9713049","Name":"Albion Street"},{"Latitude":"34.6556343","Longitude":"32.9980841","Name":"Albrecht Durer"},{"Latitude":"34.6984072","Longitude":"32.9967569","Name":"Aldou Manoutiou"},{"Latitude":"34.7716019","Longitude":"32.4184469","Name":"Aleas Athinas"},{"Latitude":"34.7145648","Longitude":"33.0172762","Name":"Alecou Constantinou"},{"Latitude":"35.1215359","Longitude":"33.3203450","Name":"Aleithias"},{"Latitude":"34.6534955","Longitude":"32.9981240","Name":"Alek. Sakellariou"},{"Latitude":"35.1411166","Longitude":"33.3639678","Name":"Alekou Constantinou"},{"Latitude":"35.1732786","Longitude":"33.3594031","Name":"Alekou Komninou"},{"Latitude":"35.1146550","Longitude":"33.9499428","Name":"Alekou Konstantinou"},{"Latitude":"34.7593055","Longitude":"32.4612942","Name":"Alekou Panagouli"},{"Latitude":"35.0583582","Longitude":"33.9570652","Name":"Alekou Sakelariou Street"},{"Latitude":"34.6862533","Longitude":"33.0029232","Name":"Alekou Sakellariou"},{"Latitude":"35.1429681","Longitude":"33.3272085","Name":"Alekou Sofokleous"},{"Latitude":"34.7899087","Longitude":"32.4266670","Name":"Alekou Vaklia"},{"Latitude":"34.6776319","Longitude":"33.0493520","Name":"Alekou Zinonos"},{"Latitude":"35.1107444","Longitude":"33.9343760","Name":"Alemdar Sokak"},{"Latitude":"34.7125367","Longitude":"33.0550952","Name":"Alex Panagouli"},{"Latitude":"34.9381783","Longitude":"33.6299083","Name":"Alex. Panagouli Avenue"},{"Latitude":"34.9554056","Longitude":"33.6280237","Name":"Alex. Papadiamanti"},{"Latitude":"35.0526873","Longitude":"33.9647532","Name":"Alexander Graham Bell Street"},{"Latitude":"34.9809237","Longitude":"33.8479096","Name":"Alexandia 9 Est"},{"Latitude":"34.7881120","Longitude":"32.4296855","Name":"Alexandou Ypsilanti"},{"Latitude":"34.5780844","Longitude":"32.9790375","Name":"Alexandra Hill"},{"Latitude":"35.1262977","Longitude":"33.3445045","Name":"Alexandras"},{"Latitude":"35.1040229","Longitude":"33.3122310","Name":"Alexandreias"},{"Latitude":"35.0798044","Longitude":"33.8713243","Name":"Alexandria Court"},{"Latitude":"34.7609078","Longitude":"32.4619983","Name":"Alexandrias"},{"Latitude":"34.9181705","Longitude":"33.6102080","Name":"Alexandrias Street"},{"Latitude":"35.1387040","Longitude":"33.3237464","Name":"Alexandro Mavrokordatou"},{"Latitude":"34.7803434","Longitude":"32.4211494","Name":"Alexandrou"},{"Latitude":"35.1416531","Longitude":"33.3276187","Name":"Alexandrou Delmouzou"},{"Latitude":"35.1228949","Longitude":"33.3069085","Name":"Alexandrou Douma"},{"Latitude":"34.6728689","Longitude":"33.0273774","Name":"Alexandrou Fleming"},{"Latitude":"35.0629168","Longitude":"33.9694420","Name":"Alexandrou Fleming Street"},{"Latitude":"35.1410557","Longitude":"33.3278304","Name":"Alexandrou Korizi"},{"Latitude":"35.1422423","Longitude":"33.3291594","Name":"Alexandrou Koumoundourou"},{"Latitude":"35.1167582","Longitude":"33.3008550","Name":"Alexandrou Mavrokordatou"},{"Latitude":"34.7198270","Longitude":"33.0851582","Name":"Alexandrou Mavrokordatou Street"},{"Latitude":"35.1821457","Longitude":"33.3443114","Name":"Alexandrou Palli"},{"Latitude":"34.6922224","Longitude":"33.0389332","Name":"Alexandrou Pamagoyli"},{"Latitude":"34.7126168","Longitude":"33.0564380","Name":"Alexandrou Panagouli"},{"Latitude":"34.7164856","Longitude":"33.0515172","Name":"Alexandrou Papadiamandi"},{"Latitude":"34.6955884","Longitude":"32.9344899","Name":"Alexandrou Papadiamandi Street"},{"Latitude":"34.7744223","Longitude":"32.4407081","Name":"Alexandrou Papadiamanti"},{"Latitude":"34.7026496","Longitude":"33.0950044","Name":"Alexandrou Papadiamanti Street"},{"Latitude":"34.6967685","Longitude":"33.0344386","Name":"Alexandrou Papagou"},{"Latitude":"34.9049074","Longitude":"33.6344928","Name":"Alexandrou Papanastasiou"},{"Latitude":"34.7780031","Longitude":"32.4402269","Name":"Alexandrou Pappagou"},{"Latitude":"34.8578509","Longitude":"33.5886438","Name":"Alexandrou Paragouli Street"},{"Latitude":"34.6727394","Longitude":"33.0279388","Name":"Alexandrou Pouskin Street"},{"Latitude":"35.1419736","Longitude":"33.3296590","Name":"Alexandrou Ragavi"},{"Latitude":"35.1767942","Longitude":"33.3731346","Name":"Alexandrou Ragkabi"},{"Latitude":"34.9302634","Longitude":"33.6117843","Name":"Alexandrou Rangavi"},{"Latitude":"34.7032541","Longitude":"33.0388663","Name":"Alexandrou Soutsou"},{"Latitude":"35.1498884","Longitude":"33.3832438","Name":"Alexandrou Ypsilandou"},{"Latitude":"34.6557809","Longitude":"32.9511730","Name":"Alexandrou Ypsilanti"},{"Latitude":"34.9154627","Longitude":"33.6295870","Name":"Alexandrou Zarra Street"},{"Latitude":"34.7030258","Longitude":"32.6037965","Name":"Alexandrou Zavrou Street"},{"Latitude":"34.7789420","Longitude":"32.4379696","Name":"Alexandroupoleos"},{"Latitude":"34.9072402","Longitude":"33.5861886","Name":"Alexandroupoleos Street"},{"Latitude":"34.7148447","Longitude":"33.0537910","Name":"Alexei Leonof"},{"Latitude":"34.9961833","Longitude":"32.5187582","Name":"Alexi Kyprianides"},{"Latitude":"34.6974707","Longitude":"33.0730524","Name":"Alexi Minoti"},{"Latitude":"35.1086439","Longitude":"33.2912821","Name":"Alexias"},{"Latitude":"34.6784464","Longitude":"32.9993435","Name":"Alexiou Dimara"},{"Latitude":"35.0980990","Longitude":"33.3875070","Name":"Alexiou Komninou"},{"Latitude":"35.1784825","Longitude":"33.3845646","Name":"Alexiou Konstantinou"},{"Latitude":"34.6997181","Longitude":"33.0794978","Name":"Alfeiou"},{"Latitude":"34.6740965","Longitude":"33.0080853","Name":"Alfonsou Laveran"},{"Latitude":"34.7783961","Longitude":"32.4205853","Name":"Alfredou"},{"Latitude":"35.1703968","Longitude":"33.3321474","Name":"Alfredou Street"},{"Latitude":"35.1211728","Longitude":"33.9280566","Name":"Ali Atakan Sokak"},{"Latitude":"35.1932038","Longitude":"33.3179189","Name":"Ali Aziz Sokak"},{"Latitude":"35.2179512","Longitude":"33.3840850","Name":"Ali Baba Sokak"},{"Latitude":"34.9230156","Longitude":"33.6219822","Name":"Ali Dede Street"},{"Latitude":"35.1931841","Longitude":"33.3644919","Name":"Ali Ekrem Sokak"},{"Latitude":"35.1952186","Longitude":"33.3201178","Name":"Ali Güçü Sokak"},{"Latitude":"35.2198897","Longitude":"33.3818403","Name":"Ali Hoca Sokak"},{"Latitude":"35.1968709","Longitude":"33.3672664","Name":"Ali Hüseyin Sokak"},{"Latitude":"35.2211273","Longitude":"33.3791105","Name":"Ali Kafalıoğlu Sokak"},{"Latitude":"35.2024644","Longitude":"33.3348092","Name":"Ali Mehmet Küçuk Sokak"},{"Latitude":"35.3308239","Longitude":"33.3444406","Name":"Ali Naşit Sokak"},{"Latitude":"35.2107948","Longitude":"33.2972985","Name":"Ali Nihad Güran Sokak"},{"Latitude":"34.9243506","Longitude":"33.6220989","Name":"Ali Ntente"},{"Latitude":"35.1838369","Longitude":"33.3699167","Name":"Ali Paşa Sokak"},{"Latitude":"35.1787234","Longitude":"33.3636255","Name":"Ali Ruhi Sokak"},{"Latitude":"35.2002488","Longitude":"33.3402885","Name":"Ali Rıza Efendi Caddesi"},{"Latitude":"35.2070137","Longitude":"33.3512255","Name":"Ali Vasıf Sokak"},{"Latitude":"35.1309732","Longitude":"33.9240692","Name":"Ali İhsan Kalmaz Sokak"},{"Latitude":"35.1487386","Longitude":"33.3276664","Name":"Aliakmona"},{"Latitude":"34.7789149","Longitude":"32.4408721","Name":"Aliakmonos"},{"Latitude":"34.9503342","Longitude":"33.5875307","Name":"Aliaknomos Street"},{"Latitude":"35.1316533","Longitude":"33.3415657","Name":"Alikarnasou"},{"Latitude":"34.9417122","Longitude":"33.6093018","Name":"Alikarnasou Street"},{"Latitude":"34.9358907","Longitude":"33.6183867","Name":"Alikarnassou"},{"Latitude":"35.1090370","Longitude":"33.2892027","Name":"Alikis"},{"Latitude":"34.7123316","Longitude":"33.0296325","Name":"Alikis Vougiouklaki"},{"Latitude":"34.6632736","Longitude":"33.0042655","Name":"Aliminias"},{"Latitude":"34.8808537","Longitude":"32.3720616","Name":"Alineris"},{"Latitude":"35.1145005","Longitude":"33.3159092","Name":"Alkaiou"},{"Latitude":"34.9220575","Longitude":"33.6188460","Name":"Alkaiou Street"},{"Latitude":"35.1704479","Longitude":"33.3730303","Name":"Alkamenes Street"},{"Latitude":"34.9102882","Longitude":"33.6190194","Name":"Alkamenous"},{"Latitude":"34.7053884","Longitude":"33.1011196","Name":"Alkeou"},{"Latitude":"35.1681931","Longitude":"33.3684203","Name":"Alkeou Street"},{"Latitude":"34.7742503","Longitude":"32.4262333","Name":"Alkibiadou"},{"Latitude":"35.1122474","Longitude":"33.3305262","Name":"Alkidamantos"},{"Latitude":"34.7058323","Longitude":"33.0628834","Name":"Alkidamou Street"},{"Latitude":"34.9484134","Longitude":"33.6305849","Name":"Alkimou"},{"Latitude":"34.6930519","Longitude":"33.0377815","Name":"Alkinoou"},{"Latitude":"34.9427940","Longitude":"33.6267552","Name":"Alkinoou Street"},{"Latitude":"34.7522523","Longitude":"32.4649648","Name":"Alkionis"},{"Latitude":"35.1514971","Longitude":"33.3647933","Name":"Alkistidos"},{"Latitude":"34.7039956","Longitude":"33.0980999","Name":"Alkistis Street"},{"Latitude":"35.0639261","Longitude":"33.3907034","Name":"Alkiviadi"},{"Latitude":"35.1187578","Longitude":"33.3169792","Name":"Alkiviadou"},{"Latitude":"35.1748148","Longitude":"33.3646915","Name":"Alkiviadou (DEAD ZONE)"},{"Latitude":"34.9202654","Longitude":"33.6211949","Name":"Alkiviadou Street"},{"Latitude":"34.8785930","Longitude":"33.5836775","Name":"Alkiviadous"},{"Latitude":"34.9516088","Longitude":"33.5949079","Name":"Alkiviadous Street"},{"Latitude":"35.1326643","Longitude":"33.3407698","Name":"Alkminis"},{"Latitude":"35.1480142","Longitude":"33.3267363","Name":"Alkyonis"},{"Latitude":"35.1429460","Longitude":"33.3763275","Name":"Alkyviadou"},{"Latitude":"34.9790784","Longitude":"33.6583087","Name":"Allagis"},{"Latitude":"34.6966056","Longitude":"33.0052136","Name":"Almond Avenue"},{"Latitude":"34.9093918","Longitude":"33.5986310","Name":"Almyrou"},{"Latitude":"34.7666055","Longitude":"32.4447893","Name":"Aloes"},{"Latitude":"35.1325680","Longitude":"33.3405391","Name":"Alois"},{"Latitude":"34.7592352","Longitude":"32.4767036","Name":"Alonia Avenue"},{"Latitude":"34.7780732","Longitude":"33.3209577","Name":"Alonion"},{"Latitude":"34.6969090","Longitude":"33.0566884","Name":"Alonisou"},{"Latitude":"35.1119572","Longitude":"33.9218063","Name":"Alp Sokak"},{"Latitude":"35.1805828","Longitude":"33.3640475","Name":"Alpaslan Sokak"},{"Latitude":"35.2010659","Longitude":"32.9934642","Name":"Alpay Başaran Sokak"},{"Latitude":"35.2006818","Longitude":"32.9954637","Name":"Alpay Başaran Sokağı"},{"Latitude":"35.2024644","Longitude":"33.3348092","Name":"Alpay Kelami Sokak"},{"Latitude":"35.1339465","Longitude":"33.3532411","Name":"Alpeon"},{"Latitude":"35.1801380","Longitude":"33.3643351","Name":"Alsancak Sokak"},{"Latitude":"34.9319250","Longitude":"33.6194906","Name":"Alsoupoleos Street"},{"Latitude":"35.1085279","Longitude":"33.3880612","Name":"Alsous"},{"Latitude":"35.1196413","Longitude":"33.9365147","Name":"Altay Sokak"},{"Latitude":"34.7014313","Longitude":"33.0160849","Name":"Althaias Street"},{"Latitude":"34.7012631","Longitude":"33.0156043","Name":"Altheas Street"},{"Latitude":"35.3434526","Longitude":"33.2490096","Name":"Altin Sokak"},{"Latitude":"35.1216897","Longitude":"33.9435881","Name":"Altun Tabya Sokak"},{"Latitude":"35.3284164","Longitude":"33.4439332","Name":"Altın Sokak"},{"Latitude":"35.1094517","Longitude":"33.9433934","Name":"Altıncık Sokak"},{"Latitude":"35.2100397","Longitude":"33.3315894","Name":"Altındağ Sokak"},{"Latitude":"35.1956946","Longitude":"33.3586004","Name":"Altınova Sokak"},{"Latitude":"35.2092833","Longitude":"33.3657014","Name":"Altıntaş Street"},{"Latitude":"34.9187001","Longitude":"33.5908709","Name":"Alvanikou Epous Street"},{"Latitude":"34.7782483","Longitude":"32.4121689","Name":"Alvertou"},{"Latitude":"35.0499643","Longitude":"33.9619979","Name":"Alvertou Ainstain"},{"Latitude":"34.6721313","Longitude":"33.0223394","Name":"Alvertou Ainstain Street"},{"Latitude":"34.9074018","Longitude":"33.6327684","Name":"Alvertou Svaitser"},{"Latitude":"34.6708375","Longitude":"33.0176948","Name":"Alvertou Svaitzer"},{"Latitude":"34.6978230","Longitude":"33.0911232","Name":"Alyos"},{"Latitude":"35.1808583","Longitude":"33.3662133","Name":"Alı Yuzabaşı Sokak"},{"Latitude":"35.1612246","Longitude":"33.9007308","Name":"Alıç Sokak"},{"Latitude":"34.7776946","Longitude":"32.4379677","Name":"Amaliados"},{"Latitude":"34.9428035","Longitude":"33.6084384","Name":"Amaliados Street"},{"Latitude":"35.1471375","Longitude":"33.3317940","Name":"Amaltheias"},{"Latitude":"34.9386541","Longitude":"33.6151812","Name":"Amaltheias Street"},{"Latitude":"34.7879803","Longitude":"32.4386623","Name":"Amalthias"},{"Latitude":"35.1276483","Longitude":"33.3304435","Name":"Amarousiou"},{"Latitude":"34.6962508","Longitude":"33.0123534","Name":"Amaryllidos"},{"Latitude":"35.1156467","Longitude":"33.9288534","Name":"Amasya Sokak"},{"Latitude":"35.1256339","Longitude":"33.3186304","Name":"Amathountos"},{"Latitude":"34.9461450","Longitude":"33.6012245","Name":"Amathountos Street"},{"Latitude":"34.6726007","Longitude":"32.9198815","Name":"Amathousias"},{"Latitude":"34.7038225","Longitude":"33.1089769","Name":"Amathus Avenue"},{"Latitude":"34.6781731","Longitude":"32.6155410","Name":"Amathus St"},{"Latitude":"34.6970996","Longitude":"33.0837012","Name":"Amazoniou"},{"Latitude":"34.9684864","Longitude":"33.6648389","Name":"Amazoniou Street"},{"Latitude":"35.1135209","Longitude":"33.3146805","Name":"Amazonon"},{"Latitude":"34.7007973","Longitude":"32.9356353","Name":"Ambelakion Street"},{"Latitude":"34.6965550","Longitude":"33.0900899","Name":"Amerikana Street"},{"Latitude":"34.6733175","Longitude":"33.0294965","Name":"Amerikis"},{"Latitude":"35.1898579","Longitude":"33.3877599","Name":"Amfiaraou"},{"Latitude":"34.6993660","Longitude":"33.0911829","Name":"Amfiktyonos"},{"Latitude":"34.7085612","Longitude":"33.0092977","Name":"Amfilochias"},{"Latitude":"34.9498118","Longitude":"33.6166191","Name":"Amfipoleos"},{"Latitude":"35.1519459","Longitude":"33.3818113","Name":"Amfissis"},{"Latitude":"35.1334966","Longitude":"33.3611717","Name":"Amfitriona"},{"Latitude":"34.7704881","Longitude":"32.4097140","Name":"Amfitrionos"},{"Latitude":"34.7891792","Longitude":"32.4383395","Name":"Amfitritis"},{"Latitude":"34.7036773","Longitude":"33.0834959","Name":"Amfitritis Street"},{"Latitude":"34.6810049","Longitude":"33.0369727","Name":"Amfitryonos Ydraiou"},{"Latitude":"34.7046613","Longitude":"33.0243459","Name":"Amillas"},{"Latitude":"34.6918198","Longitude":"33.0368087","Name":"Amisou"},{"Latitude":"34.9787158","Longitude":"33.6849481","Name":"Ammchostou Street"},{"Latitude":"35.1580789","Longitude":"33.3974501","Name":"Ammochostou"},{"Latitude":"34.9462661","Longitude":"33.6022600","Name":"Ammochostou Avenue"},{"Latitude":"35.0477914","Longitude":"33.9264849","Name":"Ammochostou Rd."},{"Latitude":"35.1747008","Longitude":"33.3703682","Name":"Ammochostou Street"},{"Latitude":"34.7139192","Longitude":"33.0931900","Name":"Ammohhostou"},{"Latitude":"35.1748629","Longitude":"33.3233438","Name":"Ammou"},{"Latitude":"34.8169650","Longitude":"32.4181860","Name":"Amochostou"},{"Latitude":"34.7568195","Longitude":"32.4561797","Name":"Amoikseos"},{"Latitude":"35.1684832","Longitude":"33.3951521","Name":"Amorgou"},{"Latitude":"34.6907822","Longitude":"33.0373738","Name":"Amoutsen"},{"Latitude":"34.6825683","Longitude":"32.9907969","Name":"Ampelakion"},{"Latitude":"34.7020645","Longitude":"33.0906816","Name":"Ampelakion Street"},{"Latitude":"34.8330711","Longitude":"32.4281964","Name":"Ampelias"},{"Latitude":"34.7752436","Longitude":"32.4359568","Name":"Ampelokipon"},{"Latitude":"34.6652255","Longitude":"32.7273469","Name":"Ampelonon Street"},{"Latitude":"34.6859738","Longitude":"33.0391795","Name":"Amphipoleos"},{"Latitude":"35.0724066","Longitude":"33.3825370","Name":"Amprou Katsoni"},{"Latitude":"35.1565498","Longitude":"33.8845290","Name":"Ampül Sokak"},{"Latitude":"34.6982105","Longitude":"33.0361216","Name":"Amstertam"},{"Latitude":"34.7283703","Longitude":"33.0206766","Name":"Amvrakikou"},{"Latitude":"34.7106560","Longitude":"33.0419884","Name":"Amygdalias"},{"Latitude":"34.6948923","Longitude":"32.9934973","Name":"Amynta Street"},{"Latitude":"35.2843171","Longitude":"33.8871178","Name":"Anadolu Sk."},{"Latitude":"35.3717835","Longitude":"33.7531127","Name":"Anadolu Sokak"},{"Latitude":"35.1340250","Longitude":"33.9300312","Name":"Anafartalar Caddesi"},{"Latitude":"35.3296845","Longitude":"33.3822745","Name":"Anafartalar Cadessi"},{"Latitude":"35.3387482","Longitude":"33.3181205","Name":"Anafartalar Sokak"},{"Latitude":"34.9076444","Longitude":"33.6350516","Name":"Anafertou Street"},{"Latitude":"34.6607397","Longitude":"33.0027497","Name":"Anafis"},{"Latitude":"34.9123127","Longitude":"33.5924322","Name":"Anafis Street"},{"Latitude":"34.9265254","Longitude":"33.6261396","Name":"Anagenniseos"},{"Latitude":"34.9442655","Longitude":"33.5790083","Name":"Anagenniseos Street"},{"Latitude":"35.1310599","Longitude":"33.3642644","Name":"Anagennisis"},{"Latitude":"35.0585761","Longitude":"33.9562116","Name":"Anagennisis Street"},{"Latitude":"34.6908782","Longitude":"33.0259277","Name":"Anagnostara"},{"Latitude":"34.6916821","Longitude":"33.0462205","Name":"Anakreontos"},{"Latitude":"34.9378450","Longitude":"33.6314682","Name":"Anakreontos Street"},{"Latitude":"34.6847082","Longitude":"33.0101721","Name":"Analipseos"},{"Latitude":"35.1141167","Longitude":"33.9318167","Name":"Anamur Sokak"},{"Latitude":"35.2146900","Longitude":"33.3015861","Name":"Anamurlu Kurt Ali Sokak"},{"Latitude":"34.7764228","Longitude":"32.4127974","Name":"Anania"},{"Latitude":"34.9614464","Longitude":"33.6550817","Name":"Anaotolis"},{"Latitude":"35.1610362","Longitude":"33.3451205","Name":"Anap. Dimitriou"},{"Latitude":"34.7710228","Longitude":"32.4193111","Name":"Anapafseos"},{"Latitude":"34.7925761","Longitude":"32.4108941","Name":"Anapauseos"},{"Latitude":"34.7100735","Longitude":"33.0078533","Name":"Anapiron Polemou"},{"Latitude":"34.6684439","Longitude":"33.0001331","Name":"Anaptyxeos"},{"Latitude":"34.6975599","Longitude":"32.9965036","Name":"Anastas. Arvantiti"},{"Latitude":"34.6842566","Longitude":"33.0149190","Name":"Anastaseos"},{"Latitude":"34.6982995","Longitude":"32.9407002","Name":"Anastaseos Street"},{"Latitude":"34.6976761","Longitude":"33.0229321","Name":"Anastasi Andreou"},{"Latitude":"34.8050943","Longitude":"32.4248407","Name":"Anastasias Psalti"},{"Latitude":"34.8012591","Longitude":"32.4292352","Name":"Anastasios"},{"Latitude":"34.9820145","Longitude":"33.8537147","Name":"Anastasiou Dispirou"},{"Latitude":"35.1690523","Longitude":"33.3589750","Name":"Anastasiou G. Leventi"},{"Latitude":"35.1786199","Longitude":"33.3413834","Name":"Anastasiou Georgiou"},{"Latitude":"35.1543456","Longitude":"33.3271675","Name":"Anastasiou Isaak"},{"Latitude":"34.7094809","Longitude":"33.0295241","Name":"Anastasiou Leventi"},{"Latitude":"34.9919289","Longitude":"33.7927267","Name":"Anastasiou P. Perdiou"},{"Latitude":"34.6842814","Longitude":"33.0524115","Name":"Anastasiou Sioukri"},{"Latitude":"35.1502683","Longitude":"33.2978252","Name":"Anastasiou Souroulla"},{"Latitude":"34.7195684","Longitude":"33.0155335","Name":"Anatol Frans"},{"Latitude":"35.0642570","Longitude":"33.3869349","Name":"Anatolas"},{"Latitude":"34.7578575","Longitude":"32.4756543","Name":"Anatolikou"},{"Latitude":"34.9609343","Longitude":"33.6553170","Name":"Anatolis"},{"Latitude":"34.9490261","Longitude":"33.6037238","Name":"Anatolis Street"},{"Latitude":"34.7887088","Longitude":"32.4410790","Name":"Anavargos Avenue"},{"Latitude":"35.1395324","Longitude":"33.3740740","Name":"Anavyssou"},{"Latitude":"34.9098939","Longitude":"33.5953980","Name":"Anavyssou Street"},{"Latitude":"34.7010501","Longitude":"33.0861914","Name":"Anaxagora Street"},{"Latitude":"35.0547126","Longitude":"33.9775724","Name":"Anaxagorou"},{"Latitude":"34.6795594","Longitude":"33.0156443","Name":"Anaxamenous"},{"Latitude":"34.6892587","Longitude":"33.0370041","Name":"Anaxarchou"},{"Latitude":"35.1100298","Longitude":"33.3297574","Name":"Anaxila"},{"Latitude":"34.7089880","Longitude":"33.0096460","Name":"Anaximandrou"},{"Latitude":"35.1330865","Longitude":"33.2991007","Name":"Anaximenous"},{"Latitude":"35.1167444","Longitude":"33.9256234","Name":"Anayasa Yolu"},{"Latitude":"35.2122532","Longitude":"33.3148590","Name":"Anayurt Sokak"},{"Latitude":"35.1622210","Longitude":"33.3508238","Name":"Anchialou"},{"Latitude":"34.6805575","Longitude":"33.0187386","Name":"Anchinois"},{"Latitude":"35.0645290","Longitude":"33.9672347","Name":"And. Karkavista Street"},{"Latitude":"34.6700477","Longitude":"33.0023148","Name":"Andeon"},{"Latitude":"35.1227638","Longitude":"33.3078204","Name":"Andgelou Terzaki"},{"Latitude":"34.7035571","Longitude":"33.0909599","Name":"Andokidou"},{"Latitude":"34.9789886","Longitude":"33.8469942","Name":"Andrea A. Nikoli"},{"Latitude":"34.6528806","Longitude":"33.0046469","Name":"Andrea Achillidi Street"},{"Latitude":"35.1666593","Longitude":"33.3962951","Name":"Andrea Agroti"},{"Latitude":"34.8054843","Longitude":"32.4262575","Name":"Andrea Alexiou"},{"Latitude":"35.1482080","Longitude":"33.3006555","Name":"Andrea Anastasopoulou"},{"Latitude":"34.7005299","Longitude":"33.0843533","Name":"Andrea Anthea Street"},{"Latitude":"34.7655616","Longitude":"33.0268438","Name":"Andrea Apserou"},{"Latitude":"34.6709592","Longitude":"32.9933207","Name":"Andrea Araouzou"},{"Latitude":"35.1595349","Longitude":"33.3112307","Name":"Andrea Aresti"},{"Latitude":"34.7189056","Longitude":"33.0576879","Name":"Andrea Armefti"},{"Latitude":"34.6959562","Longitude":"33.0179994","Name":"Andrea Armefti Street"},{"Latitude":"35.1095698","Longitude":"33.3848386","Name":"Andrea Assioti"},{"Latitude":"35.1100818","Longitude":"33.3899858","Name":"Andrea Avraamide"},{"Latitude":"35.1417830","Longitude":"33.3586633","Name":"Andrea Avraamidi"},{"Latitude":"35.1437498","Longitude":"33.3724523","Name":"Andrea Charalampid"},{"Latitude":"34.9133319","Longitude":"33.5950796","Name":"Andrea Charalampidi Street"},{"Latitude":"34.7754814","Longitude":"32.4174426","Name":"Andrea Christodoulou"},{"Latitude":"34.7724037","Longitude":"32.4231407","Name":"Andrea Chrysostomou"},{"Latitude":"35.0992563","Longitude":"33.3776740","Name":"Andrea Demetriou"},{"Latitude":"35.0496072","Longitude":"33.9884262","Name":"Andrea Dimitriou"},{"Latitude":"34.9469001","Longitude":"33.5937552","Name":"Andrea Dmitirou Street"},{"Latitude":"34.6795210","Longitude":"33.0459407","Name":"Andrea Drousioti"},{"Latitude":"34.6787919","Longitude":"33.0443431","Name":"Andrea Drousioti Street"},{"Latitude":"34.7977150","Longitude":"32.4485102","Name":"Andrea Ellina"},{"Latitude":"34.7778029","Longitude":"32.4437724","Name":"Andrea Eyagorou Street"},{"Latitude":"34.7219393","Longitude":"33.0597556","Name":"Andrea Faiti"},{"Latitude":"34.7915934","Longitude":"32.4494328","Name":"Andrea Georgio"},{"Latitude":"35.1791875","Longitude":"33.3386093","Name":"Andrea Georgiou"},{"Latitude":"34.7778385","Longitude":"32.4224018","Name":"Andrea Geroudi"},{"Latitude":"35.1365520","Longitude":"33.3449557","Name":"Andrea Hatzitheori"},{"Latitude":"34.7978400","Longitude":"32.4492234","Name":"Andrea Iasonos"},{"Latitude":"34.7734312","Longitude":"32.4209218","Name":"Andrea Ioannou"},{"Latitude":"34.7639693","Longitude":"32.4466033","Name":"Andrea Ioanou"},{"Latitude":"34.6592905","Longitude":"32.9971057","Name":"Andrea Iordanou Street"},{"Latitude":"34.8092951","Longitude":"32.4228917","Name":"Andrea K. Makariou"},{"Latitude":"35.0449459","Longitude":"33.9827733","Name":"Andrea K. Panagi"},{"Latitude":"34.6662777","Longitude":"32.9345575","Name":"Andrea Kai Nikou"},{"Latitude":"35.1760077","Longitude":"33.3427504","Name":"Andrea Kalvou"},{"Latitude":"34.9431436","Longitude":"33.5944626","Name":"Andrea Kalvou Street"},{"Latitude":"35.1132311","Longitude":"33.3749905","Name":"Andrea Kariou"},{"Latitude":"35.1661025","Longitude":"33.3200564","Name":"Andrea Kariou Street"},{"Latitude":"34.7033064","Longitude":"33.0677724","Name":"Andrea Karioulou"},{"Latitude":"34.6779422","Longitude":"32.9369455","Name":"Andrea Karkavista Street"},{"Latitude":"34.6907802","Longitude":"33.0447105","Name":"Andrea Karkavitsa"},{"Latitude":"34.6982748","Longitude":"32.9525143","Name":"Andrea Karvou"},{"Latitude":"35.1102125","Longitude":"33.2986406","Name":"Andrea Karyou"},{"Latitude":"34.9773268","Longitude":"33.8496092","Name":"Andrea Kazii"},{"Latitude":"34.9514521","Longitude":"33.6061360","Name":"Andrea Kelpi Street"},{"Latitude":"34.7179496","Longitude":"33.0563062","Name":"Andrea Kesta"},{"Latitude":"34.7840778","Longitude":"32.4576628","Name":"Andrea Kiriakou"},{"Latitude":"34.7110635","Longitude":"32.5742689","Name":"Andrea Koliarou"},{"Latitude":"35.1662160","Longitude":"33.3969892","Name":"Andrea Kosma Street"},{"Latitude":"35.0581073","Longitude":"33.9741556","Name":"Andrea Koutsofta"},{"Latitude":"34.8878831","Longitude":"32.3805940","Name":"Andrea Kouvarou"},{"Latitude":"35.1358227","Longitude":"33.2001325","Name":"Andrea Kuta"},{"Latitude":"35.1518769","Longitude":"33.3959000","Name":"Andrea Kyprianou"},{"Latitude":"34.7718491","Longitude":"32.4364276","Name":"Andrea Lardou"},{"Latitude":"35.1708491","Longitude":"33.3715114","Name":"Andrea Laskaratou"},{"Latitude":"34.6847611","Longitude":"33.0453110","Name":"Andrea Laskaratou Street"},{"Latitude":"34.6790611","Longitude":"33.0293438","Name":"Andrea Liverdou"},{"Latitude":"34.8827596","Longitude":"33.5878689","Name":"Andrea Louka"},{"Latitude":"35.1559140","Longitude":"33.3144573","Name":"Andrea Maiouli"},{"Latitude":"34.6998151","Longitude":"33.0627606","Name":"Andrea Makariou"},{"Latitude":"34.7003912","Longitude":"33.0692964","Name":"Andrea Makridi Street"},{"Latitude":"34.7120779","Longitude":"33.0506105","Name":"Andrea Mantoles"},{"Latitude":"34.7142849","Longitude":"33.0609597","Name":"Andrea Mappoura"},{"Latitude":"34.9521565","Longitude":"33.5888676","Name":"Andrea Mappoura Street"},{"Latitude":"34.7234680","Longitude":"33.0584331","Name":"Andrea Markou"},{"Latitude":"35.1139485","Longitude":"33.3002910","Name":"Andrea Miaouli"},{"Latitude":"34.9453163","Longitude":"33.5927329","Name":"Andrea Miaouli Street"},{"Latitude":"34.9333199","Longitude":"33.5924219","Name":"Andrea Micha'i'la Street"},{"Latitude":"34.7945064","Longitude":"32.4343295","Name":"Andrea Michaelide"},{"Latitude":"34.6941417","Longitude":"33.0733160","Name":"Andrea Michailidi"},{"Latitude":"35.1169123","Longitude":"33.3814726","Name":"Andrea Mikellidi"},{"Latitude":"34.7092290","Longitude":"33.0658189","Name":"Andrea Moustra"},{"Latitude":"34.9405043","Longitude":"33.6183767","Name":"Andrea Mouzaki"},{"Latitude":"34.6623601","Longitude":"33.0020878","Name":"Andrea Mouzaki Street"},{"Latitude":"35.1571132","Longitude":"33.3032802","Name":"Andrea Neokleous"},{"Latitude":"34.7106971","Longitude":"32.5713891","Name":"Andrea Neophytou"},{"Latitude":"34.7410361","Longitude":"33.1855598","Name":"Andrea Nikolaou"},{"Latitude":"35.0958286","Longitude":"33.3808735","Name":"Andrea Onisforou"},{"Latitude":"34.6683714","Longitude":"33.0071852","Name":"Andrea Onisiforou"},{"Latitude":"34.9821761","Longitude":"33.6501785","Name":"Andrea Panagidi"},{"Latitude":"35.1553911","Longitude":"33.3527617","Name":"Andrea Panagidi Street"},{"Latitude":"35.1414308","Longitude":"33.3662403","Name":"Andrea Panayidi"},{"Latitude":"35.1664323","Longitude":"33.3762188","Name":"Andrea Panayiotou"},{"Latitude":"34.7231039","Longitude":"33.0559899","Name":"Andrea Papadopoulou"},{"Latitude":"35.1662593","Longitude":"33.3160997","Name":"Andrea Papandreoou"},{"Latitude":"34.7194527","Longitude":"33.0102203","Name":"Andrea Papandreou"},{"Latitude":"34.6979938","Longitude":"32.6017115","Name":"Andrea Papandreou Street"},{"Latitude":"35.1099328","Longitude":"33.3852602","Name":"Andrea Paraskeva"},{"Latitude":"35.0510341","Longitude":"34.0111660","Name":"Andrea Paschali Michail Street"},{"Latitude":"35.1419146","Longitude":"33.3664806","Name":"Andrea Patsalide"},{"Latitude":"35.0421876","Longitude":"33.9752283","Name":"Andrea Patsalidi"},{"Latitude":"34.9297637","Longitude":"33.6308172","Name":"Andrea Pipinou Street"},{"Latitude":"35.1723904","Longitude":"33.3793323","Name":"Andrea Skotti"},{"Latitude":"34.9550140","Longitude":"33.6257877","Name":"Andrea Souroukli"},{"Latitude":"34.9142701","Longitude":"33.6308430","Name":"Andrea Souroukli Street"},{"Latitude":"35.0116035","Longitude":"33.7806523","Name":"Andrea Souroulki Street"},{"Latitude":"34.7039625","Longitude":"33.0080257","Name":"Andrea Souroulli"},{"Latitude":"35.1444553","Longitude":"33.3717820","Name":"Andrea Stavridi"},{"Latitude":"34.8389624","Longitude":"32.4300637","Name":"Andrea Stefani"},