[{"Latitude":"64.0930000","Longitude":"-21.9419218","Name":"17. júnítorg"},{"Latitude":"64.0310193","Longitude":"-20.9573326","Name":"5. Braut"},{"Latitude":"64.0985719","Longitude":"-21.7335955","Name":"A gata"},{"Latitude":"64.0999192","Longitude":"-21.7897047","Name":"A-D traðir"},{"Latitude":"64.0191009","Longitude":"-20.9419399","Name":"A-gata"},{"Latitude":"66.5046930","Longitude":"-16.4330529","Name":"Afaborg"},{"Latitude":"64.1488171","Longitude":"-21.9617745","Name":"Aflagrandi"},{"Latitude":"64.0855671","Longitude":"-21.8362353","Name":"Aflakór"},{"Latitude":"64.0949284","Longitude":"-21.8994922","Name":"Aftanhæð"},{"Latitude":"64.0062331","Longitude":"-20.3601162","Name":"Akbrautarvegur"},{"Latitude":"64.0986666","Longitude":"-21.9130362","Name":"Akrabraut"},{"Latitude":"64.3081328","Longitude":"-21.9156570","Name":"Akrafjallsvegur"},{"Latitude":"64.3075502","Longitude":"-22.0364377","Name":"Akrakot"},{"Latitude":"64.0850485","Longitude":"-21.8371317","Name":"Akrakór"},{"Latitude":"64.1219121","Longitude":"-21.8820379","Name":"Akraland"},{"Latitude":"64.0958023","Longitude":"-21.8783890","Name":"Akralind"},{"Latitude":"64.3223623","Longitude":"-22.0445207","Name":"Akralundur"},{"Latitude":"64.3277070","Longitude":"-22.0520057","Name":"Akranesvegur"},{"Latitude":"64.6407876","Longitude":"-22.3753856","Name":"Akrar"},{"Latitude":"64.6416651","Longitude":"-22.3737926","Name":"Akrar 3"},{"Latitude":"64.1023824","Longitude":"-21.8386179","Name":"Akrasel"},{"Latitude":"64.3106729","Longitude":"-22.0415431","Name":"Akravellir"},{"Latitude":"65.9551016","Longitude":"-18.1841914","Name":"Akurbakkavegur"},{"Latitude":"63.9758870","Longitude":"-22.5174705","Name":"Akurbraut"},{"Latitude":"63.8074438","Longitude":"-20.1425330","Name":"Akurbrekka"},{"Latitude":"63.6665552","Longitude":"-20.3758399","Name":"Akurey"},{"Latitude":"63.7050557","Longitude":"-20.2485292","Name":"Akureyjarvegur"},{"Latitude":"63.9757045","Longitude":"-21.0964627","Name":"Akurgerði"},{"Latitude":"64.0550630","Longitude":"-21.9803808","Name":"Akurholt"},{"Latitude":"64.0891247","Longitude":"-21.8129313","Name":"Akurhvarf"},{"Latitude":"63.9257615","Longitude":"-21.0046189","Name":"Akurhólar"},{"Latitude":"63.8611560","Longitude":"-20.1886202","Name":"Akurhólsvegur"},{"Latitude":"64.0790744","Longitude":"-22.6712818","Name":"Akurhúsavegur"},{"Latitude":"64.0789865","Longitude":"-22.6726686","Name":"Akurhúsvegur"},{"Latitude":"64.3101395","Longitude":"-15.2173102","Name":"Akurnes"},{"Latitude":"64.3152989","Longitude":"-22.0854543","Name":"Akursbraut"},{"Latitude":"66.1469949","Longitude":"-16.5129018","Name":"Akursel"},{"Latitude":"65.6938312","Longitude":"-18.1326846","Name":"Akursíða"},{"Latitude":"64.0494175","Longitude":"-21.9814304","Name":"Akurtorg"},{"Latitude":"64.0493326","Longitude":"-21.9817891","Name":"Akurvellir"},{"Latitude":"63.9958487","Longitude":"-21.1841459","Name":"Aldinmörk"},{"Latitude":"64.0990034","Longitude":"-21.7408058","Name":"Almannadalur"},{"Latitude":"64.0852986","Longitude":"-21.8396506","Name":"Almannakór"},{"Latitude":"64.2847278","Longitude":"-15.0480159","Name":"Almannaskarð"},{"Latitude":"64.2846176","Longitude":"-15.0355759","Name":"Almannaskarðsvegur"},{"Latitude":"64.0013443","Longitude":"-20.9809230","Name":"Alviðra"},{"Latitude":"64.1609133","Longitude":"-21.6639888","Name":"Amsturdam"},{"Latitude":"64.1462183","Longitude":"-21.9358062","Name":"Amtmannsstígur"},{"Latitude":"64.5423424","Longitude":"-21.6941075","Name":"Andakílsárvirkjunarvegur"},{"Latitude":"64.0873922","Longitude":"-21.8140280","Name":"Andarhvarf"},{"Latitude":"64.1280504","Longitude":"-21.7450385","Name":"Andrésbrunnur"},{"Latitude":"64.0079778","Longitude":"-20.5915694","Name":"Andrésfjós"},{"Latitude":"64.0080636","Longitude":"-20.5927983","Name":"Andrésfjósvegur"},{"Latitude":"64.0448549","Longitude":"-21.9544475","Name":"Apalskarð"},{"Latitude":"63.8085217","Longitude":"-20.7542564","Name":"Arabær"},{"Latitude":"64.1374564","Longitude":"-21.9526330","Name":"Aragata"},{"Latitude":"63.9836700","Longitude":"-22.3836240","Name":"Aragerði"},{"Latitude":"64.1094787","Longitude":"-21.8202257","Name":"Arahólar"},{"Latitude":"64.0852957","Longitude":"-21.8415233","Name":"Arakór"},{"Latitude":"64.0932967","Longitude":"-21.9201788","Name":"Aratún"},{"Latitude":"64.1717938","Longitude":"-21.7072199","Name":"Arkarholt"},{"Latitude":"65.6791732","Longitude":"-23.6094727","Name":"Arnarbakki"},{"Latitude":"64.0063069","Longitude":"-20.7964398","Name":"Arnarbæli"},{"Latitude":"63.9417999","Longitude":"-21.1803687","Name":"Arnarbælisvegur"},{"Latitude":"65.1745272","Longitude":"-15.9097537","Name":"Arnardalsleið"},{"Latitude":"63.7097843","Longitude":"-17.9775947","Name":"Arnardrangur"},{"Latitude":"65.3953206","Longitude":"-18.2297194","Name":"Arnarfellsvegur"},{"Latitude":"64.5604775","Longitude":"-21.7625387","Name":"Arnarflöt"},{"Latitude":"64.1381960","Longitude":"-21.9599453","Name":"Arnargata"},{"Latitude":"63.9998326","Longitude":"-21.2013408","Name":"Arnarheiði"},{"Latitude":"64.1321771","Longitude":"-21.9282528","Name":"Arnarhlíð"},{"Latitude":"64.6756717","Longitude":"-21.6317797","Name":"Arnarholt"},{"Latitude":"64.0720262","Longitude":"-21.9491085","Name":"Arnarhraun"},{"Latitude":"63.8507951","Longitude":"-20.8998120","Name":"Arnarhóll"},{"Latitude":"64.0093123","Longitude":"-20.9508008","Name":"Arnarhólsbraut"},{"Latitude":"64.1685364","Longitude":"-21.7263637","Name":"Arnarhöfði"},{"Latitude":"64.5521054","Longitude":"-21.8996842","Name":"Arnarklettur"},{"Latitude":"64.1018039","Longitude":"-21.9248120","Name":"Arnarnes"},{"Latitude":"64.0994116","Longitude":"-21.9124058","Name":"Arnarnesvegur"},{"Latitude":"63.8334782","Longitude":"-20.3964368","Name":"Arnarsandur"},{"Latitude":"64.0991954","Longitude":"-21.8994899","Name":"Arnarsmári"},{"Latitude":"64.7666602","Longitude":"-23.6380266","Name":"Arnarstapavegur"},{"Latitude":"66.0124556","Longitude":"-19.3575914","Name":"Arnarstaðir"},{"Latitude":"65.6920787","Longitude":"-18.1327420","Name":"Arnarsíða"},{"Latitude":"64.1706715","Longitude":"-21.7132624","Name":"Arnartangi"},{"Latitude":"65.1755669","Longitude":"-20.7170221","Name":"Arnarvatnsvegur"},{"Latitude":"63.9985254","Longitude":"-22.6333776","Name":"Arnarvöllur"},{"Latitude":"64.0911105","Longitude":"-21.9454140","Name":"Arnarás"},{"Latitude":"64.1409673","Longitude":"-21.9521112","Name":"Arngrímsgata"},{"Latitude":"65.1286780","Longitude":"-14.7622347","Name":"Arnheiðarstaðavegur"},{"Latitude":"65.0396669","Longitude":"-14.5967825","Name":"Arnhólsstaðir"},{"Latitude":"65.1465584","Longitude":"-14.5070653","Name":"Arnkelsgerðisvegur"},{"Latitude":"63.8556712","Longitude":"-20.5333882","Name":"Arnkötlustaðir"},{"Latitude":"65.4882702","Longitude":"-23.2224854","Name":"Arnórsstaðavegur neðri"},{"Latitude":"64.0967062","Longitude":"-21.8779998","Name":"Askalind"},{"Latitude":"63.9706682","Longitude":"-22.4919006","Name":"Aspardalur"},{"Latitude":"64.1019689","Longitude":"-21.8255133","Name":"Asparfell"},{"Latitude":"64.1150227","Longitude":"-21.8870725","Name":"Aspargrund"},{"Latitude":"64.1032176","Longitude":"-22.0230274","Name":"Asparholt"},{"Latitude":"64.0891222","Longitude":"-21.8107975","Name":"Asparhvarf"},{"Latitude":"65.6015760","Longitude":"-18.0348083","Name":"Asparhóll"},{"Latitude":"64.0847789","Longitude":"-21.9016253","Name":"Asparlundur"},{"Latitude":"64.4250576","Longitude":"-21.6678205","Name":"Asparskógar"},{"Latitude":"64.0708960","Longitude":"-22.6652253","Name":"Asparteigur"},{"Latitude":"64.0393656","Longitude":"-20.8334443","Name":"Asparvík"},{"Latitude":"64.0901122","Longitude":"-21.9444203","Name":"Asparás"},{"Latitude":"65.6796372","Longitude":"-19.3790622","Name":"Atlastaðir"},{"Latitude":"64.5539923","Longitude":"-21.7400811","Name":"Ausa"},{"Latitude":"63.8822337","Longitude":"-20.9048372","Name":"Austur-Meðalholt"},{"Latitude":"64.0957963","Longitude":"-21.9056245","Name":"Austurakrar"},{"Latitude":"64.1033768","Longitude":"-21.8169670","Name":"Austurberg"},{"Latitude":"63.9965441","Longitude":"-22.5524774","Name":"Austurbraut"},{"Latitude":"65.6783170","Longitude":"-18.0889895","Name":"Austurbrú"},{"Latitude":"64.1433227","Longitude":"-21.8651582","Name":"Austurbrún"},{"Latitude":"64.0517985","Longitude":"-20.9569316","Name":"Austurbrúnir"},{"Latitude":"64.1130438","Longitude":"-20.4896186","Name":"Austurbyggð"},{"Latitude":"65.3340332","Longitude":"-18.9961321","Name":"Austurdalsvegur"},{"Latitude":"64.1942704","Longitude":"-20.6464064","Name":"Austurey"},{"Latitude":"64.1395659","Longitude":"-21.7959890","Name":"Austurfold"},{"Latitude":"64.0396767","Longitude":"-22.7142963","Name":"Austurgarður"},{"Latitude":"64.0387547","Longitude":"-22.7012086","Name":"Austurgata"},{"Latitude":"64.1214113","Longitude":"-21.8540284","Name":"Austurgerði"},{"Latitude":"64.0267612","Longitude":"-20.9330512","Name":"Austurheiðarvegur"},{"Latitude":"64.0677739","Longitude":"-20.1996642","Name":"Austurhlíð"},{"Latitude":"65.7227902","Longitude":"-17.3727878","Name":"Austurhlíðarvegur"},{"Latitude":"64.1356198","Longitude":"-20.3234490","Name":"Austurhof"},{"Latitude":"64.5543278","Longitude":"-21.8982047","Name":"Austurholt"},{"Latitude":"64.0764326","Longitude":"-21.9211312","Name":"Austurhraun"},{"Latitude":"63.9302272","Longitude":"-20.9741731","Name":"Austurhólar"},{"Latitude":"63.8464094","Longitude":"-22.4239022","Name":"Austurhóp"},{"Latitude":"63.9827912","Longitude":"-20.8100031","Name":"Austurkot"},{"Latitude":"64.0860160","Longitude":"-21.8559675","Name":"Austurkór"},{"Latitude":"64.8462297","Longitude":"-14.3862721","Name":"Austurlandsvegur"},{"Latitude":"65.1612531","Longitude":"-15.9155524","Name":"Austurleið"},{"Latitude":"63.9956335","Longitude":"-21.1847548","Name":"Austurmörk"},{"Latitude":"63.9354166","Longitude":"-21.0168361","Name":"Austurmýri"},{"Latitude":"64.1476064","Longitude":"-21.9385718","Name":"Austurstræti"},{"Latitude":"64.1519635","Longitude":"-21.9863429","Name":"Austurströnd"},{"Latitude":"66.0733421","Longitude":"-18.6541844","Name":"Austurstígur"},{"Latitude":"65.6943434","Longitude":"-18.1267379","Name":"Austursíða"},{"Latitude":"66.3013995","Longitude":"-16.4427373","Name":"Austurtröð"},{"Latitude":"65.7014494","Longitude":"-21.6818843","Name":"Austurtún"},{"Latitude":"65.9780640","Longitude":"-18.3696591","Name":"Austurvegur"},{"Latitude":"64.4374880","Longitude":"-21.6127906","Name":"Austurás"},{"Latitude":"63.9102833","Longitude":"-20.2933208","Name":"Austvaðsholt"},{"Latitude":"63.9123821","Longitude":"-20.3007814","Name":"Austvaðsholtsvegur 2"},{"Latitude":"64.1394719","Longitude":"-21.9195082","Name":"Auðarstræti"},{"Latitude":"66.0490335","Longitude":"-17.3443839","Name":"Auðbrekka"},{"Latitude":"65.7605318","Longitude":"-23.4815480","Name":"Auðkúla"},{"Latitude":"65.5090433","Longitude":"-20.0293242","Name":"Auðkúlukirkjuvegur"},{"Latitude":"65.5227133","Longitude":"-20.1132219","Name":"Auðkúluvegur"},{"Latitude":"65.6020353","Longitude":"-18.5170673","Name":"Auðnavegur"},{"Latitude":"65.7199745","Longitude":"-17.2292501","Name":"Auðnir"},{"Latitude":"65.6026358","Longitude":"-18.5224091","Name":"Auðnir I"},{"Latitude":"64.0855153","Longitude":"-21.8429689","Name":"Auðnukór"},{"Latitude":"63.9472718","Longitude":"-21.1633434","Name":"Auðsholt"},{"Latitude":"64.0970791","Longitude":"-20.4485972","Name":"Auðsholtsvegur"},{"Latitude":"64.6606121","Longitude":"-21.1855886","Name":"Auðsstaðir"},{"Latitude":"65.5521586","Longitude":"-19.9322808","Name":"Auðólfsstaðir"},{"Latitude":"64.1245007","Longitude":"-21.8197570","Name":"Axarhöfði"},{"Latitude":"63.9648687","Longitude":"-22.5808754","Name":"Axartröð"},{"Latitude":"64.7966723","Longitude":"-14.5235018","Name":"Axarvegur"},{"Latitude":"66.4578161","Longitude":"-15.9496257","Name":"Aðalbraut"},{"Latitude":"65.7883911","Longitude":"-17.4276424","Name":"Aðaldalsvegur"},{"Latitude":"65.0747369","Longitude":"-22.7277955","Name":"Aðalgata"},{"Latitude":"64.1225804","Longitude":"-21.8821003","Name":"Aðalland"},{"Latitude":"64.1478599","Longitude":"-21.9419016","Name":"Aðalstræti"},{"Latitude":"63.9273270","Longitude":"-20.9882889","Name":"Aðaltjörn"},{"Latitude":"64.1597122","Longitude":"-21.7164548","Name":"Aðaltún"},{"Latitude":"64.3376381","Longitude":"-21.8227569","Name":"Aðalvík"},{"Latitude":"64.0844312","Longitude":"-21.8160367","Name":"Aðalþing"},{"Latitude":"64.1011166","Longitude":"-21.7328901","Name":"B gata"},{"Latitude":"64.0185478","Longitude":"-20.9420978","Name":"B-gata"},{"Latitude":"63.8653429","Longitude":"-21.1571619","Name":"Bakarísstígur"},{"Latitude":"65.1480743","Longitude":"-13.6678976","Name":"Bakkabakki"},{"Latitude":"63.4186990","Longitude":"-19.0124261","Name":"Bakkabraut"},{"Latitude":"66.0220624","Longitude":"-14.8207337","Name":"Bakkafjarðarhöfn"},{"Latitude":"64.3220709","Longitude":"-22.0598144","Name":"Bakkaflöt"},{"Latitude":"66.3020428","Longitude":"-16.4486206","Name":"Bakkagata"},{"Latitude":"64.8330470","Longitude":"-13.8733401","Name":"Bakkagerði"},{"Latitude":"64.1067765","Longitude":"-21.8769940","Name":"Bakkahjalli"},{"Latitude":"65.6878040","Longitude":"-18.1262871","Name":"Bakkahlíð"},{"Latitude":"65.1052866","Longitude":"-21.7681576","Name":"Bakkahvammur"},{"Latitude":"63.7639063","Longitude":"-20.4356844","Name":"Bakkakot"},{"Latitude":"63.8417378","Longitude":"-22.4183423","Name":"Bakkalág"},{"Latitude":"64.0614485","Longitude":"-20.9746578","Name":"Bakkar"},{"Latitude":"65.4789300","Longitude":"-18.6560083","Name":"Bakkasel"},{"Latitude":"64.1002300","Longitude":"-21.9015953","Name":"Bakkasmári"},{"Latitude":"64.1568739","Longitude":"-21.7588289","Name":"Bakkastaðir"},{"Latitude":"65.0722874","Longitude":"-14.0119603","Name":"Bakkastígur"},{"Latitude":"65.6945346","Longitude":"-18.1478941","Name":"Bakkasíða"},{"Latitude":"63.9286734","Longitude":"-20.9878960","Name":"Bakkatjörn"},{"Latitude":"65.5758273","Longitude":"-18.0912743","Name":"Bakkatröð"},{"Latitude":"64.3154051","Longitude":"-22.0924826","Name":"Bakkatún"},{"Latitude":"65.3325432","Longitude":"-20.5695599","Name":"Bakkavegur"},{"Latitude":"64.0411999","Longitude":"-20.8353222","Name":"Bakkavík"},{"Latitude":"64.1516422","Longitude":"-21.9994721","Name":"Bakkavör"},{"Latitude":"65.6222528","Longitude":"-17.8124629","Name":"Bakkaá"},{"Latitude":"65.7529340","Longitude":"-19.3787900","Name":"Bakki"},{"Latitude":"63.9616939","Longitude":"-21.1426234","Name":"Bakkárholt"},{"Latitude":"65.5744150","Longitude":"-20.0617245","Name":"Bakásavegur"},{"Latitude":"65.5928539","Longitude":"-23.9781452","Name":"Balar"},{"Latitude":"65.7215649","Longitude":"-20.0994229","Name":"Balaskarð"},{"Latitude":"66.0503525","Longitude":"-17.3484762","Name":"Baldursbrekka"},{"Latitude":"64.0029060","Longitude":"-22.5712150","Name":"Baldursgarður"},{"Latitude":"64.1419946","Longitude":"-21.9368197","Name":"Baldursgata"},{"Latitude":"65.5408012","Longitude":"-17.0836823","Name":"Baldursheimur"},{"Latitude":"65.6977779","Longitude":"-18.1304142","Name":"Baldursnes"},{"Latitude":"63.7289729","Longitude":"-20.5791709","Name":"Bali"},{"Latitude":"64.1469593","Longitude":"-21.9352160","Name":"Bankastræti"},{"Latitude":"65.6836384","Longitude":"-18.0913300","Name":"Bankastígur"},{"Latitude":"63.9357647","Longitude":"-20.9973509","Name":"Bankavegur"},{"Latitude":"64.1406561","Longitude":"-21.8447714","Name":"Barkarvogur"},{"Latitude":"64.1342562","Longitude":"-21.9111743","Name":"Barmahlíð"},{"Latitude":"64.7015498","Longitude":"-20.9800665","Name":"Barnafossvegur"},{"Latitude":"65.2564517","Longitude":"-21.0997293","Name":"Barnaskólavegur Reykjum"},{"Latitude":"65.7488549","Longitude":"-18.0806579","Name":"Barnaskóli"},{"Latitude":"65.0940751","Longitude":"-14.7402600","Name":"Barnaskóli Hallormsstað"},{"Latitude":"64.1692978","Longitude":"-21.7042369","Name":"Barrholt"},{"Latitude":"65.6737629","Longitude":"-18.1100459","Name":"Barrlundur"},{"Latitude":"66.0474486","Longitude":"-19.1139906","Name":"Barð"},{"Latitude":"64.1595520","Longitude":"-21.7484907","Name":"Barðastaðir"},{"Latitude":"65.4882379","Longitude":"-23.2263419","Name":"Barðastrandarvegur"},{"Latitude":"64.1566129","Longitude":"-21.9916025","Name":"Barðaströnd"},{"Latitude":"64.1318338","Longitude":"-21.8506133","Name":"Barðavogur"},{"Latitude":"65.6770292","Longitude":"-18.0920912","Name":"Barðstún"},{"Latitude":"64.1436998","Longitude":"-21.9191074","Name":"Barónsstígur"},{"Latitude":"64.0866373","Longitude":"-21.8257163","Name":"Baugakór"},{"Latitude":"63.8331485","Longitude":"-20.3874785","Name":"Baugalda"},{"Latitude":"64.3212433","Longitude":"-22.0428563","Name":"Baugalundur"},{"Latitude":"64.1286244","Longitude":"-21.9507630","Name":"Bauganes"},{"Latitude":"64.1293902","Longitude":"-21.9545787","Name":"Baugatangi"},{"Latitude":"65.6674564","Longitude":"-18.1063204","Name":"Baugatún"},{"Latitude":"63.9978584","Longitude":"-22.5727112","Name":"Baugholt"},{"Latitude":"66.0395017","Longitude":"-17.3362000","Name":"Baughóll"},{"Latitude":"64.1375415","Longitude":"-21.7742521","Name":"Baughús"},{"Latitude":"64.1627005","Longitude":"-21.7281815","Name":"Baugshlíð"},{"Latitude":"63.8238770","Longitude":"-20.9520525","Name":"Baugsstaðir"},{"Latitude":"63.9278958","Longitude":"-20.9836442","Name":"Baugstjörn"},{"Latitude":"65.2606999","Longitude":"-13.9993769","Name":"Baugsvegur"},{"Latitude":"64.0780393","Longitude":"-20.8468553","Name":"Baulurimi"},{"Latitude":"63.8451299","Longitude":"-22.4438619","Name":"Baðsvellir"},{"Latitude":"65.5535862","Longitude":"-20.3125808","Name":"Beinakelda"},{"Latitude":"63.9110362","Longitude":"-20.4036522","Name":"Beindalsholt"},{"Latitude":"65.6814926","Longitude":"-19.4570571","Name":"Beingarður"},{"Latitude":"64.9511971","Longitude":"-23.3413433","Name":"Berg"},{"Latitude":"63.8336712","Longitude":"-20.3902933","Name":"Bergalda"},{"Latitude":"64.0449386","Longitude":"-21.9919903","Name":"Berghella"},{"Latitude":"64.1699223","Longitude":"-21.7041473","Name":"Bergholt"},{"Latitude":"64.1753243","Longitude":"-20.4460818","Name":"Bergholtsvegur"},{"Latitude":"64.1581878","Longitude":"-20.2559552","Name":"Berghylur"},{"Latitude":"64.0249803","Longitude":"-22.5684959","Name":"Berghólabraut"},{"Latitude":"63.9285671","Longitude":"-21.0111480","Name":"Berghólar"},{"Latitude":"65.7019896","Longitude":"-18.1524236","Name":"Berghóll"},{"Latitude":"65.8944635","Longitude":"-19.4034746","Name":"Bergland I"},{"Latitude":"64.1704545","Longitude":"-21.6693862","Name":"Bergrúnargata"},{"Latitude":"64.1000305","Longitude":"-21.8996696","Name":"Bergsmári"},{"Latitude":"64.0443172","Longitude":"-21.9575365","Name":"Bergsskarð"},{"Latitude":"64.0299235","Longitude":"-20.5256507","Name":"Bergsstaðastræti 62"},{"Latitude":"64.2115999","Longitude":"-20.3273433","Name":"Bergsstaðir"},{"Latitude":"65.4379834","Longitude":"-19.7065673","Name":"Bergstaðakirkja"},{"Latitude":"64.1456743","Longitude":"-21.9319115","Name":"Bergstaðastræti"},{"Latitude":"64.0106541","Longitude":"-22.5589505","Name":"Bergvegur"},{"Latitude":"63.9792427","Longitude":"-22.5508397","Name":"Bergás"},{"Latitude":"63.6326550","Longitude":"-20.3336960","Name":"Bergþórshvoll"},{"Latitude":"64.1415551","Longitude":"-21.9180747","Name":"Bergþórugata"},{"Latitude":"64.3593471","Longitude":"-21.6413645","Name":"Berjabraut"},{"Latitude":"64.0630596","Longitude":"-21.9359443","Name":"Berjahlíð"},{"Latitude":"64.0682944","Longitude":"-20.8980941","Name":"Berjaholtslækur"},{"Latitude":"64.2992757","Longitude":"-21.5956738","Name":"Berjaland"},{"Latitude":"63.6925054","Longitude":"-20.2189611","Name":"Berjanes"},{"Latitude":"64.1419334","Longitude":"-21.7930176","Name":"Berjarimi"},{"Latitude":"64.0504347","Longitude":"-21.9802539","Name":"Berjavellir"},{"Latitude":"64.0636736","Longitude":"-20.9404566","Name":"Berjaás"},{"Latitude":"64.9570289","Longitude":"-23.0633822","Name":"Berserkseyri"},{"Latitude":"64.5371583","Longitude":"-21.9185398","Name":"Berugata"},{"Latitude":"64.6967784","Longitude":"-14.2563595","Name":"Berunesvegur"},{"Latitude":"64.6989805","Longitude":"-14.2544515","Name":"Berunesvegur 1"},{"Latitude":"63.8628669","Longitude":"-20.5398804","Name":"Berustaðir"},{"Latitude":"63.4358935","Longitude":"-20.2871621","Name":"Bessahraun"},{"Latitude":"64.1040152","Longitude":"-22.0038685","Name":"Bessastaðavegur"},{"Latitude":"65.6113363","Longitude":"-19.5780791","Name":"Bessastaðir"},{"Latitude":"63.4381249","Longitude":"-20.2729531","Name":"Bessastígur"},{"Latitude":"63.9689909","Longitude":"-22.4902146","Name":"Beykidalur"},{"Latitude":"64.1263547","Longitude":"-21.9066425","Name":"Beykihlíð"},{"Latitude":"65.6720731","Longitude":"-18.1132766","Name":"Beykilundur"},{"Latitude":"64.3242964","Longitude":"-22.0500615","Name":"Beykiskógar"},{"Latitude":"64.7639460","Longitude":"-21.5535152","Name":"Bifrastarvegur"},{"Latitude":"64.7658251","Longitude":"-21.5516843","Name":"Bifröst"},{"Latitude":"64.0644254","Longitude":"-21.9286627","Name":"Birkiberg"},{"Latitude":"64.0260275","Longitude":"-20.8707659","Name":"Birkibraut"},{"Latitude":"63.9704598","Longitude":"-22.4902480","Name":"Birkidalur"},{"Latitude":"64.7038972","Longitude":"-20.8633414","Name":"Birkiflöt"},{"Latitude":"64.1166717","Longitude":"-21.8846554","Name":"Birkigrund"},{"Latitude":"65.7374504","Longitude":"-19.6483205","Name":"Birkihlíð"},{"Latitude":"64.1026793","Longitude":"-22.0189071","Name":"Birkiholt"},{"Latitude":"65.6418590","Longitude":"-16.9006218","Name":"Birkihraun"},{"Latitude":"64.0605779","Longitude":"-21.9571332","Name":"Birkihvammur"},{"Latitude":"64.0958860","Longitude":"-21.8997341","Name":"Birkihæð"},{"Latitude":"63.9252418","Longitude":"-21.0057455","Name":"Birkihólar"},{"Latitude":"64.0680512","Longitude":"-20.2194317","Name":"Birkikinn"},{"Latitude":"64.5570978","Longitude":"-21.8948281","Name":"Birkiklettur"},{"Latitude":"65.6743862","Longitude":"-18.1065670","Name":"Birkilundur"},{"Latitude":"64.1421443","Longitude":"-21.9536975","Name":"Birkimelur"},{"Latitude":"63.9987114","Longitude":"-21.2007060","Name":"Birkimörk"},{"Latitude":"64.7034178","Longitude":"-20.8646238","Name":"Birkirjóður"},{"Latitude":"64.3233754","Longitude":"-22.0476782","Name":"Birkiskógar"},{"Latitude":"64.0076315","Longitude":"-22.5645995","Name":"Birkiteigur"},{"Latitude":"64.0648962","Longitude":"-22.6522206","Name":"Birkitún"},{"Latitude":"64.1698518","Longitude":"-20.4656706","Name":"Birkivellir"},{"Latitude":"64.0885078","Longitude":"-21.9422649","Name":"Birkiás"},{"Latitude":"65.9668874","Longitude":"-22.6574002","Name":"Birnustaðir"},{"Latitude":"64.0703204","Longitude":"-20.4134583","Name":"Birtingaholt"},{"Latitude":"64.1221432","Longitude":"-21.8226426","Name":"Birtingakvísl"},{"Latitude":"63.8497811","Longitude":"-21.3875550","Name":"Biskupabúðir"},{"Latitude":"65.6629881","Longitude":"-19.0799032","Name":"Biskupalaug"},{"Latitude":"64.1263188","Longitude":"-21.7346506","Name":"Biskupsgata"},{"Latitude":"63.9505641","Longitude":"-21.0215500","Name":"Biskupstungnabraut"},{"Latitude":"65.6972512","Longitude":"-18.1781723","Name":"Bitrugerðisvegur"},{"Latitude":"64.1203974","Longitude":"-21.8075212","Name":"Bitruháls"},{"Latitude":"64.1023976","Longitude":"-21.7754588","Name":"Bjallavað"},{"Latitude":"63.9306606","Longitude":"-20.2699206","Name":"Bjallavegur"},{"Latitude":"63.8368836","Longitude":"-22.4357021","Name":"Bjarg"},{"Latitude":"64.1439189","Longitude":"-21.9340607","Name":"Bjargarstígur"},{"Latitude":"64.1694466","Longitude":"-21.7108054","Name":"Bjargartangi"},{"Latitude":"64.1562954","Longitude":"-21.6580487","Name":"Bjargslundur"},{"Latitude":"64.0466046","Longitude":"-21.9619241","Name":"Bjargsskarð"},{"Latitude":"64.1560850","Longitude":"-21.6574280","Name":"Bjargsvegur"},{"Latitude":"64.0854090","Longitude":"-20.7494354","Name":"Bjarkarborgir"},{"Latitude":"64.0813226","Longitude":"-20.7529102","Name":"Bjarkarborgir Heimreið"},{"Latitude":"65.9702624","Longitude":"-18.5301960","Name":"Bjarkarbraut"},{"Latitude":"63.9719948","Longitude":"-22.4873082","Name":"Bjarkardalur"},{"Latitude":"64.1416524","Longitude":"-21.9456008","Name":"Bjarkargata"},{"Latitude":"64.3183975","Longitude":"-22.0509187","Name":"Bjarkargrund"},{"Latitude":"63.9981795","Longitude":"-21.1919934","Name":"Bjarkarheiði"},{"Latitude":"65.2604440","Longitude":"-14.4005798","Name":"Bjarkarhlíð"},{"Latitude":"65.5209222","Longitude":"-23.4021683","Name":"Bjarkarholt"},{"Latitude":"63.6350792","Longitude":"-20.0654591","Name":"Bjarkarland"},{"Latitude":"65.6709569","Longitude":"-18.1107221","Name":"Bjarkarlundur"},{"Latitude":"65.9470828","Longitude":"-17.4257318","Name":"Bjarkarlundur 1"},{"Latitude":"65.9452647","Longitude":"-17.4219059","Name":"Bjarkarlundur 2"},{"Latitude":"65.9476439","Longitude":"-17.4187368","Name":"Bjarkarlundur 4"},{"Latitude":"65.9475251","Longitude":"-17.4221666","Name":"Bjarkarlundur 5"},{"Latitude":"65.9485331","Longitude":"-17.4205254","Name":"Bjarkarlundur 6"},{"Latitude":"65.6826751","Longitude":"-18.0980015","Name":"Bjarkarstígur"},{"Latitude":"64.0654998","Longitude":"-22.6526611","Name":"Bjarkartún"},{"Latitude":"64.0612999","Longitude":"-20.9396733","Name":"Bjarkarás"},{"Latitude":"65.2592773","Longitude":"-14.3835857","Name":"Bjarkasel"},{"Latitude":"64.0514127","Longitude":"-21.9824478","Name":"Bjarkavellir"},{"Latitude":"64.0623824","Longitude":"-21.9358429","Name":"Bjarmahlíð"},{"Latitude":"64.1185843","Longitude":"-21.8823178","Name":"Bjarmaland"},{"Latitude":"65.6820522","Longitude":"-18.0934256","Name":"Bjarmastígur"},{"Latitude":"64.2610892","Longitude":"-15.2059252","Name":"Bjarnahóll"},{"Latitude":"64.3251878","Longitude":"-15.2402113","Name":"Bjarnanes"},{"Latitude":"64.3198392","Longitude":"-15.2409355","Name":"Bjarnaneskirkjuvegur"},{"Latitude":"64.5361047","Longitude":"-21.9209038","Name":"Bjarnarbraut"},{"Latitude":"66.0320046","Longitude":"-19.0107860","Name":"Bjarnargil"},{"Latitude":"64.2617868","Longitude":"-15.2051418","Name":"Bjarnarhóll"},{"Latitude":"64.9892805","Longitude":"-22.9527017","Name":"Bjarnarhöfn"},{"Latitude":"63.8891263","Longitude":"-21.1564622","Name":"Bjarnarmýri"},{"Latitude":"64.1436908","Longitude":"-21.9283605","Name":"Bjarnarstígur"},{"Latitude":"63.9410548","Longitude":"-21.3025075","Name":"Bjarnastaðavegur"},{"Latitude":"64.1020065","Longitude":"-22.0315534","Name":"Bjarnastaðavör"},{"Latitude":"66.0197144","Longitude":"-16.4045727","Name":"Bjarnastaðir"},{"Latitude":"64.7086032","Longitude":"-21.0210729","Name":"Bjarnastaðir (svæði 1)"},{"Latitude":"64.7055570","Longitude":"-21.0188533","Name":"Bjarnastaðir (svæði 2)"},{"Latitude":"65.5943413","Longitude":"-19.3353642","Name":"Bjarnastaðir I"},{"Latitude":"64.0033200","Longitude":"-22.5788647","Name":"Bjarnavellir"},{"Latitude":"64.1112229","Longitude":"-21.8852383","Name":"Bjarnhólastígur"},{"Latitude":"64.1666734","Longitude":"-21.7184470","Name":"Bjartahlíð"},{"Latitude":"63.9135755","Longitude":"-20.8624147","Name":"Bjartaland"},{"Latitude":"63.9104924","Longitude":"-20.3988433","Name":"Bjálmholt"},{"Latitude":"63.8007145","Longitude":"-20.4510377","Name":"Bjóla"},{"Latitude":"65.2609336","Longitude":"-14.0105790","Name":"Bjólfsgata"},{"Latitude":"63.7999729","Longitude":"-20.4523886","Name":"Bjóluhjáleiga"},{"Latitude":"63.9210985","Longitude":"-21.0268612","Name":"Björk"},{"Latitude":"64.0087438","Longitude":"-20.5947014","Name":"Björnskot"},{"Latitude":"64.0954806","Longitude":"-21.8584511","Name":"Björtusalir"},{"Latitude":"64.1157142","Longitude":"-21.8458650","Name":"Bleikargróf"},{"Latitude":"64.2143022","Longitude":"-20.5675247","Name":"Bleikhóll"},{"Latitude":"64.1229950","Longitude":"-21.8204474","Name":"Bleikjukvísl"},{"Latitude":"63.9301065","Longitude":"-21.0268503","Name":"Bleikjulækur"},{"Latitude":"65.1571899","Longitude":"-20.4424077","Name":"Bleikskvíslarskáli"},{"Latitude":"65.0770385","Longitude":"-14.0228025","Name":"Bleiksárhlíð"},{"Latitude":"65.6669548","Longitude":"-18.1321844","Name":"Blesagata"},{"Latitude":"63.9848576","Longitude":"-20.5485139","Name":"Blesastaðir"},{"Latitude":"64.1177576","Longitude":"-21.8468039","Name":"Blesugróf"},{"Latitude":"63.9952811","Longitude":"-22.5591695","Name":"Blikabraut"},{"Latitude":"64.1070811","Longitude":"-21.8788901","Name":"Blikahjalli"},{"Latitude":"64.1104042","Longitude":"-21.8199860","Name":"Blikahólar"},{"Latitude":"64.1667956","Longitude":"-21.7267245","Name":"Blikahöfði"},{"Latitude":"64.1014588","Longitude":"-21.9277706","Name":"Blikanes"},{"Latitude":"64.1464646","Longitude":"-21.7572589","Name":"Blikastaðavegur"},{"Latitude":"64.1147928","Longitude":"-22.0055324","Name":"Blikastígur"},{"Latitude":"63.9726539","Longitude":"-22.5206213","Name":"Blikatjörn"},{"Latitude":"63.9980745","Longitude":"-22.6296537","Name":"Blikavöllur"},{"Latitude":"64.0556923","Longitude":"-21.9555241","Name":"Blikaás"},{"Latitude":"63.8511612","Longitude":"-22.4419355","Name":"Bláalónsvegur"},{"Latitude":"65.2536248","Longitude":"-14.4153042","Name":"Bláargerði"},{"Latitude":"63.9882510","Longitude":"-21.6425135","Name":"Bláfjallaleið"},{"Latitude":"64.0650684","Longitude":"-21.5787960","Name":"Bláfjallavegur"},{"Latitude":"64.1376989","Longitude":"-21.8109624","Name":"Bláhamrar"},{"Latitude":"64.0960744","Longitude":"-21.8568710","Name":"Blásalir"},{"Latitude":"65.2626372","Longitude":"-14.3900144","Name":"Bláskógar"},{"Latitude":"64.1050508","Longitude":"-22.0153514","Name":"Blátún"},{"Latitude":"64.0964171","Longitude":"-21.9012098","Name":"Blómahæð"},{"Latitude":"64.3217312","Longitude":"-22.0442364","Name":"Blómalundur"},{"Latitude":"65.7163461","Longitude":"-18.1508385","Name":"Blómstursvallavegur"},{"Latitude":"63.8346574","Longitude":"-21.0574624","Name":"Blómsturvellir"},{"Latitude":"64.1454477","Longitude":"-21.9515205","Name":"Blómvallagata"},{"Latitude":"64.0806130","Longitude":"-21.9524692","Name":"Blómvangur"},{"Latitude":"64.0509939","Longitude":"-21.9766641","Name":"Blómvellir"},{"Latitude":"64.1089027","Longitude":"-21.8357531","Name":"Blöndubakki"},{"Latitude":"65.6593478","Longitude":"-20.2940837","Name":"Blöndubyggð"},{"Latitude":"65.4500044","Longitude":"-14.5780786","Name":"Blöndugerði"},{"Latitude":"64.1323077","Longitude":"-21.9125069","Name":"Blönduhlíð"},{"Latitude":"64.3207267","Longitude":"-21.6352689","Name":"Blönduholt"},{"Latitude":"65.4175594","Longitude":"-19.8244725","Name":"Blönduvirkjun"},{"Latitude":"64.0325227","Longitude":"-22.6944313","Name":"Bogabraut"},{"Latitude":"64.1325732","Longitude":"-21.9058356","Name":"Bogahlíð"},{"Latitude":"64.2509031","Longitude":"-15.2082995","Name":"Bogaslóð"},{"Latitude":"65.6944572","Longitude":"-18.1453892","Name":"Bogasíða"},{"Latitude":"64.1684210","Longitude":"-21.7033918","Name":"Bogatangi"},{"Latitude":"63.9641125","Longitude":"-22.5802262","Name":"Bogatröð"},{"Latitude":"63.8420271","Longitude":"-20.3948307","Name":"Bogatún"},{"Latitude":"63.9858172","Longitude":"-22.5562930","Name":"Bolafótur"},{"Latitude":"63.8335539","Longitude":"-20.3886128","Name":"Bolalda"},{"Latitude":"64.1401241","Longitude":"-21.8958525","Name":"Bolholt"},{"Latitude":"64.1584219","Longitude":"-21.9959713","Name":"Bollagarðar"},{"Latitude":"64.1367572","Longitude":"-21.9181493","Name":"Bollagata"},{"Latitude":"63.7276713","Longitude":"-20.0307983","Name":"Bollakot"},{"Latitude":"64.0993777","Longitude":"-21.8992958","Name":"Bollasmári"},{"Latitude":"65.4556718","Longitude":"-19.8073626","Name":"Bollastaðir"},{"Latitude":"64.1680288","Longitude":"-21.7166768","Name":"Bollatangi"},{"Latitude":"66.1313712","Longitude":"-23.1726176","Name":"Bolungarvíkurgöng"},{"Latitude":"65.5978960","Longitude":"-18.0352106","Name":"Borg"},{"Latitude":"65.7083450","Longitude":"-21.6672640","Name":"Borgabraut"},{"Latitude":"65.6876811","Longitude":"-18.1365770","Name":"Borgarbraut"},{"Latitude":"64.0757020","Longitude":"-20.9723014","Name":"Borgarbrún"},{"Latitude":"63.7266728","Longitude":"-18.5483366","Name":"Borgarfell"},{"Latitude":"64.6915509","Longitude":"-21.4616818","Name":"Borgarfjarðarbraut"},{"Latitude":"65.3441533","Longitude":"-14.3527479","Name":"Borgarfjarðarvegur"},{"Latitude":"65.7437257","Longitude":"-19.6278147","Name":"Borgarflöt"},{"Latitude":"64.6561126","Longitude":"-14.2983284","Name":"Borgargarður"},{"Latitude":"65.6891495","Longitude":"-21.4421871","Name":"Borgargata"},{"Latitude":"65.7394990","Longitude":"-19.6307024","Name":"Borgargerði"},{"Latitude":"65.7235689","Longitude":"-19.6070950","Name":"Borgargerðisvegur"},{"Latitude":"64.1883948","Longitude":"-15.8138262","Name":"Borgarhafnarvegur"},{"Latitude":"63.9999937","Longitude":"-21.1965440","Name":"Borgarheiði"},{"Latitude":"65.6901807","Longitude":"-18.1230887","Name":"Borgarhlíð"},{"Latitude":"64.1110635","Longitude":"-21.9088342","Name":"Borgarholt"},{"Latitude":"64.1111285","Longitude":"-21.9107420","Name":"Borgarholtsbraut"},{"Latitude":"64.0039770","Longitude":"-21.2049501","Name":"Borgarhraun"},{"Latitude":"65.5115101","Longitude":"-19.2961006","Name":"Borgarhóll"},{"Latitude":"64.0093836","Longitude":"-20.8653174","Name":"Borgarhólsbraut"},{"Latitude":"64.1922037","Longitude":"-15.8142064","Name":"Borgarhöfn"},{"Latitude":"64.1835295","Longitude":"-15.8083226","Name":"Borgarhöfn Vagnstaðir"},{"Latitude":"63.9781046","Longitude":"-20.5878690","Name":"Borgarkot"},{"Latitude":"64.6569027","Longitude":"-14.2947498","Name":"Borgarland"},{"Latitude":"64.0408858","Longitude":"-20.8963643","Name":"Borgarleynir"},{"Latitude":"65.7378930","Longitude":"-19.6239510","Name":"Borgarmýrar"},{"Latitude":"65.7428214","Longitude":"-19.6327894","Name":"Borgarmýri"},{"Latitude":"65.1389096","Longitude":"-13.7423581","Name":"Borgarnaust"},{"Latitude":"65.7439254","Longitude":"-19.6295833","Name":"Borgarröst"},{"Latitude":"63.8330780","Longitude":"-20.3954548","Name":"Borgarsandur"},{"Latitude":"64.9303602","Longitude":"-14.0101731","Name":"Borgarstígur"},{"Latitude":"65.6929053","Longitude":"-18.1462287","Name":"Borgarsíða"},{"Latitude":"64.1687244","Longitude":"-21.7116127","Name":"Borgartangi"},{"Latitude":"65.7420715","Longitude":"-19.6280578","Name":"Borgarteigur"},{"Latitude":"64.1463944","Longitude":"-21.8926485","Name":"Borgartún"},{"Latitude":"65.4619160","Longitude":"-20.6121138","Name":"Borgarvegur"},{"Latitude":"64.5508639","Longitude":"-21.9070411","Name":"Borgarvík"},{"Latitude":"64.1521369","Longitude":"-21.8011863","Name":"Borgavegur"},{"Latitude":"64.3101950","Longitude":"-15.2273477","Name":"Borgir"},{"Latitude":"65.2100746","Longitude":"-21.0951824","Name":"Borðeyrarvegur"},{"Latitude":"65.0718282","Longitude":"-14.0110847","Name":"Botnabraut"},{"Latitude":"65.2585069","Longitude":"-13.9996683","Name":"Botnahlíð"},{"Latitude":"64.3854508","Longitude":"-21.3483240","Name":"Botnsdalsvegur"},{"Latitude":"66.0406991","Longitude":"-17.3098639","Name":"Botnsvatn"},{"Latitude":"66.0804741","Longitude":"-23.3702183","Name":"Botnsvegur"},{"Latitude":"66.3024698","Longitude":"-16.4467099","Name":"Boðagerði"},{"Latitude":"64.1485505","Longitude":"-21.9683540","Name":"Boðagrandi"},{"Latitude":"64.0804309","Longitude":"-21.9723104","Name":"Boðahlein"},{"Latitude":"63.4388461","Longitude":"-20.2758027","Name":"Boðaslóð"},{"Latitude":"64.0798829","Longitude":"-21.8188150","Name":"Boðaþing"},{"Latitude":"64.1992935","Longitude":"-20.9255351","Name":"Bragabót"},{"Latitude":"64.1418501","Longitude":"-21.9333693","Name":"Bragagata"},{"Latitude":"64.0073836","Longitude":"-22.5832293","Name":"Bragavellir"},{"Latitude":"65.7347050","Longitude":"-18.3377310","Name":"Brakandi II"},{"Latitude":"65.4654793","Longitude":"-19.8138415","Name":"Brandsstaðir"},{"Latitude":"64.1117352","Longitude":"-21.8869450","Name":"Brattabrekka"},{"Latitude":"65.7086224","Longitude":"-21.6659058","Name":"Brattagata"},{"Latitude":"65.6884101","Longitude":"-18.1262805","Name":"Brattahlíð"},{"Latitude":"64.0645500","Longitude":"-21.9422385","Name":"Brattakinn"},{"Latitude":"65.6917008","Longitude":"-18.1431270","Name":"Brattasíða"},{"Latitude":"64.1091897","Longitude":"-21.8879224","Name":"Brattatunga"},{"Latitude":"65.9242347","Longitude":"-18.3623267","Name":"Brattavellir"},{"Latitude":"64.1701773","Longitude":"-21.7030092","Name":"Brattholt"},{"Latitude":"64.1419604","Longitude":"-21.9065912","Name":"Brautarholt"},{"Latitude":"64.0225201","Longitude":"-20.5212368","Name":"Brautarholtsskóli"},{"Latitude":"64.2426155","Longitude":"-21.8304743","Name":"Brautarholtsvegur"},{"Latitude":"64.1780014","Longitude":"-20.4529310","Name":"Brautarhóll"},{"Latitude":"64.1194462","Longitude":"-21.8800132","Name":"Brautarland"},{"Latitude":"64.1142592","Longitude":"-21.7890137","Name":"Brautarás"},{"Latitude":"65.3710710","Longitude":"-19.1997333","Name":"Breið"},{"Latitude":"65.1479647","Longitude":"-13.6752986","Name":"Breiðablik"},{"Latitude":"63.4390900","Longitude":"-20.2672000","Name":"Breiðabliksvegur"},{"Latitude":"65.4490908","Longitude":"-20.7005570","Name":"Breiðabólsstaðarkirkja"},{"Latitude":"64.1295933","Longitude":"-16.0159313","Name":"Breiðabólsstaðarvegur"},{"Latitude":"63.7389828","Longitude":"-20.1317750","Name":"Breiðabólstaður"},{"Latitude":"66.0558138","Longitude":"-23.2539972","Name":"Breiðadals- og Botnsheiðargöng"},{"Latitude":"66.0218509","Longitude":"-23.3788250","Name":"Breiðadalur Fremri"},{"Latitude":"64.1259522","Longitude":"-21.8730513","Name":"Breiðagerði"},{"Latitude":"64.0912638","Longitude":"-21.8079072","Name":"Breiðahvarf"},{"Latitude":"64.0964147","Longitude":"-21.9188320","Name":"Breiðakur"},{"Latitude":"63.8331693","Longitude":"-20.3890595","Name":"Breiðalda"},{"Latitude":"64.0459207","Longitude":"-16.3113009","Name":"Breiðalónsvegur"},{"Latitude":"63.9976948","Longitude":"-21.1895927","Name":"Breiðamörk"},{"Latitude":"63.9466735","Longitude":"-21.0061330","Name":"Breiðamýri"},{"Latitude":"64.0395257","Longitude":"-20.4143967","Name":"Breiðanes"},{"Latitude":"64.0417021","Longitude":"-20.4180754","Name":"Breiðanesvegur"},{"Latitude":"64.3129252","Longitude":"-22.0894717","Name":"Breiðargata"},{"Latitude":"65.3321391","Longitude":"-14.3691604","Name":"Breiðavað"},{"Latitude":"64.1521582","Longitude":"-21.7729383","Name":"Breiðavík"},{"Latitude":"63.9701104","Longitude":"-22.5831678","Name":"Breiðbraut"},{"Latitude":"64.7655246","Longitude":"-14.0631371","Name":"Breiðdalsvegur"},{"Latitude":"64.7974482","Longitude":"-14.0086057","Name":"Breiðdalsvíkurvegur"},{"Latitude":"64.0409129","Longitude":"-21.9948192","Name":"Breiðhella"},{"Latitude":"63.9000326","Longitude":"-20.8178705","Name":"Breiðholt"},{"Latitude":"64.1003646","Longitude":"-21.7815458","Name":"Breiðholtsbraut"},{"Latitude":"64.0349831","Longitude":"-22.6913882","Name":"Breiðhóll"},{"Latitude":"64.1235868","Longitude":"-21.8238027","Name":"Breiðhöfði"},{"Latitude":"63.8638374","Longitude":"-20.3384005","Name":"Breiðibakki"},{"Latitude":"65.0328463","Longitude":"-14.1948008","Name":"Breiðimelur"},{"Latitude":"63.9827433","Longitude":"-22.3768538","Name":"Breiðuholt"},{"Latitude":"64.0801853","Longitude":"-21.9597562","Name":"Breiðvangur"},{"Latitude":"64.0871629","Longitude":"-21.9391150","Name":"Breiðás"},{"Latitude":"63.9740737","Longitude":"-22.4824710","Name":"Brekadalur"},{"Latitude":"63.4387303","Longitude":"-20.2742173","Name":"Brekastígur"},{"Latitude":"65.6640768","Longitude":"-18.1016127","Name":"Brekatún"},{"Latitude":"64.6586498","Longitude":"-14.2874665","Name":"Brekka"},{"Latitude":"66.2185263","Longitude":"-15.7290668","Name":"Brekknakot"},{"Latitude":"63.4503166","Longitude":"-19.1419088","Name":"Brekknavegur"},{"Latitude":"64.1031554","Longitude":"-21.7889660","Name":"Brekknaás"},{"Latitude":"65.0798815","Longitude":"-14.0369942","Name":"Brekkubarð"},{"Latitude":"64.3220782","Longitude":"-22.0796695","Name":"Brekkubraut"},{"Latitude":"65.2872508","Longitude":"-14.4241846","Name":"Brekkubrún"},{"Latitude":"65.6556808","Longitude":"-20.3030995","Name":"Brekkubyggð"},{"Latitude":"65.4689900","Longitude":"-14.4136800","Name":"Brekkubæjarvegur"},{"Latitude":"64.3173680","Longitude":"-15.2404420","Name":"Brekkubær"},{"Latitude":"64.3226747","Longitude":"-22.0585813","Name":"Brekkuflöt"},{"Latitude":"65.7516611","Longitude":"-19.6533062","Name":"Brekkugata"},{"Latitude":"65.0339219","Longitude":"-14.2009981","Name":"Brekkugerði"},{"Latitude":"65.1051511","Longitude":"-14.8081692","Name":"Brekkugerðishús"},{"Latitude":"64.2605283","Longitude":"-20.4973405","Name":"Brekkuheiði"},{"Latitude":"64.1076380","Longitude":"-21.8781487","Name":"Brekkuhjalli"},{"Latitude":"64.0619347","Longitude":"-21.9370291","Name":"Brekkuhlíð"},{"Latitude":"64.0589764","Longitude":"-21.9689511","Name":"Brekkuhvammur"},{"Latitude":"64.0921568","Longitude":"-21.8014085","Name":"Brekkuhvarf"},{"Latitude":"65.8482383","Longitude":"-18.1998434","Name":"Brekkuhús"},{"Latitude":"65.8346436","Longitude":"-19.3506737","Name":"Brekkukot"},{"Latitude":"64.1000993","Longitude":"-22.0174692","Name":"Brekkuland"},{"Latitude":"64.1502726","Longitude":"-21.8775358","Name":"Brekkulækur"},{"Latitude":"63.8664520","Longitude":"-20.4549719","Name":"Brekkur"},{"Latitude":"65.2593283","Longitude":"-14.3851321","Name":"Brekkusel"},{"Latitude":"64.0992896","Longitude":"-22.0232180","Name":"Brekkuskógar"},{"Latitude":"64.2570729","Longitude":"-20.4984181","Name":"Brekkuskógur"},{"Latitude":"64.0991232","Longitude":"-21.8975130","Name":"Brekkusmári"},{"Latitude":"64.7515512","Longitude":"-23.6471257","Name":"Brekkustígur"},{"Latitude":"65.6922623","Longitude":"-18.1433400","Name":"Brekkusíða"},{"Latitude":"64.1686199","Longitude":"-21.7143304","Name":"Brekkutangi"},{"Latitude":"65.5711336","Longitude":"-18.0974913","Name":"Brekkutröð"},{"Latitude":"65.7352572","Longitude":"-19.6355725","Name":"Brekkutún"},{"Latitude":"65.0870551","Longitude":"-14.8356253","Name":"Brekkuvegur"},{"Latitude":"64.0549818","Longitude":"-21.9307640","Name":"Brekkuás"},{"Latitude":"65.5222639","Longitude":"-19.4183108","Name":"Brenniborg"},{"Latitude":"65.7217723","Longitude":"-19.6320480","Name":"Brennigerði"},{"Latitude":"65.7350586","Longitude":"-19.6483259","Name":"Brennihlíð"},{"Latitude":"65.4015877","Longitude":"-14.3123965","Name":"Brennistaðir"},{"Latitude":"64.6961134","Longitude":"-20.9997172","Name":"Brennubyggð"},{"Latitude":"64.3227174","Longitude":"-22.0569098","Name":"Bresaflöt"},{"Latitude":"66.1586357","Longitude":"-23.2454324","Name":"Brimbrjótsgata"},{"Latitude":"63.9747239","Longitude":"-22.4985594","Name":"Brimdalur"},{"Latitude":"63.4377489","Longitude":"-20.2800139","Name":"Brimhólabraut"},{"Latitude":"63.4361680","Longitude":"-20.2791892","Name":"Brimhólagata"},{"Latitude":"64.0694170","Longitude":"-22.6595363","Name":"Brimklöpp"},{"Latitude":"64.9216372","Longitude":"-13.9008602","Name":"Brimnes"},{"Latitude":"65.9754892","Longitude":"-18.5364685","Name":"Brimnesbraut"},{"Latitude":"66.0748666","Longitude":"-18.6403130","Name":"Brimnesvegur"},{"Latitude":"65.6599739","Longitude":"-20.3014045","Name":"Brimslóð"},{"Latitude":"65.5297470","Longitude":"-23.1948040","Name":"Brjánslækjarvegur"},{"Latitude":"65.5259115","Longitude":"-23.1980582","Name":"Brjánslækur"},{"Latitude":"64.0034788","Longitude":"-20.5521634","Name":"Brjánsstaðir"},{"Latitude":"65.5970778","Longitude":"-21.3599566","Name":"Broddanesskólavegur"},{"Latitude":"65.5967065","Longitude":"-21.3652625","Name":"Broddanesvegur"},{"Latitude":"65.5937985","Longitude":"-23.9755878","Name":"Brunnar"},{"Latitude":"64.1882753","Longitude":"-15.8609480","Name":"Brunnavallavegur"},{"Latitude":"66.0720750","Longitude":"-23.1185988","Name":"Brunngata"},{"Latitude":"64.2940188","Longitude":"-15.4376814","Name":"Brunnhólskirkja"},{"Latitude":"64.0712876","Longitude":"-21.9618492","Name":"Brunnstígur"},{"Latitude":"63.9999467","Longitude":"-22.5458774","Name":"Bryggjuvegur"},{"Latitude":"63.8515777","Longitude":"-21.3841237","Name":"Brynjólfsbúð"},{"Latitude":"64.1404380","Longitude":"-21.9530049","Name":"Brynjólfsgata"},{"Latitude":"64.1555264","Longitude":"-20.3115569","Name":"Bryðjuholt"},{"Latitude":"64.5358324","Longitude":"-21.9237211","Name":"Brákarbraut"},{"Latitude":"64.5359292","Longitude":"-21.9247590","Name":"Brákarsund"},{"Latitude":"65.6721818","Longitude":"-18.1179028","Name":"Brálundur"},{"Latitude":"64.1448006","Longitude":"-21.9510004","Name":"Brávallagata"},{"Latitude":"65.2689494","Longitude":"-14.3902602","Name":"Brávellir"},{"Latitude":"65.5921405","Longitude":"-23.9755154","Name":"Bræðraborg"},{"Latitude":"64.1489392","Longitude":"-21.9537059","Name":"Bræðraborgarstígur"},{"Latitude":"64.1095517","Longitude":"-21.8999567","Name":"Bræðratunga"},{"Latitude":"64.1431245","Longitude":"-20.3345762","Name":"Bræðratunguvegur"},{"Latitude":"64.1446076","Longitude":"-21.9140081","Name":"Bríetartún"},{"Latitude":"64.1230423","Longitude":"-21.8171147","Name":"Bröndukvísl"},{"Latitude":"63.6655007","Longitude":"-20.0465697","Name":"Brú"},{"Latitude":"64.1850259","Longitude":"-21.6792868","Name":"Brúarfljót"},{"Latitude":"64.3226747","Longitude":"-22.0585813","Name":"Brúarflöt"},{"Latitude":"65.4941150","Longitude":"-19.8516318","Name":"Brúarhlíð"},{"Latitude":"65.2869163","Longitude":"-20.9718737","Name":"Brúarholt"},{"Latitude":"65.8655842","Longitude":"-19.3036598","Name":"Brúarland"},{"Latitude":"64.5440774","Longitude":"-21.9088588","Name":"Brúartorg"},{"Latitude":"65.1218470","Longitude":"-15.5373629","Name":"Brúarvegur"},{"Latitude":"64.1364237","Longitude":"-21.8437075","Name":"Brúarvogur"},{"Latitude":"65.4395642","Longitude":"-14.6051388","Name":"Brúarás"},{"Latitude":"64.1296792","Longitude":"-20.3276236","Name":"Brún"},{"Latitude":"66.0361625","Longitude":"-17.3323980","Name":"Brúnagerði"},{"Latitude":"65.6538360","Longitude":"-18.0260906","Name":"Brúnahlíð"},{"Latitude":"66.1592747","Longitude":"-23.2642767","Name":"Brúnaland"},{"Latitude":"63.8327753","Longitude":"-20.3879959","Name":"Brúnalda"},{"Latitude":"64.0004347","Longitude":"-21.1770573","Name":"Brúnaldaarhvammur"},{"Latitude":"64.1556142","Longitude":"-21.7623745","Name":"Brúnastaðir"},{"Latitude":"64.1104814","Longitude":"-21.8391106","Name":"Brúnastekkur"},{"Latitude":"64.1468612","Longitude":"-21.8704472","Name":"Brúnavegur"},{"Latitude":"64.0864468","Longitude":"-21.9451687","Name":"Brúnás"},{"Latitude":"65.7322470","Longitude":"-19.1116178","Name":"Brúsabyggð"},{"Latitude":"65.6275936","Longitude":"-23.8266001","Name":"Bugatún"},{"Latitude":"63.8316870","Longitude":"-20.4655524","Name":"Bugavegur"},{"Latitude":"64.0977491","Longitude":"-21.7774272","Name":"Bugða"},{"Latitude":"64.1850259","Longitude":"-21.6792868","Name":"Bugðufljót"},{"Latitude":"64.0435648","Longitude":"-20.2486651","Name":"Bugðugerði"},{"Latitude":"64.0429419","Longitude":"-20.2468153","Name":"Bugðugerðisvegur"},{"Latitude":"64.2538213","Longitude":"-15.2003753","Name":"Bugðuleira"},{"Latitude":"64.1480786","Longitude":"-21.8808893","Name":"Bugðulækur"},{"Latitude":"64.3814355","Longitude":"-21.8477237","Name":"Bugðumelur"},{"Latitude":"65.6883589","Longitude":"-18.1360599","Name":"Bugðusíða"},{"Latitude":"64.1691638","Longitude":"-21.7079244","Name":"Bugðutangi"},{"Latitude":"64.0636254","Longitude":"-21.9274101","Name":"Burknaberg"},{"Latitude":"64.1371180","Longitude":"-21.9250967","Name":"Burknagata"},{"Latitude":"64.0485515","Longitude":"-21.9761696","Name":"Burknavellir"},{"Latitude":"63.9678891","Longitude":"-20.4589504","Name":"Burstabrekka"},{"Latitude":"63.7317155","Longitude":"-20.0047128","Name":"Butra"},{"Latitude":"64.0962490","Longitude":"-21.9181606","Name":"Byggakur"},{"Latitude":"64.1608915","Longitude":"-22.0071098","Name":"Bygggarðar"},{"Latitude":"64.0537075","Longitude":"-21.9906889","Name":"Byggðabraut"},{"Latitude":"64.1214370","Longitude":"-21.8529791","Name":"Byggðarendi"},{"Latitude":"64.1709007","Longitude":"-21.7037341","Name":"Byggðarholt"},{"Latitude":"63.9022872","Longitude":"-21.0112429","Name":"Byggðarhorn"},{"Latitude":"63.8980893","Longitude":"-21.0131604","Name":"Byggðarhorn búgarður"},{"Latitude":"64.0386422","Longitude":"-22.6937210","Name":"Byggðarvegur"},{"Latitude":"65.6804226","Longitude":"-18.1030749","Name":"Byggðavegur"},{"Latitude":"66.0696498","Longitude":"-18.6592586","Name":"Bylgjubyggð"},{"Latitude":"65.3405225","Longitude":"-19.0937743","Name":"Byrgisskarð"},{"Latitude":"65.3787479","Longitude":"-21.0732112","Name":"Bálkastaðavegur"},{"Latitude":"65.1308047","Longitude":"-21.0597598","Name":"Bálkastaðir"},{"Latitude":"63.9030507","Longitude":"-20.9135798","Name":"Bár"},{"Latitude":"64.1495421","Longitude":"-21.9487357","Name":"Bárugata"},{"Latitude":"64.0305154","Longitude":"-22.7020375","Name":"Bárugerði"},{"Latitude":"64.1493175","Longitude":"-21.9634139","Name":"Bárugrandi"},{"Latitude":"64.0637027","Longitude":"-21.9443371","Name":"Bárukinn"},{"Latitude":"63.4399544","Longitude":"-20.2689949","Name":"Bárustígur"},{"Latitude":"63.8671894","Longitude":"-21.1538071","Name":"Bárðarbrú"},{"Latitude":"65.4956176","Longitude":"-17.4407510","Name":"Bárðardalsvegur eystri"},{"Latitude":"65.6760031","Longitude":"-17.5596752","Name":"Bárðardalsvegur vestri"},{"Latitude":"65.9452276","Longitude":"-18.1441214","Name":"Bárðartjörn"},{"Latitude":"64.9160544","Longitude":"-23.8857603","Name":"Bárðarás"},{"Latitude":"63.8578540","Longitude":"-21.3943172","Name":"Básahraun"},{"Latitude":"63.6775908","Longitude":"-19.4823714","Name":"Básar"},{"Latitude":"63.4435780","Longitude":"-20.2730214","Name":"Básaskersbryggja"},{"Latitude":"64.1335354","Longitude":"-21.8151087","Name":"Básbryggja"},{"Latitude":"64.1235742","Longitude":"-21.8531988","Name":"Básendi"},{"Latitude":"64.0003918","Longitude":"-22.5464173","Name":"Básvegur"},{"Latitude":"64.2486806","Longitude":"-15.2064034","Name":"Bátstangi"},{"Latitude":"64.0966419","Longitude":"-21.9038405","Name":"Bæjarbraut"},{"Latitude":"64.0997858","Longitude":"-22.0184695","Name":"Bæjarbrekka"},{"Latitude":"64.1434555","Longitude":"-21.8022208","Name":"Bæjarflöt"},{"Latitude":"64.0694569","Longitude":"-21.9064058","Name":"Bæjargata"},{"Latitude":"64.0934523","Longitude":"-21.8955338","Name":"Bæjargil"},{"Latitude":"64.0566256","Longitude":"-21.9832563","Name":"Bæjarholt"},{"Latitude":"64.0788116","Longitude":"-21.9404565","Name":"Bæjarhraun"},{"Latitude":"64.0592000","Longitude":"-21.9620270","Name":"Bæjarhvammur"},{"Latitude":"63.9814719","Longitude":"-21.2013418","Name":"Bæjarhverfisvegur"},{"Latitude":"64.1188380","Longitude":"-21.7983276","Name":"Bæjarháls"},{"Latitude":"64.0989500","Longitude":"-21.8751886","Name":"Bæjarlind"},{"Latitude":"64.9317905","Longitude":"-14.0143043","Name":"Bæjarstígur"},{"Latitude":"64.6097496","Longitude":"-21.5502328","Name":"Bæjarsveitarvegur"},{"Latitude":"65.6937906","Longitude":"-18.1460970","Name":"Bæjarsíða"},{"Latitude":"64.0696156","Longitude":"-21.9588726","Name":"Bæjartorg"},{"Latitude":"64.1138667","Longitude":"-21.8635636","Name":"Bæjartún"},{"Latitude":"66.0349340","Longitude":"-14.8033537","Name":"Bæjarás"},{"Latitude":"65.5891211","Longitude":"-22.5903234","Name":"Bær"},{"Latitude":"64.0555518","Longitude":"-21.0092611","Name":"Bíldsfell"},{"Latitude":"64.1246465","Longitude":"-21.8409057","Name":"Bíldshöfði"},{"Latitude":"65.5899715","Longitude":"-23.9709591","Name":"Bíldudalsvegur"},{"Latitude":"64.1458954","Longitude":"-21.9381564","Name":"Bókhlöðustígur"},{"Latitude":"64.1358037","Longitude":"-21.9049493","Name":"Bólstaðarhlíð"},{"Latitude":"64.0378741","Longitude":"-20.3172472","Name":"Bólstaður"},{"Latitude":"64.8328979","Longitude":"-13.8761750","Name":"Bólsvör"},{"Latitude":"65.5216176","Longitude":"-14.2814441","Name":"Bóndastaðir"},{"Latitude":"64.6541914","Longitude":"-14.2765204","Name":"Bóndavarða"},{"Latitude":"65.3387021","Longitude":"-14.4861732","Name":"Bót"},{"Latitude":"65.9689559","Longitude":"-18.5403135","Name":"Böggvisbraut"},{"Latitude":"64.0190275","Longitude":"-16.9825102","Name":"Böltavegur"},{"Latitude":"64.0210873","Longitude":"-16.9811001","Name":"Böltavegur, Skaftafelli"},{"Latitude":"63.9841557","Longitude":"-16.8579975","Name":"Böltavegur, Svínafelli"},{"Latitude":"64.0200780","Longitude":"-16.9827887","Name":"Bölti"},{"Latitude":"64.2080446","Longitude":"-20.5596893","Name":"Böðmóðsstaðir"},{"Latitude":"64.5395216","Longitude":"-21.9155172","Name":"Böðvarsgata"},{"Latitude":"65.4142550","Longitude":"-20.7125943","Name":"Böðvarshólar"},{"Latitude":"64.2396015","Longitude":"-21.8380681","Name":"Búagrund"},{"Latitude":"63.4369336","Longitude":"-20.2606009","Name":"Búastaðabraut"},{"Latitude":"65.6896031","Longitude":"-15.0267543","Name":"Búastaðir"},{"Latitude":"63.4353335","Longitude":"-20.2989310","Name":"Búhamar"},{"Latitude":"63.6547546","Longitude":"-20.1592525","Name":"Búland"},{"Latitude":"65.2713468","Longitude":"-20.8907743","Name":"Búrfell"},{"Latitude":"64.0698748","Longitude":"-20.8972188","Name":"Búrfellsvegur"},{"Latitude":"64.1122457","Longitude":"-19.8325647","Name":"Búrfellsvirkjun"},{"Latitude":"64.1355329","Longitude":"-21.9235991","Name":"Bústaðavegur"},{"Latitude":"64.0471672","Longitude":"-20.8922755","Name":"Bústjórabraut"},{"Latitude":"64.0456450","Longitude":"-20.8884496","Name":"Bústjórabyggð"},{"Latitude":"64.6573714","Longitude":"-14.2828446","Name":"Búð"},{"Latitude":"64.1272324","Longitude":"-21.8697306","Name":"Búðagerði"},{"Latitude":"65.0694377","Longitude":"-22.7416137","Name":"Búðanes"},{"Latitude":"65.0691135","Longitude":"-22.7414514","Name":"Búðanesvegur"},{"Latitude":"65.1112159","Longitude":"-21.7699941","Name":"Búðarbraut"},{"Latitude":"65.0326806","Longitude":"-14.2170438","Name":"Búðareyri"},{"Latitude":"65.6713297","Longitude":"-18.0851626","Name":"Búðarfjara"},{"Latitude":"64.0960009","Longitude":"-22.0346770","Name":"Búðarflöt"},{"Latitude":"65.0321364","Longitude":"-14.2223934","Name":"Búðargata"},{"Latitude":"64.2301100","Longitude":"-19.3467100","Name":"Búðarháls"},{"Latitude":"63.5913853","Longitude":"-20.1524109","Name":"Búðarhóll"},{"Latitude":"66.1575435","Longitude":"-23.2466858","Name":"Búðarkantur"},{"Latitude":"65.0365698","Longitude":"-14.2187102","Name":"Búðarmelur"},{"Latitude":"63.8652595","Longitude":"-21.1589569","Name":"Búðarstígur"},{"Latitude":"65.7535517","Longitude":"-14.8369386","Name":"Búðaröxl"},{"Latitude":"64.0404964","Longitude":"-20.8030562","Name":"Búðasund"},{"Latitude":"65.6933858","Longitude":"-18.1450035","Name":"Búðasíða"},{"Latitude":"64.0975708","Longitude":"-21.7777417","Name":"Búðatorg"},{"Latitude":"64.0958162","Longitude":"-21.7797007","Name":"Búðavað"},{"Latitude":"64.8265047","Longitude":"-23.3954333","Name":"Búðavegur"},{"Latitude":"64.0893998","Longitude":"-21.9010663","Name":"Búðir"},{"Latitude":"64.0648054","Longitude":"-21.9675017","Name":"Cuxhavengata"},{"Latitude":"65.6723054","Longitude":"-18.1185639","Name":"Daggarlundur"},{"Latitude":"64.0486327","Longitude":"-21.9795694","Name":"Daggarvellir"},{"Latitude":"65.7568715","Longitude":"-18.1749408","Name":"Dagverðareyrarvegur"},{"Latitude":"65.7619019","Longitude":"-18.1740427","Name":"Dagverðareyri"},{"Latitude":"64.5233793","Longitude":"-21.4793173","Name":"Dagverðarnes"},{"Latitude":"65.1777384","Longitude":"-22.4794999","Name":"Dagverðarnesvegur"},{"Latitude":"64.0959439","Longitude":"-21.9178793","Name":"Dalakur"},{"Latitude":"64.1217011","Longitude":"-21.8786659","Name":"Dalaland"},{"Latitude":"65.2291648","Longitude":"-13.6443087","Name":"Dalatangi"},{"Latitude":"65.7370350","Longitude":"-19.6389323","Name":"Dalatún"},{"Latitude":"63.4319351","Longitude":"-20.2729538","Name":"Dalavegur"},{"Latitude":"64.0808390","Longitude":"-21.8134168","Name":"Dalaþing"},{"Latitude":"65.2584681","Longitude":"-14.0136317","Name":"Dalbakki"},{"Latitude":"65.0803128","Longitude":"-14.0370141","Name":"Dalbarð"},{"Latitude":"64.3218488","Longitude":"-22.0678558","Name":"Dalbraut"},{"Latitude":"64.1141695","Longitude":"-21.8994188","Name":"Dalbrekka"},{"Latitude":"65.2877963","Longitude":"-14.4259163","Name":"Dalbrún"},{"Latitude":"64.1007660","Longitude":"-20.3398239","Name":"Dalbæjarvegur 2"},{"Latitude":"64.1019578","Longitude":"-20.3374326","Name":"Dalbær"},{"Latitude":"64.7356478","Longitude":"-20.8980399","Name":"Dalflöt"},{"Latitude":"65.1605942","Longitude":"-20.8896329","Name":"Dalgeirsstaðir"},{"Latitude":"64.1372698","Longitude":"-21.7842707","Name":"Dalhús"},{"Latitude":"64.0865878","Longitude":"-21.9603997","Name":"Dalprýði"},{"Latitude":"63.7520434","Longitude":"-20.2153435","Name":"Dalsbakki"},{"Latitude":"65.6829223","Longitude":"-18.1154637","Name":"Dalsbraut"},{"Latitude":"63.9926887","Longitude":"-21.1800484","Name":"Dalsbrún"},{"Latitude":"64.0914184","Longitude":"-21.9064886","Name":"Dalsbyggð"},{"Latitude":"65.2573616","Longitude":"-14.3804801","Name":"Dalsel"},{"Latitude":"64.3216683","Longitude":"-22.0579871","Name":"Dalsflöt"},{"Latitude":"65.6805075","Longitude":"-18.1168803","Name":"Dalsgerði"},{"Latitude":"64.0605692","Longitude":"-21.9352492","Name":"Dalshlíð"},{"Latitude":"64.0805375","Longitude":"-21.9441575","Name":"Dalshraun"},{"Latitude":"63.9123762","Longitude":"-17.8278196","Name":"Dalshöfðavegur"},{"Latitude":"65.2648400","Longitude":"-14.3872400","Name":"Dalskógar"},{"Latitude":"65.7558010","Longitude":"-19.2512655","Name":"Dalsmynni"},{"Latitude":"64.1033447","Longitude":"-21.8944544","Name":"Dalsmári"},{"Latitude":"63.6326702","Longitude":"-20.0591007","Name":"Dalssel"},{"Latitude":"65.4508118","Longitude":"-18.2918464","Name":"Dalsvegur"},{"Latitude":"64.0570366","Longitude":"-21.9332657","Name":"Dalsás"},{"Latitude":"66.0592511","Longitude":"-23.1787184","Name":"Daltunga"},{"Latitude":"64.1146530","Longitude":"-21.8728289","Name":"Daltún"},{"Latitude":"64.1031768","Longitude":"-21.8823514","Name":"Dalvegur"},{"Latitude":"65.5026691","Longitude":"-19.3966342","Name":"Daufárvegur"},{"Latitude":"65.6606712","Longitude":"-18.0982670","Name":"Daviðshagi"},{"Latitude":"65.8497822","Longitude":"-19.7005174","Name":"Daðastaðir"},{"Latitude":"65.8909063","Longitude":"-19.3893244","Name":"Deildardalsvegur"},{"Latitude":"64.6637183","Longitude":"-21.4083931","Name":"Deildartunguhver"},{"Latitude":"64.3164440","Longitude":"-22.0916022","Name":"Deildartún"},{"Latitude":"64.1121715","Longitude":"-21.7910628","Name":"Deildarás"},{"Latitude":"64.1110258","Longitude":"-21.8207628","Name":"Depluhólar"},{"Latitude":"64.0878602","Longitude":"-21.8320126","Name":"Desjakór"},{"Latitude":"64.1567986","Longitude":"-21.7048374","Name":"Desjamýri"},{"Latitude":"65.5261261","Longitude":"-13.8137461","Name":"Desjarmýrarvegur"},{"Latitude":"65.5073214","Longitude":"-13.7972884","Name":"Desjarmýri"},{"Latitude":"65.9948046","Longitude":"-16.5662810","Name":"Dettifossvegur"},{"Latitude":"65.8232189","Longitude":"-16.3762026","Name":"Dettifossvegur eystri"},{"Latitude":"65.8174750","Longitude":"-16.4213980","Name":"Dettifossvegur vestri"},{"Latitude":"64.1106829","Longitude":"-21.9071000","Name":"Digranes"},{"Latitude":"64.5400104","Longitude":"-21.9072228","Name":"Digranesgata"},{"Latitude":"64.1099358","Longitude":"-21.8859250","Name":"Digranesheiði"},{"Latitude":"64.1049488","Longitude":"-21.8784458","Name":"Digranesvegur"},{"Latitude":"64.2867083","Longitude":"-15.2023244","Name":"Dilksnes"},{"Latitude":"64.2874993","Longitude":"-15.1910796","Name":"Dilksnesvegur"},{"Latitude":"65.5957093","Longitude":"-16.9207282","Name":"Dimmuborgavegur"},{"Latitude":"64.0951010","Longitude":"-21.8000322","Name":"Dimmuhvarf"},{"Latitude":"64.2776140","Longitude":"-20.4679400","Name":"Djáknabrúnir"},{"Latitude":"64.2789091","Longitude":"-20.4608858","Name":"Djáknavegur"},{"Latitude":"64.0387751","Longitude":"-20.8977775","Name":"Djúpahraun"},{"Latitude":"64.7541110","Longitude":"-21.3282611","Name":"Djúpasund"},{"Latitude":"64.6560873","Longitude":"-14.3073295","Name":"Djúpavogsvegur"},{"Latitude":"65.9444791","Longitude":"-21.5605234","Name":"Djúpavík"},{"Latitude":"65.5602410","Longitude":"-19.3163377","Name":"Djúpidalur"},{"Latitude":"63.9330959","Longitude":"-22.6822843","Name":"Djúpivogur"},{"Latitude":"64.1559608","Longitude":"-21.9432141","Name":"Djúpslóð"},{"Latitude":"65.9280167","Longitude":"-22.4422513","Name":"Djúpvegur"},{"Latitude":"64.0660956","Longitude":"-21.9309604","Name":"Dofraberg"},{"Latitude":"64.1533234","Longitude":"-21.7978794","Name":"Dofraborgir"},{"Latitude":"64.0886993","Longitude":"-21.8320328","Name":"Dofrakór"},{"Latitude":"65.9761015","Longitude":"-18.5335812","Name":"Drafnarbraut"},{"Latitude":"64.1016038","Longitude":"-21.8247314","Name":"Drafnarfell"},{"Latitude":"66.3030652","Longitude":"-16.4474805","Name":"Drafnargata"},{"Latitude":"63.8327982","Longitude":"-20.3943012","Name":"Drafnarsandur"},{"Latitude":"64.1501131","Longitude":"-21.9526263","Name":"Drafnarstígur"},{"Latitude":"64.0855510","Longitude":"-21.9476023","Name":"Drafnarás"},{"Latitude":"65.0294173","Longitude":"-18.0986598","Name":"Dragaleið"},{"Latitude":"64.1452399","Longitude":"-21.8629505","Name":"Dragavegur"},{"Latitude":"64.1214210","Longitude":"-21.8056126","Name":"Dragháls"},{"Latitude":"64.0741089","Longitude":"-21.9705997","Name":"Drangagata"},{"Latitude":"64.0790630","Longitude":"-21.9361054","Name":"Drangahraun"},{"Latitude":"64.0888258","Longitude":"-21.8301127","Name":"Drangakór"},{"Latitude":"64.0016191","Longitude":"-22.5779917","Name":"Drangavellir"},{"Latitude":"64.0347027","Longitude":"-21.9908408","Name":"Dranghella"},{"Latitude":"63.9257546","Longitude":"-21.0136876","Name":"Dranghólar"},{"Latitude":"65.6890050","Longitude":"-18.1208329","Name":"Drangshlíð"},{"Latitude":"63.5280949","Longitude":"-19.5204918","Name":"Drangshlíðardalur"},{"Latitude":"63.5246317","Longitude":"-19.5537182","Name":"Drangshlíðarvegur 2"},{"Latitude":"65.7123280","Longitude":"-21.4074826","Name":"Drangsnesvegur"},{"Latitude":"64.0462561","Longitude":"-21.9634199","Name":"Drangsskarð"},{"Latitude":"65.5441539","Longitude":"-14.3323445","Name":"Dratthalastaðir"},{"Latitude":"64.0968614","Longitude":"-21.9012065","Name":"Draumahæð"},{"Latitude":"65.6952754","Longitude":"-18.1268712","Name":"Draupnisgata"},{"Latitude":"65.6851852","Longitude":"-18.1314543","Name":"Drekagil"},{"Latitude":"65.7350950","Longitude":"-19.6501052","Name":"Drekahlíð"},{"Latitude":"64.0882070","Longitude":"-21.8295079","Name":"Drekakór"},{"Latitude":"64.2156500","Longitude":"-18.7044400","Name":"Drekaleið"},{"Latitude":"64.0444986","Longitude":"-21.9784864","Name":"Drekavellir"},{"Latitude":"64.1364138","Longitude":"-21.8548102","Name":"Drekavogur"},{"Latitude":"64.7590028","Longitude":"-23.8825512","Name":"Dritvíkurvegur"},{"Latitude":"65.1478942","Longitude":"-14.7254959","Name":"Droplaugarstaðavegur"},{"Latitude":"64.2306192","Longitude":"-20.3090000","Name":"Drumboddsstaðir"},{"Latitude":"64.1323705","Longitude":"-21.9080581","Name":"Drápuhlíð"},{"Latitude":"63.7478788","Longitude":"-20.2302495","Name":"Dufþaksbraut"},{"Latitude":"65.6693175","Longitude":"-18.0854369","Name":"Duggufjara"},{"Latitude":"66.3030652","Longitude":"-16.4474805","Name":"Duggugerði"},{"Latitude":"64.1302051","Longitude":"-21.8481254","Name":"Dugguvogur"},{"Latitude":"64.1388625","Longitude":"-21.9588309","Name":"Dunhagi"},{"Latitude":"65.0102547","Longitude":"-21.9256456","Name":"Dunkur"},{"Latitude":"64.0080766","Longitude":"-22.5584963","Name":"Duusgata"},{"Latitude":"64.0069091","Longitude":"-22.5575085","Name":"Duustorg"},{"Latitude":"64.1099794","Longitude":"-21.8324538","Name":"Dvergabakki"},{"Latitude":"64.1522249","Longitude":"-21.7978321","Name":"Dvergaborgir"},{"Latitude":"65.6838822","Longitude":"-18.1306689","Name":"Dvergagil"},{"Latitude":"64.0395367","Longitude":"-20.9190792","Name":"Dvergahraun"},{"Latitude":"63.4314276","Longitude":"-20.2998663","Name":"Dverghamar"},{"Latitude":"64.1367700","Longitude":"-21.8136482","Name":"Dverghamrar"},{"Latitude":"64.0574400","Longitude":"-21.9844399","Name":"Dvergholt"},{"Latitude":"63.9247604","Longitude":"-21.0027985","Name":"Dverghólar"},{"Latitude":"64.1273864","Longitude":"-21.8185046","Name":"Dvergshöfði"},{"Latitude":"64.9186955","Longitude":"-23.8814352","Name":"Dyngjubúð"},{"Latitude":"64.0728967","Longitude":"-21.9039857","Name":"Dyngjugata"},{"Latitude":"64.1419954","Longitude":"-21.8638897","Name":"Dyngjuvegur"},{"Latitude":"64.0354166","Longitude":"-22.6896762","Name":"Dynhóll"},{"Latitude":"65.7426285","Longitude":"-23.2077616","Name":"Dynjandavegur"},{"Latitude":"64.2923253","Longitude":"-15.1113079","Name":"Dynjandi"},{"Latitude":"64.1594343","Longitude":"-20.5536895","Name":"Dynjansisvegur"},{"Latitude":"64.0931974","Longitude":"-21.8536221","Name":"Dynsalir"},{"Latitude":"63.8323251","Longitude":"-20.3922091","Name":"Dynskálar"},{"Latitude":"64.4221766","Longitude":"-21.6607824","Name":"Dynskógar"},{"Latitude":"64.1377103","Longitude":"-21.8128727","Name":"Dyrhamrar"},{"Latitude":"63.4172098","Longitude":"-19.1596575","Name":"Dyrhólar-Eystri"},{"Latitude":"63.4236852","Longitude":"-19.1789898","Name":"Dyrhólavegur"},{"Latitude":"63.9289242","Longitude":"-21.0021514","Name":"Dælengi"},{"Latitude":"65.7995924","Longitude":"-17.9118025","Name":"Dæli"},{"Latitude":"65.3628329","Longitude":"-20.6050330","Name":"Dælisvegur"},{"Latitude":"64.3180320","Longitude":"-21.6232262","Name":"Dælisárvegur"},{"Latitude":"64.1600686","Longitude":"-21.6680078","Name":"Dælustöðvarvegur"},{"Latitude":"64.5480883","Longitude":"-21.9114986","Name":"Dílahæð"},{"Latitude":"63.6453279","Longitude":"-20.0467917","Name":"Dímonarvegur"},{"Latitude":"64.1510711","Longitude":"-21.7926974","Name":"Dísaborgir"},{"Latitude":"63.9239150","Longitude":"-20.9587482","Name":"Dísarstaðir"},{"Latitude":"64.1140032","Longitude":"-21.7889994","Name":"Dísarás"},{"Latitude":"64.1290758","Longitude":"-21.7265989","Name":"Döllugata"},{"Latitude":"64.1111649","Longitude":"-21.8189770","Name":"Dúfnahólar"},{"Latitude":"65.6288303","Longitude":"-19.5834705","Name":"Dúkur"},{"Latitude":"65.6772822","Longitude":"-19.6056610","Name":"Dýjabekkur"},{"Latitude":"64.0668911","Longitude":"-21.9050707","Name":"Dýjagata"},{"Latitude":"65.8632917","Longitude":"-23.3138050","Name":"Dýrafjörður"},{"Latitude":"65.6595821","Longitude":"-19.3683583","Name":"Dýrfinnustaðir"},{"Latitude":"64.1017300","Longitude":"-21.8231034","Name":"Eddufell"},{"Latitude":"63.9954440","Longitude":"-21.1826415","Name":"Edenmörk"},{"Latitude":"64.1114895","Longitude":"-20.3793769","Name":"Efra-Langholt"},{"Latitude":"63.8459856","Longitude":"-21.0678293","Name":"Efra-Sel"},{"Latitude":"63.8479651","Longitude":"-22.4197693","Name":"Efrahóp"},{"Latitude":"64.1000859","Longitude":"-21.0044266","Name":"Efri-Brú"},{"Latitude":"64.0330207","Longitude":"-20.5244495","Name":"Efri-Brúnavellir"},{"Latitude":"66.0352547","Longitude":"-23.1667436","Name":"Efri-Engidalur"},{"Latitude":"63.5538176","Longitude":"-18.1907010","Name":"Efri-Ey"},{"Latitude":"65.2865219","Longitude":"-20.6892570","Name":"Efri-Fitjavegur"},{"Latitude":"63.6542789","Longitude":"-18.0184326","Name":"Efri-Fljótar"},{"Latitude":"63.8532374","Longitude":"-20.9013364","Name":"Efri-Gegnishólar"},{"Latitude":"63.9287735","Longitude":"-21.3169706","Name":"Efri-Grímslækur"},{"Latitude":"63.9058515","Longitude":"-20.5592303","Name":"Efri-Hamrar"},{"Latitude":"64.0325134","Longitude":"-20.8759092","Name":"Efri-Markarbraut"},{"Latitude":"65.7142679","Longitude":"-20.1836859","Name":"Efri-Mýrar"},{"Latitude":"65.4891634","Longitude":"-23.2590173","Name":"Efri-Rauðsdalur"},{"Latitude":"64.2359185","Longitude":"-20.5167233","Name":"Efri-Reykir"},{"Latitude":"63.6592368","Longitude":"-18.0191214","Name":"Efri-Steinsmýri"},{"Latitude":"63.7735793","Longitude":"-17.9666708","Name":"Efri-Vík"},{"Latitude":"63.8449557","Longitude":"-20.8499614","Name":"Efri-Völlur"},{"Latitude":"65.7599578","Longitude":"-19.2152311","Name":"Efri-Ás"},{"Latitude":"64.1635910","Longitude":"-21.6644904","Name":"Efribraut"},{"Latitude":"65.6533872","Longitude":"-20.3038529","Name":"Efribyggð"},{"Latitude":"65.5129673","Longitude":"-19.4531224","Name":"Efribyggðarvegur"},{"Latitude":"64.2369096","Longitude":"-21.1595831","Name":"Efristígur"},{"Latitude":"64.2688156","Longitude":"-21.1076022","Name":"Efrivallarvegur"},{"Latitude":"63.9224916","Longitude":"-20.2706776","Name":"Efsta-Sel"},{"Latitude":"65.0369461","Longitude":"-14.2081328","Name":"Efstagerði"},{"Latitude":"64.0603306","Longitude":"-21.9366566","Name":"Efstahlíð"},{"Latitude":"63.8442267","Longitude":"-22.4368671","Name":"Efstahraun"},{"Latitude":"64.1021683","Longitude":"-22.0283745","Name":"Efstakot"},{"Latitude":"63.9815355","Longitude":"-21.0963015","Name":"Efstaland"},{"Latitude":"64.1265161","Longitude":"-21.8899403","Name":"Efstaleiti"},{"Latitude":"64.1394236","Longitude":"-21.8582215","Name":"Efstasund"},{"Latitude":"64.1107952","Longitude":"-21.8584332","Name":"Efstihjalli"},{"Latitude":"64.0844823","Longitude":"-21.8980475","Name":"Efstilundur"},{"Latitude":"64.4394312","Longitude":"-21.6236474","Name":"Efstiás"},{"Latitude":"65.6546429","Longitude":"-19.4689647","Name":"Egg"},{"Latitude":"64.1355754","Longitude":"-21.9511461","Name":"Eggertsgata"},{"Latitude":"65.1475207","Longitude":"-13.6851868","Name":"Egilsbraut"},{"Latitude":"64.1391051","Longitude":"-21.9207211","Name":"Egilsgata"},{"Latitude":"64.5581475","Longitude":"-21.8982560","Name":"Egilsholt"},{"Latitude":"65.2585910","Longitude":"-14.3812242","Name":"Egilssel"},{"Latitude":"63.9005138","Longitude":"-20.7133244","Name":"Egilsstaðakot"},{"Latitude":"63.8987438","Longitude":"-20.7117367","Name":"Egilsstaðir"},{"Latitude":"66.1442015","Longitude":"-18.9085348","Name":"Egilstangi"},{"Latitude":"65.4216020","Longitude":"-19.0893844","Name":"Egilsá"},{"Latitude":"65.4260700","Longitude":"-19.1313200","Name":"Egilsárvegur"},{"Latitude":"63.9703953","Longitude":"-22.4884289","Name":"Eikardalur"},{"Latitude":"65.6738248","Longitude":"-18.1215973","Name":"Eikarlundur"},{"Latitude":"64.3245682","Longitude":"-22.0530589","Name":"Eikarskógar"},{"Latitude":"64.0858593","Longitude":"-21.9488031","Name":"Eikarás"},{"Latitude":"64.1286379","Longitude":"-21.8525282","Name":"Eikjuvogur"},{"Latitude":"64.2933221","Longitude":"-21.6686426","Name":"Eilífsdalur"},{"Latitude":"66.0691119","Longitude":"-23.1253845","Name":"Einarsgata"},{"Latitude":"63.8653527","Longitude":"-21.1576835","Name":"Einarshöfn"},{"Latitude":"63.8641891","Longitude":"-21.1520315","Name":"Einarshús"},{"Latitude":"64.1312880","Longitude":"-21.9563893","Name":"Einarsnes"},{"Latitude":"65.1739359","Longitude":"-14.4936549","Name":"Einarsstaðarvegur"},{"Latitude":"65.1787750","Longitude":"-14.4845187","Name":"Einarsstaðir"},{"Latitude":"65.2642153","Longitude":"-14.3824688","Name":"Einbúablá"},{"Latitude":"63.9864036","Longitude":"-20.8109413","Name":"Einbúi"},{"Latitude":"64.0390717","Longitude":"-21.9957034","Name":"Einhella"},{"Latitude":"65.2868484","Longitude":"-14.4265704","Name":"Einhleypingur"},{"Latitude":"64.6838900","Longitude":"-22.2385343","Name":"Einholt"},{"Latitude":"64.2755110","Longitude":"-20.2275682","Name":"Einholtsvegur"},{"Latitude":"64.0684562","Longitude":"-21.9367984","Name":"Einiberg"},{"Latitude":"63.9701453","Longitude":"-22.4867563","Name":"Einidalur"},{"Latitude":"64.3203703","Longitude":"-22.0572546","Name":"Einigrund"},{"Latitude":"64.0604783","Longitude":"-21.9352090","Name":"Einihlíð"},{"Latitude":"64.2547458","Longitude":"-20.2877257","Name":"Einiholtsvegur 1"},{"Latitude":"65.6765891","Longitude":"-18.1085094","Name":"Einilundur"},{"Latitude":"64.1450988","Longitude":"-21.9648826","Name":"Einimelur"},{"Latitude":"64.1661831","Longitude":"-21.6858451","Name":"Einiteigur"},{"Latitude":"64.0477726","Longitude":"-21.9836779","Name":"Einivellir"},{"Latitude":"64.1818100","Longitude":"-20.4990175","Name":"Eiríksbraut"},{"Latitude":"64.1410770","Longitude":"-21.9273038","Name":"Eiríksgata"},{"Latitude":"65.1224378","Longitude":"-15.4310935","Name":"Eiríksstaðakirkja"},{"Latitude":"65.3733106","Longitude":"-14.3518124","Name":"Eiðar"},{"Latitude":"65.3719208","Longitude":"-14.3473480","Name":"Eiðavellir"},{"Latitude":"64.9471778","Longitude":"-23.1690082","Name":"Eiði"},{"Latitude":"64.1482419","Longitude":"-21.9794493","Name":"Eiðismýri"},{"Latitude":"64.1509371","Longitude":"-21.9846293","Name":"Eiðistorg"},{"Latitude":"64.3846133","Longitude":"-21.8281807","Name":"Eiðisvatn"},{"Latitude":"63.4444567","Longitude":"-20.2831435","Name":"Eiðisvegur"},{"Latitude":"64.1501500","Longitude":"-21.9790609","Name":"Eiðsgrandi"},{"Latitude":"65.6869278","Longitude":"-18.0844156","Name":"Eiðsvallagata"},{"Latitude":"66.0783448","Longitude":"-16.4294501","Name":"Ekra"},{"Latitude":"66.3031730","Longitude":"-16.4458440","Name":"Ekrugata"},{"Latitude":"64.1000555","Longitude":"-21.8945706","Name":"Ekrusmári"},{"Latitude":"65.6905486","Longitude":"-18.1326424","Name":"Ekrusíða"},{"Latitude":"63.4425332","Longitude":"-20.2403609","Name":"Eldfellsvegur"},{"Latitude":"63.9475208","Longitude":"-18.6469908","Name":"Eldgjárvegur"},{"Latitude":"65.4202491","Longitude":"-19.8013732","Name":"Eldjárnsstaðir"},{"Latitude":"63.8615900","Longitude":"-22.5228700","Name":"Eldvörp"},{"Latitude":"64.0995114","Longitude":"-21.7796375","Name":"Elliðabraut"},{"Latitude":"64.0845468","Longitude":"-21.8097532","Name":"Elliðahvammsvegur"},{"Latitude":"64.0800685","Longitude":"-21.8799585","Name":"Elliðavatnsvegur"},{"Latitude":"64.0963809","Longitude":"-21.7791924","Name":"Elliðavað"},{"Latitude":"64.0020406","Longitude":"-22.5784537","Name":"Elliðavellir"},{"Latitude":"65.6597625","Longitude":"-18.0981007","Name":"Elísabetarhagi"},{"Latitude":"63.7822502","Longitude":"-19.4216052","Name":"Emstruleið"},{"Latitude":"64.0391813","Longitude":"-20.8015080","Name":"Engeyjarsund"},{"Latitude":"64.1099535","Longitude":"-21.8568352","Name":"Engihjalli"},{"Latitude":"64.1351413","Longitude":"-21.9170412","Name":"Engihlíð"},{"Latitude":"65.6816097","Longitude":"-18.1076770","Name":"Engimýri"},{"Latitude":"65.0508802","Longitude":"-13.9525339","Name":"Engjabakki"},{"Latitude":"63.9697718","Longitude":"-22.5000989","Name":"Engjadalur"},{"Latitude":"64.0604887","Longitude":"-21.9337258","Name":"Engjahlíð"},{"Latitude":"64.1009032","Longitude":"-21.8363538","Name":"Engjasel"},{"Latitude":"64.0996848","Longitude":"-21.8939097","Name":"Engjasmári"},{"Latitude":"64.1404472","Longitude":"-21.8875872","Name":"Engjateigur"},{"Latitude":"64.0471619","Longitude":"-21.9802421","Name":"Engjatorg"},{"Latitude":"64.1348091","Longitude":"-21.8696110","Name":"Engjavegur"},{"Latitude":"64.0478899","Longitude":"-21.9791837","Name":"Engjavellir"},{"Latitude":"64.0816033","Longitude":"-21.8141508","Name":"Engjaþing"},{"Latitude":"65.8942243","Longitude":"-19.3380184","Name":"Enni"},{"Latitude":"64.8976633","Longitude":"-23.7179288","Name":"Ennisbraut"},{"Latitude":"64.8971872","Longitude":"-23.7173337","Name":"Ennishlíð"},{"Latitude":"64.0931732","Longitude":"-21.8069374","Name":"Ennishvarf"},{"Latitude":"64.0704743","Longitude":"-21.9450157","Name":"Erluhraun"},{"Latitude":"64.1114411","Longitude":"-21.8192539","Name":"Erluhólar"},{"Latitude":"63.9276409","Longitude":"-20.9916464","Name":"Erlurimi"},{"Latitude":"63.9726992","Longitude":"-22.5188340","Name":"Erlutjörn"},{"Latitude":"64.0555364","Longitude":"-21.9487052","Name":"Erluás"},{"Latitude":"64.2176628","Longitude":"-21.7750572","Name":"Esjuberg"},{"Latitude":"64.3248069","Longitude":"-22.0705420","Name":"Esjubraut"},{"Latitude":"64.2393320","Longitude":"-21.8322488","Name":"Esjugrund"},{"Latitude":"64.2241551","Longitude":"-21.8042966","Name":"Esjuvegur"},{"Latitude":"64.3236163","Longitude":"-22.0691093","Name":"Esjuvellir"},{"Latitude":"65.0735596","Longitude":"-14.0413991","Name":"Eskifjarðarvegur"},{"Latitude":"64.1317157","Longitude":"-21.9137110","Name":"Eskihlíð"},{"Latitude":"64.0916759","Longitude":"-21.8889311","Name":"Eskiholt"},{"Latitude":"64.6212699","Longitude":"-21.7975511","Name":"Eskiholtsland"},{"Latitude":"64.1070100","Longitude":"-21.8935947","Name":"Eskihvammur"},{"Latitude":"64.1316220","Longitude":"-21.9130778","Name":"Eskitorg"},{"Latitude":"64.0417254","Longitude":"-21.9798820","Name":"Eskivellir"},{"Latitude":"64.1240508","Longitude":"-21.8804082","Name":"Espigerði"},{"Latitude":"64.3190855","Longitude":"-22.0526364","Name":"Espigrund"},{"Latitude":"65.5402751","Longitude":"-18.1323554","Name":"Espiholt"},{"Latitude":"65.6765192","Longitude":"-18.1092930","Name":"Espilundur"},{"Latitude":"64.1430647","Longitude":"-21.9538696","Name":"Espimelur"},{"Latitude":"63.6969426","Longitude":"-20.2129642","Name":"Ey"},{"Latitude":"65.6441322","Longitude":"-19.4622397","Name":"Eyhildarholt"},{"Latitude":"64.1099735","Longitude":"-21.8304982","Name":"Eyjabakki"},{"Latitude":"64.2980710","Longitude":"-21.5361877","Name":"Eyjafell"},{"Latitude":"65.4600961","Longitude":"-18.1873261","Name":"Eyjafjarðarbraut eystri"},{"Latitude":"65.6695732","Longitude":"-18.0821189","Name":"Eyjafjarðarbraut vestri"},{"Latitude":"64.0682816","Longitude":"-22.6524967","Name":"Eyjaholt"},{"Latitude":"63.8558449","Longitude":"-21.3948198","Name":"Eyjahraun"},{"Latitude":"64.6538764","Longitude":"-14.2792292","Name":"Eyjaland"},{"Latitude":"65.2710238","Longitude":"-21.0897356","Name":"Eyjanes"},{"Latitude":"64.3061035","Longitude":"-21.5599695","Name":"Eyjar"},{"Latitude":"63.4634256","Longitude":"-19.2868856","Name":"Eyjarhólar"},{"Latitude":"64.1586871","Longitude":"-21.9388579","Name":"Eyjarslóð"},{"Latitude":"63.8339104","Longitude":"-20.3897934","Name":"Eyjasandur"},{"Latitude":"63.8391833","Longitude":"-21.0698731","Name":"Eyjasel"},{"Latitude":"63.8398005","Longitude":"-22.4150491","Name":"Eyjasund"},{"Latitude":"64.3061095","Longitude":"-21.5663410","Name":"Eyjatún"},{"Latitude":"64.2000349","Longitude":"-20.6842521","Name":"Eyjavegur"},{"Latitude":"64.0044557","Longitude":"-22.5809475","Name":"Eyjavellir"},{"Latitude":"65.1725615","Longitude":"-14.4849069","Name":"Eyjólfsstaðaskógur"},{"Latitude":"64.7536411","Longitude":"-14.4923645","Name":"Eyjólfsstaðavegur"},{"Latitude":"64.7582861","Longitude":"-14.5094446","Name":"Eyjólfsstaðir"},{"Latitude":"64.0971786","Longitude":"-21.9007700","Name":"Eyktarhæð"},{"Latitude":"64.0991788","Longitude":"-21.8949151","Name":"Eyktarsmári"},{"Latitude":"63.9621617","Longitude":"-22.5843709","Name":"Eyktartröð"},{"Latitude":"64.1118389","Longitude":"-21.7898492","Name":"Eyktarás"},{"Latitude":"63.6977071","Longitude":"-20.2095671","Name":"Eyland"},{"Latitude":"64.2988098","Longitude":"-21.6487583","Name":"Eyrar"},{"Latitude":"63.8608394","Longitude":"-21.1095901","Name":"Eyrarbakkavegur"},{"Latitude":"63.8368166","Longitude":"-21.0627644","Name":"Eyrarbraut"},{"Latitude":"66.0302172","Longitude":"-22.9904880","Name":"Eyrardalur"},{"Latitude":"64.2983199","Longitude":"-21.7900702","Name":"Eyrarfjallsvegur"},{"Latitude":"64.3226070","Longitude":"-22.0569517","Name":"Eyrarflöt"},{"Latitude":"66.1518067","Longitude":"-18.9080524","Name":"Eyrargata"},{"Latitude":"64.7009067","Longitude":"-21.6173370","Name":"Eyrarhlíð"},{"Latitude":"64.0582120","Longitude":"-21.9828621","Name":"Eyrarholt"},{"Latitude":"64.1207268","Longitude":"-21.8829779","Name":"Eyrarland"},{"Latitude":"65.6772685","Longitude":"-18.0925172","Name":"Eyrarlandsvegur"},{"Latitude":"64.3231545","Longitude":"-22.0432701","Name":"Eyrarlundur"},{"Latitude":"63.9289233","Longitude":"-21.0284789","Name":"Eyrarlækur"},{"Latitude":"64.4387007","Longitude":"-21.6371010","Name":"Eyrarskógur"},{"Latitude":"65.0334823","Longitude":"-14.2184491","Name":"Eyrarstígur"},{"Latitude":"65.0624869","Longitude":"-14.5792009","Name":"Eyrarteigur"},{"Latitude":"64.4259035","Longitude":"-21.6540038","Name":"Eyrartröð"},{"Latitude":"65.7343280","Longitude":"-19.6365583","Name":"Eyrartún"},{"Latitude":"66.1975928","Longitude":"-15.3365219","Name":"Eyrarvegur"},{"Latitude":"65.7574152","Longitude":"-18.1663658","Name":"Eyrarvíkurvegur"},{"Latitude":"63.9198162","Longitude":"-21.0378690","Name":"Eyravegur"},{"Latitude":"64.4315439","Longitude":"-21.6655765","Name":"Eyri"},{"Latitude":"64.8571131","Longitude":"-23.8562917","Name":"Eysteinsdalsleið"},{"Latitude":"63.7187536","Longitude":"-17.9915805","Name":"Eystra-Hraun"},{"Latitude":"63.7675797","Longitude":"-17.9447302","Name":"Eystri-Dalbær"},{"Latitude":"63.8278589","Longitude":"-20.9050824","Name":"Eystri-Hellur"},{"Latitude":"63.8289096","Longitude":"-20.2360516","Name":"Eystri-Kirkjubær"},{"Latitude":"63.5226629","Longitude":"-19.4513824","Name":"Eystri-Skógar"},{"Latitude":"63.5214910","Longitude":"-19.4533784","Name":"Eystri-Skógavegur"},{"Latitude":"63.4838555","Longitude":"-19.2897241","Name":"Eystri-Sólheimar"},{"Latitude":"63.5093468","Longitude":"-19.6045288","Name":"Eyvindarhólar"},{"Latitude":"64.1057208","Longitude":"-22.0133285","Name":"Eyvindarstaðavegur"},{"Latitude":"65.3903624","Longitude":"-18.1603161","Name":"Eyvindarstaðir"},{"Latitude":"65.2761154","Longitude":"-14.3783019","Name":"Eyvindará"},{"Latitude":"64.0472038","Longitude":"-20.6972605","Name":"Eyvík"},{"Latitude":"64.0761070","Longitude":"-21.9403955","Name":"FH-Torg"},{"Latitude":"64.0685917","Longitude":"-21.9344344","Name":"Fagraberg"},{"Latitude":"64.1120097","Longitude":"-21.8675606","Name":"Fagrabrekka"},{"Latitude":"65.8089487","Longitude":"-19.6854879","Name":"Fagragerði"},{"Latitude":"65.0367517","Longitude":"-21.7237794","Name":"Fagragrund"},{"Latitude":"63.9253028","Longitude":"-20.9861193","Name":"Fagrahella"},{"Latitude":"63.7292326","Longitude":"-20.0986602","Name":"Fagrahlíð"},{"Latitude":"66.0558107","Longitude":"-23.1699783","Name":"Fagraholt"},{"Latitude":"64.0969317","Longitude":"-21.9031776","Name":"Fagrahæð"},{"Latitude":"64.0651537","Longitude":"-21.9407107","Name":"Fagrakinn"},{"Latitude":"65.7302926","Longitude":"-19.5267632","Name":"Fagraland"},{"Latitude":"63.9349735","Longitude":"-21.0179791","Name":"Fagramýri"},{"Latitude":"65.8079847","Longitude":"-19.6831410","Name":"Fagranes"},{"Latitude":"65.8064019","Longitude":"-19.6771842","Name":"Fagranesvegur"},{"Latitude":"65.6952852","Longitude":"-18.1334496","Name":"Fagrasíða"},{"Latitude":"64.0859849","Longitude":"-21.8149213","Name":"Fagraþing"},{"Latitude":"64.1165421","Longitude":"-21.8104582","Name":"Fagribær"},{"Latitude":"63.4221092","Longitude":"-18.9216538","Name":"Fagridalur"},{"Latitude":"64.0027561","Longitude":"-22.5729311","Name":"Fagrigarður"},{"Latitude":"64.1084208","Longitude":"-21.8629654","Name":"Fagrihjalli"},{"Latitude":"64.0572701","Longitude":"-21.9608686","Name":"Fagrihvammur"},{"Latitude":"64.3231780","Longitude":"-22.0453034","Name":"Fagrilundur"},{"Latitude":"63.9380099","Longitude":"-20.9952321","Name":"Fagurgerði"},{"Latitude":"63.7620345","Longitude":"-17.9317230","Name":"Fagurhlíð"},{"Latitude":"64.9236959","Longitude":"-23.2630643","Name":"Fagurhóll"},{"Latitude":"63.8802705","Longitude":"-16.6419517","Name":"Fagurhólsmýri"},{"Latitude":"64.9240215","Longitude":"-23.2654595","Name":"Fagurhólstún"},{"Latitude":"64.0902090","Longitude":"-21.8039412","Name":"Faldarhvarf"},{"Latitude":"64.1382739","Longitude":"-21.8019347","Name":"Fannafold"},{"Latitude":"65.6851977","Longitude":"-18.1429007","Name":"Fannagil"},{"Latitude":"64.0909798","Longitude":"-21.8052276","Name":"Fannahvarf"},{"Latitude":"65.1293419","Longitude":"-13.9229006","Name":"Fannardalur"},{"Latitude":"64.1016332","Longitude":"-21.8217435","Name":"Fannarfell"},{"Latitude":"64.1112076","Longitude":"-21.9045972","Name":"Fannborg"},{"Latitude":"64.0296189","Longitude":"-20.9458005","Name":"Farbraut"},{"Latitude":"65.6653543","Longitude":"-18.1342510","Name":"Faxaborg"},{"Latitude":"64.3193852","Longitude":"-22.0683168","Name":"Faxabraut"},{"Latitude":"64.1304980","Longitude":"-21.8673394","Name":"Faxafen"},{"Latitude":"64.1498548","Longitude":"-21.9313558","Name":"Faxagata"},{"Latitude":"64.0204216","Longitude":"-22.5892704","Name":"Faxagrund"},{"Latitude":"64.0899600","Longitude":"-21.8030203","Name":"Faxahvarf"},{"Latitude":"64.1424727","Longitude":"-21.9661328","Name":"Faxaskjól"},{"Latitude":"63.4405762","Longitude":"-20.2797407","Name":"Faxastígur"},{"Latitude":"65.2661272","Longitude":"-14.3850768","Name":"Faxatröð"},{"Latitude":"64.0919168","Longitude":"-21.9218065","Name":"Faxatún"},{"Latitude":"64.2261859","Longitude":"-20.3377654","Name":"Faxavegur"},{"Latitude":"65.7335859","Longitude":"-23.8288971","Name":"Feigsdalsvegur"},{"Latitude":"66.0324876","Longitude":"-19.3666109","Name":"Fell"},{"Latitude":"64.9236681","Longitude":"-23.2688806","Name":"Fellabrekka"},{"Latitude":"64.0878380","Longitude":"-21.8054891","Name":"Fellahvarf"},{"Latitude":"64.0996083","Longitude":"-21.8916018","Name":"Fellasmári"},{"Latitude":"64.9226824","Longitude":"-23.2669254","Name":"Fellasneið"},{"Latitude":"65.2961384","Longitude":"-14.4909761","Name":"Fellavegur"},{"Latitude":"64.9781140","Longitude":"-21.5646522","Name":"Fellsendi"},{"Latitude":"64.1319074","Longitude":"-21.8825644","Name":"Fellsmúli"},{"Latitude":"65.7367724","Longitude":"-19.6405538","Name":"Fellstún"},{"Latitude":"66.0495638","Longitude":"-21.5333144","Name":"Fellsvegur"},{"Latitude":"64.1723409","Longitude":"-21.6738072","Name":"Fellsás"},{"Latitude":"64.0933468","Longitude":"-21.8524523","Name":"Fensalir"},{"Latitude":"64.5950548","Longitude":"-21.8280203","Name":"Ferjubakkavegur"},{"Latitude":"64.1096383","Longitude":"-21.8266787","Name":"Ferjubakki"},{"Latitude":"64.0014993","Longitude":"-20.9093211","Name":"Ferjubraut"},{"Latitude":"63.9618334","Longitude":"-22.5681657","Name":"Ferjutröð"},{"Latitude":"64.1025117","Longitude":"-21.7724318","Name":"Ferjuvað"},{"Latitude":"64.1198090","Longitude":"-20.4975798","Name":"Ferjuvegur"},{"Latitude":"64.1303336","Longitude":"-21.8586235","Name":"Ferjuvogur"},{"Latitude":"63.8572155","Longitude":"-20.4364100","Name":"Fet"},{"Latitude":"65.4994650","Longitude":"-18.2082226","Name":"Finnastaðavegur"},{"Latitude":"65.5192809","Longitude":"-18.1806708","Name":"Finnastaðir"},{"Latitude":"64.0285821","Longitude":"-20.9427020","Name":"Finnheiðarvegur"},{"Latitude":"65.2651327","Longitude":"-20.7048132","Name":"Finnmörk"},{"Latitude":"63.8512779","Longitude":"-21.3854616","Name":"Finnsbúð"},{"Latitude":"65.2884221","Longitude":"-14.3761276","Name":"Finnsstaðir"},{"Latitude":"65.5046120","Longitude":"-19.8588932","Name":"Finnstunga"},{"Latitude":"64.1485929","Longitude":"-21.9427035","Name":"Fischersund"},{"Latitude":"64.1217662","Longitude":"-21.8164443","Name":"Fiskakvísl"},{"Latitude":"63.9609623","Longitude":"-21.2629734","Name":"Fiskalónsvegur"},{"Latitude":"64.2546979","Longitude":"-15.2068960","Name":"Fiskhóll"},{"Latitude":"64.1536059","Longitude":"-21.9526988","Name":"Fiskislóð"},{"Latitude":"65.6914628","Longitude":"-18.0872210","Name":"Fiskitangi"},{"Latitude":"63.9802105","Longitude":"-22.5465728","Name":"Fitjabakki"},{"Latitude":"63.9825100","Longitude":"-22.5458440","Name":"Fitjabraut"},{"Latitude":"64.0969330","Longitude":"-21.8719090","Name":"Fitjalind"},{"Latitude":"63.5921742","Longitude":"-19.9448204","Name":"Fitjarvegur"},{"Latitude":"64.0989990","Longitude":"-21.8923846","Name":"Fitjasmári"},{"Latitude":"66.1111052","Longitude":"-23.1246486","Name":"Fitjateigur"},{"Latitude":"65.3547422","Longitude":"-20.6935751","Name":"Fitjavegur"},{"Latitude":"63.9801544","Longitude":"-22.5499550","Name":"Fitjaás"},{"Latitude":"64.0436415","Longitude":"-20.5746424","Name":"Fjall"},{"Latitude":"63.9824274","Longitude":"-18.8509143","Name":"Fjallabaksleið nyrðri"},{"Latitude":"63.8333489","Longitude":"-19.2080028","Name":"Fjallabaksleið syðri"},{"Latitude":"65.7201668","Longitude":"-19.3669137","Name":"Fjallakráin"},{"Latitude":"64.0890937","Longitude":"-21.8286170","Name":"Fjallakór"},{"Latitude":"64.0951348","Longitude":"-21.8712462","Name":"Fjallalind"},{"Latitude":"66.1689097","Longitude":"-15.7434484","Name":"Fjallalækjarsel"},{"Latitude":"64.1368479","Longitude":"-21.8085326","Name":"Fjallkonuvegur"},{"Latitude":"64.0402195","Longitude":"-20.5552743","Name":"Fjallsvegur"},{"Latitude":"65.2586018","Longitude":"-14.0144682","Name":"Fjarðarbakki"},{"Latitude":"64.0685612","Longitude":"-21.9590378","Name":"Fjarðargata"},{"Latitude":"65.1518619","Longitude":"-21.0863154","Name":"Fjarðarhorn"},{"Latitude":"64.0739484","Longitude":"-21.9399019","Name":"Fjarðarhraun"},{"Latitude":"64.0966113","Longitude":"-21.8320616","Name":"Fjarðarsel"},{"Latitude":"66.0759978","Longitude":"-23.1225752","Name":"Fjarðarstræti"},{"Latitude":"64.0665525","Longitude":"-21.9562293","Name":"Fjarðartorg"},{"Latitude":"66.1943027","Longitude":"-15.3290230","Name":"Fjarðarvegur"},{"Latitude":"64.1115835","Longitude":"-21.7885432","Name":"Fjarðarás"},{"Latitude":"66.1358487","Longitude":"-18.9288184","Name":"Fjarðavegur"},{"Latitude":"64.9091783","Longitude":"-23.8803077","Name":"Fjárborg"},{"Latitude":"64.6929900","Longitude":"-20.9915740","Name":"Fjárhústunga"},{"Latitude":"64.1410998","Longitude":"-21.9380539","Name":"Fjólugata"},{"Latitude":"64.0591696","Longitude":"-21.9309671","Name":"Fjóluhlíð"},{"Latitude":"65.2864881","Longitude":"-14.4209023","Name":"Fjóluhvammur"},{"Latitude":"64.5563187","Longitude":"-21.8938744","Name":"Fjóluklettur"},{"Latitude":"64.3236078","Longitude":"-22.0412823","Name":"Fjólulundur"},{"Latitude":"65.2614848","Longitude":"-14.4042155","Name":"Fjóluvangur"},{"Latitude":"64.0448990","Longitude":"-21.9711840","Name":"Fjóluvellir"},{"Latitude":"64.0562564","Longitude":"-21.9341504","Name":"Fjóluás"},{"Latitude":"65.0923148","Longitude":"-14.7467385","Name":"Fjósakambur"},{"Latitude":"65.6451112","Longitude":"-17.8512725","Name":"Fjósatunga"},{"Latitude":"66.0762301","Longitude":"-16.9389504","Name":"Fjöll"},{"Latitude":"66.0888689","Longitude":"-16.9437401","Name":"Fjöll 2"},{"Latitude":"65.6966695","Longitude":"-18.1317743","Name":"Fjölnisgata"},{"Latitude":"64.1403734","Longitude":"-21.9319024","Name":"Fjölnisvegur"},{"Latitude":"64.1326043","Longitude":"-21.7993191","Name":"Fjörgyn"},{"Latitude":"63.9746925","Longitude":"-22.5700491","Name":"Fjörubraut"},{"Latitude":"64.1485795","Longitude":"-21.9703638","Name":"Fjörugrandi"},{"Latitude":"65.1893708","Longitude":"-14.0250391","Name":"Fjörður"},{"Latitude":"66.1897390","Longitude":"-15.6088391","Name":"Flaga"},{"Latitude":"63.9844935","Longitude":"-20.2590321","Name":"Flagbjarnarholtsvegur"},{"Latitude":"64.0753210","Longitude":"-21.9482041","Name":"Flatahraun"},{"Latitude":"65.2579954","Longitude":"-14.3819989","Name":"Flatasel"},{"Latitude":"65.6955682","Longitude":"-18.1345767","Name":"Flatasíða"},{"Latitude":"65.4209643","Longitude":"-19.1626131","Name":"Flatatunga"},{"Latitude":"64.2586023","Longitude":"-15.5842784","Name":"Flatey"},{"Latitude":"66.0429200","Longitude":"-17.8553410","Name":"Flateyjardalsvegur"},{"Latitude":"66.0407013","Longitude":"-23.4514922","Name":"Flateyrarvegur"},{"Latitude":"63.4413100","Longitude":"-20.2786723","Name":"Flatir"},{"Latitude":"64.3110741","Longitude":"-21.5666878","Name":"Flekkudalsvegur"},{"Latitude":"64.3023648","Longitude":"-21.5895745","Name":"Flekkudalur"},{"Latitude":"64.0881478","Longitude":"-21.8272231","Name":"Flesjakór"},{"Latitude":"64.7447871","Longitude":"-22.2465753","Name":"Flesjustaðir"},{"Latitude":"64.0973337","Longitude":"-21.8294030","Name":"Fljótasel"},{"Latitude":"65.3621686","Longitude":"-14.3715324","Name":"Fljótsbakki"},{"Latitude":"65.0744541","Longitude":"-14.8748161","Name":"Fljótsdalsvegur"},{"Latitude":"64.1752392","Longitude":"-20.4398616","Name":"Fljótshamrar"},{"Latitude":"63.7135858","Longitude":"-19.7771368","Name":"Fljótshlíðarvegur"},{"Latitude":"63.7925604","Longitude":"-20.8044176","Name":"Fljótshólar"},{"Latitude":"63.9999124","Longitude":"-21.1840935","Name":"Fljótsmörk"},{"Latitude":"63.9762568","Longitude":"-22.5800891","Name":"Flugbraut"},{"Latitude":"64.3111294","Longitude":"-20.2695558","Name":"Flugbrautarvegur"},{"Latitude":"65.6663997","Longitude":"-18.1349145","Name":"Fluguborg"},{"Latitude":"65.5840343","Longitude":"-19.3337072","Name":"Flugumýrarhvammsvegur"},{"Latitude":"64.1576851","Longitude":"-21.7120903","Name":"Flugumýri"},{"Latitude":"65.5776772","Longitude":"-19.3301479","Name":"Flugumýri II"},{"Latitude":"64.0437416","Longitude":"-21.9111926","Name":"Fluguskeið"},{"Latitude":"63.9672202","Longitude":"-22.5600222","Name":"Flugvallarbraut"},{"Latitude":"64.1317394","Longitude":"-21.9270396","Name":"Flugvallarvegur"},{"Latitude":"65.8703626","Longitude":"-23.5484189","Name":"Flugvallarvegur Dýrafirði"},{"Latitude":"65.2750057","Longitude":"-14.4054596","Name":"Flugvallarvegur Egilsstöðum"},{"Latitude":"65.9900085","Longitude":"-21.3419054","Name":"Flugvallarvegur Gjögri"},{"Latitude":"64.3038369","Longitude":"-15.2211403","Name":"Flugvallarvegur Hornafirði"},{"Latitude":"65.6475406","Longitude":"-16.9198008","Name":"Flugvallarvegur Mývatnssveit"},{"Latitude":"65.7426726","Longitude":"-19.5858622","Name":"Flugvallarvegur Sauðárkróki"},{"Latitude":"65.7186754","Longitude":"-14.8587748","Name":"Flugvallarvegur Vopnafirði"},{"Latitude":"66.0540820","Longitude":"-23.1433412","Name":"Flugvallarvegur Ísafirði"},{"Latitude":"66.2183483","Longitude":"-15.3277809","Name":"Flugvallarvegur Þórshöfn"},{"Latitude":"65.9598821","Longitude":"-17.4108826","Name":"Flugvallarvegur í Aðaldal"},{"Latitude":"64.0513103","Longitude":"-21.9880353","Name":"Flugvellir"},{"Latitude":"63.9274207","Longitude":"-21.0296436","Name":"Flugvöllur"},{"Latitude":"64.1485485","Longitude":"-21.9646667","Name":"Flyðrugrandi"},{"Latitude":"65.7414453","Longitude":"-19.6018044","Name":"Flæðagerði"},{"Latitude":"65.9699199","Longitude":"-18.5258908","Name":"Flæðavegur"},{"Latitude":"64.1430810","Longitude":"-21.7951500","Name":"Flétturimi"},{"Latitude":"64.0447062","Longitude":"-21.9785080","Name":"Fléttutorg"},{"Latitude":"64.0447434","Longitude":"-21.9780954","Name":"Fléttuvellir"},{"Latitude":"66.0355160","Longitude":"-19.1573809","Name":"Flókadalsvegur"},{"Latitude":"66.0382156","Longitude":"-19.1252017","Name":"Flókadalsvegur Eystri"},{"Latitude":"64.1377347","Longitude":"-21.9081688","Name":"Flókagata"},{"Latitude":"63.7358837","Longitude":"-20.1399907","Name":"Flókastaðir"},{"Latitude":"65.6950445","Longitude":"-18.1354543","Name":"Flögusíða"},{"Latitude":"65.6592750","Longitude":"-20.2983221","Name":"Flúðabakki"},{"Latitude":"64.1291671","Longitude":"-20.3233613","Name":"Flúðalaug"},{"Latitude":"64.0989393","Longitude":"-21.8401483","Name":"Flúðasel"},{"Latitude":"65.3261474","Longitude":"-14.4836787","Name":"Flúðir"},{"Latitude":"65.7478915","Longitude":"-17.8924519","Name":"Fnjóskadalsvegur eystri"},{"Latitude":"65.7901354","Longitude":"-17.9101971","Name":"Fnjóskadalsvegur vestri"},{"Latitude":"63.9246782","Longitude":"-20.9954205","Name":"Folaldahólar"},{"Latitude":"63.4337482","Longitude":"-20.2903261","Name":"Foldahraun"},{"Latitude":"64.0983692","Longitude":"-21.8930503","Name":"Foldarsmári"},{"Latitude":"65.6863659","Longitude":"-18.1424473","Name":"Fornagil"},{"Latitude":"64.0951781","Longitude":"-21.7916535","Name":"Fornahvarf"},{"Latitude":"65.6565454","Longitude":"-20.2991322","Name":"Fornastaðir"},{"Latitude":"64.1545013","Longitude":"-21.9906449","Name":"Fornaströnd"},{"Latitude":"63.8396394","Longitude":"-22.4486434","Name":"Fornavör"},{"Latitude":"64.1412953","Longitude":"-21.9560486","Name":"Fornhagi"},{"Latitude":"63.8344414","Longitude":"-20.3913975","Name":"Fornisandur"},{"Latitude":"64.1109964","Longitude":"-21.8364159","Name":"Fornistekkur"},{"Latitude":"64.0632634","Longitude":"-21.9638897","Name":"Fornubúðir"},{"Latitude":"63.5599017","Longitude":"-19.9668825","Name":"Fornusandar"},{"Latitude":"64.3107797","Longitude":"-15.2365340","Name":"Fornustekkar"},{"Latitude":"64.3145451","Longitude":"-15.2375636","Name":"Fornustekkar 1"},{"Latitude":"65.7456770","Longitude":"-19.6337131","Name":"Fornós"},{"Latitude":"64.0935957","Longitude":"-21.8515192","Name":"Forsalir"},{"Latitude":"65.3177634","Longitude":"-20.1450469","Name":"Forsæludalur"},{"Latitude":"63.8563460","Longitude":"-20.7185511","Name":"Forsæti"},{"Latitude":"64.2417350","Longitude":"-20.1903815","Name":"Foss"},{"Latitude":"64.8910883","Longitude":"-23.6989072","Name":"Fossabrekka"},{"Latitude":"64.1336019","Longitude":"-21.9501934","Name":"Fossagata"},{"Latitude":"65.6857718","Longitude":"-18.1418733","Name":"Fossagil"},{"Latitude":"64.9234920","Longitude":"-23.2580760","Name":"Fossahlíð"},{"Latitude":"64.0901996","Longitude":"-21.8062786","Name":"Fossahvarf"},{"Latitude":"63.8328529","Longitude":"-20.3917395","Name":"Fossalda"},{"Latitude":"64.1447788","Longitude":"-21.7739650","Name":"Fossaleynir"},{"Latitude":"63.7117073","Longitude":"-17.9674395","Name":"Fossar"},{"Latitude":"64.1823821","Longitude":"-21.6822171","Name":"Fossatunga"},{"Latitude":"65.6682594","Longitude":"-18.1042072","Name":"Fossatún"},{"Latitude":"64.1841112","Longitude":"-21.6784280","Name":"Fossavegur"},{"Latitude":"63.5266922","Longitude":"-19.5098158","Name":"Fossbúð"},{"Latitude":"65.0732402","Longitude":"-14.0114576","Name":"Fossgata"},{"Latitude":"63.9318982","Longitude":"-20.9998872","Name":"Fossheiði"},{"Latitude":"65.6893727","Longitude":"-18.1273823","Name":"Fosshlíð"},{"Latitude":"64.1224419","Longitude":"-21.8056134","Name":"Fossháls"},{"Latitude":"63.9479889","Longitude":"-21.0166115","Name":"Fossnes"},{"Latitude":"63.9354258","Longitude":"-21.0112411","Name":"Fosstún"},{"Latitude":"64.2413495","Longitude":"-20.1921825","Name":"Fossvegur"},{"Latitude":"63.8541790","Longitude":"-17.8686099","Name":"Fossvegur 1"},{"Latitude":"66.0420519","Longitude":"-17.3371725","Name":"Fossvellir"},{"Latitude":"64.1209977","Longitude":"-21.8925999","Name":"Fossvogsblettur"},{"Latitude":"64.1141260","Longitude":"-21.8462497","Name":"Fossvogsbrún"},{"Latitude":"64.1200086","Longitude":"-21.8894109","Name":"Fossvogsvegur"},{"Latitude":"64.3512849","Longitude":"-21.4599747","Name":"Fossá"},{"Latitude":"64.1438851","Longitude":"-21.9260086","Name":"Frakkastígur"},{"Latitude":"65.9811082","Longitude":"-18.5288263","Name":"Framnes"},{"Latitude":"64.1504477","Longitude":"-21.9555102","Name":"Framnesvegur"},{"Latitude":"65.0048771","Longitude":"-23.1788704","Name":"Framsveitarvegur"},{"Latitude":"63.9948306","Longitude":"-22.5517452","Name":"Frekjan"},{"Latitude":"65.8328599","Longitude":"-22.3510730","Name":"Fremri-Bakki"},{"Latitude":"65.4576347","Longitude":"-14.4288753","Name":"Fremri-Galtastaðir"},{"Latitude":"65.5681299","Longitude":"-22.4168515","Name":"Fremri-Gufudalur"},{"Latitude":"65.6820528","Longitude":"-15.0550032","Name":"Fremri-Hlíð"},{"Latitude":"65.6986596","Longitude":"-23.7062162","Name":"Fremri-Hvesta"},{"Latitude":"64.9895915","Longitude":"-14.9755571","Name":"Fremri-Víðivallavegur"},{"Latitude":"64.9892173","Longitude":"-14.9740993","Name":"Fremri-Víðivellir"},{"Latitude":"65.4276423","Longitude":"-19.3162988","Name":"Fremribyggðarvegur"},{"Latitude":"64.1119629","Longitude":"-21.8339722","Name":"Fremristekkur"},{"Latitude":"65.7000100","Longitude":"-17.5563200","Name":"Fremstafellsvegur"},{"Latitude":"64.7068993","Longitude":"-21.1775206","Name":"Fremstumóar"},{"Latitude":"64.1340168","Longitude":"-21.7445663","Name":"Freyjubrunnur"},{"Latitude":"64.1428778","Longitude":"-21.9315872","Name":"Freyjugata"},{"Latitude":"65.6971231","Longitude":"-18.1207685","Name":"Freyjunes"},{"Latitude":"64.0690777","Longitude":"-20.9735418","Name":"Freyjustígur"},{"Latitude":"64.0081888","Longitude":"-22.5813995","Name":"Freyjuvellir"},{"Latitude":"63.9901080","Longitude":"-16.8926389","Name":"Freysnesvegur"},{"Latitude":"63.8352765","Longitude":"-20.3952303","Name":"Freyvangur"},{"Latitude":"64.1356552","Longitude":"-21.7372469","Name":"Friggjarbrunnur"},{"Latitude":"64.1783029","Longitude":"-20.4475127","Name":"Friðheimar"},{"Latitude":"64.0956995","Longitude":"-21.9173488","Name":"Frjóakur"},{"Latitude":"64.1361161","Longitude":"-21.7985151","Name":"Frostafold"},{"Latitude":"65.6976365","Longitude":"-18.1360444","Name":"Frostagata"},{"Latitude":"64.1463235","Longitude":"-21.9694498","Name":"Frostaskjól"},{"Latitude":"65.6216902","Longitude":"-19.3666826","Name":"Frostastaðir"},