[{"Latitude":"13.2781437","Longitude":"-16.6589676","Name":"11th Avenue"},{"Latitude":"13.2816768","Longitude":"-16.6601289","Name":"13th Avenue"},{"Latitude":"13.2823359","Longitude":"-16.6558394","Name":"14th Avenue"},{"Latitude":"13.2828456","Longitude":"-16.6557978","Name":"15th Avenue"},{"Latitude":"13.2718896","Longitude":"-16.6491117","Name":"1th Avenue"},{"Latitude":"13.2717183","Longitude":"-16.6503999","Name":"2th Avenue"},{"Latitude":"13.2738119","Longitude":"-16.6505226","Name":"3th Avenue"},{"Latitude":"13.3157496","Longitude":"-16.7842130","Name":"4WD vehicles only"},{"Latitude":"13.2743265","Longitude":"-16.6516852","Name":"4th Avenue"},{"Latitude":"13.2750424","Longitude":"-16.6530088","Name":"6th Avenue"},{"Latitude":"13.4530450","Longitude":"-16.5809503","Name":"A. Ndure Street"},{"Latitude":"13.4068994","Longitude":"-16.7289349","Name":"AU Summit Highway"},{"Latitude":"13.4509747","Longitude":"-16.5793176","Name":"Abdou Wally Mbye Street"},{"Latitude":"13.2815567","Longitude":"-16.6423727","Name":"Africel Avenue"},{"Latitude":"13.3590143","Longitude":"-16.6531816","Name":"Airport Road"},{"Latitude":"13.4586600","Longitude":"-16.5856319","Name":"Alhaji Dawda Corr Street"},{"Latitude":"13.4156828","Longitude":"-16.7275802","Name":"Alieu Badou Jeng Street"},{"Latitude":"13.2659750","Longitude":"-16.6394446","Name":"Alpha Khan Street"},{"Latitude":"13.4546023","Longitude":"-16.5748631","Name":"Alpha Tapsiru Salam"},{"Latitude":"13.2840554","Longitude":"-16.6317700","Name":"Andras Avenue"},{"Latitude":"13.3899641","Longitude":"-16.6374573","Name":"Anna Street"},{"Latitude":"13.4567475","Longitude":"-16.5799396","Name":"Antouman Fall Street"},{"Latitude":"13.4692122","Longitude":"-16.6964923","Name":"Atlantic Boulevard"},{"Latitude":"13.4470664","Longitude":"-16.5751012","Name":"B. Ceesay Street"},{"Latitude":"13.2659645","Longitude":"-16.6218008","Name":"Baba Njie Taxi Junction"},{"Latitude":"13.3679330","Longitude":"-14.0782765","Name":"Badari - Kulari Highway"},{"Latitude":"13.4560325","Longitude":"-16.5796746","Name":"Badou Lowe Street"},{"Latitude":"13.2591728","Longitude":"-16.6616725","Name":"Banana Street"},{"Latitude":"13.2672878","Longitude":"-16.6456025","Name":"Berewuleng junction"},{"Latitude":"13.4558378","Longitude":"-16.7067621","Name":"Bertil Harding Highway"},{"Latitude":"13.2770015","Longitude":"-16.6527601","Name":"Best life ever Road"},{"Latitude":"13.2778123","Longitude":"-16.6531162","Name":"Big Tree Junction"},{"Latitude":"13.2766383","Longitude":"-16.6568322","Name":"Big Tree Street"},{"Latitude":"13.2821743","Longitude":"-16.6477465","Name":"Border Line"},{"Latitude":"13.2866411","Longitude":"-16.6305690","Name":"Botrop Street"},{"Latitude":"13.4567449","Longitude":"-16.5837329","Name":"Box Bar Road"},{"Latitude":"13.2741670","Longitude":"-16.6417410","Name":"Brikama Highway"},{"Latitude":"13.2756837","Longitude":"-16.6426161","Name":"Brikama Street"},{"Latitude":"13.4041311","Longitude":"-16.7455204","Name":"Brufut Heights"},{"Latitude":"13.1803616","Longitude":"-16.6328902","Name":"Busura Highway"},{"Latitude":"13.2838871","Longitude":"-16.6362311","Name":"Canaan Street"},{"Latitude":"13.2597824","Longitude":"-16.6585685","Name":"Cashew Street"},{"Latitude":"13.3118714","Longitude":"-14.1672228","Name":"Chamoi Bridge"},{"Latitude":"13.2854349","Longitude":"-16.6480398","Name":"Charcoal Junction"},{"Latitude":"13.4465486","Longitude":"-16.5729440","Name":"Cherno Adama Bah Street"},{"Latitude":"13.2916178","Longitude":"-16.7821647","Name":"Coastal Road"},{"Latitude":"13.2872596","Longitude":"-16.6548180","Name":"Coca Cola Junction"},{"Latitude":"13.2824557","Longitude":"-16.6602304","Name":"College Road"},{"Latitude":"13.4244121","Longitude":"-16.6693445","Name":"Concrete Road"},{"Latitude":"13.7808526","Longitude":"-14.8426054","Name":"D 520"},{"Latitude":"13.2257584","Longitude":"-16.6482497","Name":"Darsalami Highway"},{"Latitude":"13.2700891","Longitude":"-16.6534529","Name":"Deaf School Drive"},{"Latitude":"13.4509380","Longitude":"-16.5758003","Name":"Dobson Street"},{"Latitude":"13.4486726","Longitude":"-16.5733668","Name":"ECOWAS Avenue"},{"Latitude":"13.4525912","Longitude":"-16.5795448","Name":"Essa Faal Street"},{"Latitude":"13.4526193","Longitude":"-16.5775800","Name":"Fitzgerald Street"},{"Latitude":"13.0912749","Longitude":"-16.7603793","Name":"Folonko Street"},{"Latitude":"13.2727336","Longitude":"-16.6633307","Name":"Freedy's Avenue"},{"Latitude":"13.3893436","Longitude":"-16.7477771","Name":"Gamtel road"},{"Latitude":"13.2768147","Longitude":"-16.6473421","Name":"Garage Avenue"},{"Latitude":"13.4714273","Longitude":"-16.6839787","Name":"Garba Jahumpa Road"},{"Latitude":"13.4532558","Longitude":"-16.5757519","Name":"Grant Street"},{"Latitude":"13.1800020","Longitude":"-16.7049653","Name":"Gunjur Highway"},{"Latitude":"13.0945640","Longitude":"-16.7627847","Name":"Hagan street"},{"Latitude":"13.0928453","Longitude":"-16.7596292","Name":"Hajojara street"},{"Latitude":"13.4518516","Longitude":"-16.5770916","Name":"Hannah Forster Street"},{"Latitude":"13.4552830","Longitude":"-16.5817858","Name":"Harley Njie Street"},{"Latitude":"13.2678420","Longitude":"-16.6555106","Name":"High Street"},{"Latitude":"13.4540419","Longitude":"-16.5803297","Name":"Hope Street"},{"Latitude":"13.2721070","Longitude":"-16.7829281","Name":"How Ba Road"},{"Latitude":"13.0939058","Longitude":"-16.7594087","Name":"Hubak street"},{"Latitude":"13.4610284","Longitude":"-16.6771109","Name":"ICEMAN FEILD ROAD"},{"Latitude":"13.2691788","Longitude":"-16.6551829","Name":"Ice Plan Taxi Junction"},{"Latitude":"13.4484220","Longitude":"-16.5770522","Name":"Imam Lamin Bah"},{"Latitude":"13.4531216","Longitude":"-16.5847454","Name":"Imam Omar Sowe Avenue"},{"Latitude":"13.2870706","Longitude":"-16.6539471","Name":"Jah Oil Avenue"},{"Latitude":"13.2395043","Longitude":"-16.7363513","Name":"Jalambang Highway"},{"Latitude":"13.2799155","Longitude":"-16.6609930","Name":"Jaliba Junction"},{"Latitude":"13.3225643","Longitude":"-16.7077589","Name":"Jambanjelly Highway"},{"Latitude":"13.3136624","Longitude":"-16.6875398","Name":"Jambur Taxi Junction"},{"Latitude":"13.4542511","Longitude":"-16.5836316","Name":"James Senegal Street"},{"Latitude":"13.2705141","Longitude":"-16.6548631","Name":"Jamisa School Junction"},{"Latitude":"13.2709067","Longitude":"-16.6573216","Name":"Jamisa Street"},{"Latitude":"13.4004731","Longitude":"-15.5123846","Name":"Jarra West Road"},{"Latitude":"13.4543050","Longitude":"-16.5823733","Name":"Jeremiah Ellen Street"},{"Latitude":"13.4551149","Longitude":"-16.6713543","Name":"Jimpex Road"},{"Latitude":"13.5408524","Longitude":"-14.7650240","Name":"John Street"},{"Latitude":"13.4119453","Longitude":"-16.6777496","Name":"Kaabu Street"},{"Latitude":"13.3069767","Longitude":"-16.6313535","Name":"Kabafita Junction"},{"Latitude":"13.4638206","Longitude":"-16.6885295","Name":"Kairaba Avenue"},{"Latitude":"13.4283407","Longitude":"-16.7113709","Name":"Kamapala Street"},{"Latitude":"13.4549612","Longitude":"-16.6767485","Name":"Kanifing Estate"},{"Latitude":"13.4607967","Longitude":"-16.6748180","Name":"Kanifing Layout Road"},{"Latitude":"13.4547859","Longitude":"-16.6786378","Name":"Kanifing South Road"},{"Latitude":"13.4478661","Longitude":"-16.5846788","Name":"Kankujereh Road"},{"Latitude":"13.2592446","Longitude":"-16.6710713","Name":"Kasa Kunda Highway"},{"Latitude":"13.2774675","Longitude":"-16.6561985","Name":"Kingdom Lane"},{"Latitude":"13.2716987","Longitude":"-16.6504468","Name":"Kiti Street"},{"Latitude":"13.4413202","Longitude":"-16.7055193","Name":"Kololi Road"},{"Latitude":"13.4552118","Longitude":"-16.7018543","Name":"Kotu Eaat"},{"Latitude":"13.4446748","Longitude":"-16.7037752","Name":"Kotu Highway"},{"Latitude":"13.4468562","Longitude":"-16.7095056","Name":"Kotu Palma Rima Road"},{"Latitude":"13.3914468","Longitude":"-16.6769922","Name":"Kunkujang Junction"},{"Latitude":"13.4537411","Longitude":"-16.5723020","Name":"Liberation Avenue"},{"Latitude":"13.4534138","Longitude":"-16.5791847","Name":"Louvell Square"},{"Latitude":"13.4600385","Longitude":"-16.6781664","Name":"MDI Road"},{"Latitude":"13.4521664","Longitude":"-16.5783811","Name":"Mam Mberry Njie Street"},{"Latitude":"13.2658619","Longitude":"-16.6473738","Name":"Manduar Highway"},{"Latitude":"13.2628066","Longitude":"-16.6586372","Name":"Mango Street"},{"Latitude":"13.6043841","Longitude":"-16.4546443","Name":"Mansarenko, Karang Baa, Karang Access Road #1"},{"Latitude":"13.4564867","Longitude":"-16.5745094","Name":"Marina Parade"},{"Latitude":"13.2740939","Longitude":"-16.6483802","Name":"Market Road"},{"Latitude":"13.4562024","Longitude":"-16.5868323","Name":"Masamba Ceesay Street"},{"Latitude":"13.4543697","Longitude":"-16.5801215","Name":"McDonnel Street"},{"Latitude":"13.4559878","Longitude":"-16.5853516","Name":"Miniru Savage Rd"},{"Latitude":"13.4572319","Longitude":"-16.5879201","Name":"Miniru Savage Road"},{"Latitude":"13.4569413","Longitude":"-16.5880295","Name":"Mosque Lane"},{"Latitude":"13.4437959","Longitude":"-16.6845200","Name":"Mosque Rd"},{"Latitude":"13.4576944","Longitude":"-16.5803875","Name":"Mosque Road"},{"Latitude":"13.4539762","Longitude":"-16.6752896","Name":"Mosque Road. Kanifing Estate"},{"Latitude":"13.4584302","Longitude":"-16.5823457","Name":"Nancy Pierre Road"},{"Latitude":"13.2824736","Longitude":"-16.6346499","Name":"Nawec Junction"},{"Latitude":"13.4522568","Longitude":"-16.5740159","Name":"Nelson Mandela Street"},{"Latitude":"13.4409553","Longitude":"-16.7136965","Name":"New Kololi Road"},{"Latitude":"13.2690419","Longitude":"-16.6439317","Name":"New Town Junction"},{"Latitude":"13.2782517","Longitude":"-16.6571140","Name":"Niambai Junction"},{"Latitude":"13.5370806","Longitude":"-16.3156863","Name":"North Bank Road"},{"Latitude":"13.4474039","Longitude":"-16.5750654","Name":"O. N. Mojie Street"},{"Latitude":"13.4494799","Longitude":"-16.5742828","Name":"OAU Boulevard"},{"Latitude":"13.4749273","Longitude":"-16.6626837","Name":"Old Cape Road"},{"Latitude":"13.2585763","Longitude":"-16.6594857","Name":"Orange Street"},{"Latitude":"13.4568379","Longitude":"-16.5791438","Name":"Ousman Jeng Street"},{"Latitude":"13.4541000","Longitude":"-16.7151746","Name":"Palma Rima Road"},{"Latitude":"13.2640130","Longitude":"-16.6564938","Name":"Papaya Street"},{"Latitude":"13.4600573","Longitude":"-16.6828362","Name":"Pipeline Rd"},{"Latitude":"13.4570920","Longitude":"-16.6822788","Name":"Pipiline"},{"Latitude":"13.4581568","Longitude":"-16.6798279","Name":"Pipline- Danso Road"},{"Latitude":"13.5616699","Longitude":"-15.0974706","Name":"Piste"},{"Latitude":"13.4589913","Longitude":"-16.5854621","Name":"Reg Pye Lane"},{"Latitude":"13.4518674","Longitude":"-16.5762155","Name":"Rene Blain Street"},{"Latitude":"13.4602393","Longitude":"-16.5849495","Name":"Reverend Pye Lane"},{"Latitude":"13.4472680","Longitude":"-16.7068800","Name":"Road Joy of Convention"},{"Latitude":"13.5849219","Longitude":"-15.8804647","Name":"Road to Kerr Katim"},{"Latitude":"13.5904545","Longitude":"-15.8767766","Name":"Road to Kerr Musa"},{"Latitude":"13.5880665","Longitude":"-15.8805789","Name":"Road to Samba Nyado"},{"Latitude":"13.6070520","Longitude":"-15.8713124","Name":"Routa à Keur Mousa"},{"Latitude":"13.5975013","Longitude":"-15.8797696","Name":"Route à Keur Samboye"},{"Latitude":"13.4764903","Longitude":"-16.6765058","Name":"Sait Matty Road"},{"Latitude":"13.4688610","Longitude":"-16.6698538","Name":"Saitmatty Road"},{"Latitude":"13.4797643","Longitude":"-16.6745204","Name":"Salung"},{"Latitude":"13.2676029","Longitude":"-16.6512146","Name":"Santa Su street"},{"Latitude":"13.2762476","Longitude":"-16.7072949","Name":"Sanyang Highway"},{"Latitude":"13.4478936","Longitude":"-16.5760764","Name":"Sayer Joof Street"},{"Latitude":"13.4091912","Longitude":"-16.7074334","Name":"Sayerjobe Avenue"},{"Latitude":"13.4478156","Longitude":"-16.7205029","Name":"Seaview Plazza"},{"Latitude":"13.4070908","Longitude":"-16.7293681","Name":"Senegambia Highway"},{"Latitude":"13.4423260","Longitude":"-16.7222637","Name":"Senegambia Strip"},{"Latitude":"13.4554545","Longitude":"-16.5805808","Name":"Serign Barro Street"},{"Latitude":"13.4499482","Longitude":"-16.5775618","Name":"Serign Modou Sillah Street"},{"Latitude":"13.4552631","Longitude":"-16.5860580","Name":"Sir John Andrew Mahoney Street"},{"Latitude":"13.2769922","Longitude":"-16.6629271","Name":"Smiling Coast Avenue"},{"Latitude":"13.4050208","Longitude":"-16.7377510","Name":"Sonko Street"},{"Latitude":"13.0917820","Longitude":"-16.7562703","Name":"Sotobakoto street"},{"Latitude":"13.5463426","Longitude":"-14.9752380","Name":"South Bank Road"},{"Latitude":"13.2751113","Longitude":"-16.6509712","Name":"Speed Road"},{"Latitude":"13.4537233","Longitude":"-16.5805429","Name":"Stanley Street"},{"Latitude":"13.4468478","Longitude":"-16.5762301","Name":"Tafsir Balla Joof Street"},{"Latitude":"13.4576853","Longitude":"-16.5794005","Name":"Tafsir Demba Ndow Street"},{"Latitude":"13.4466313","Longitude":"-16.5735894","Name":"Tafsir Ebou Samba Street"},{"Latitude":"13.4573605","Longitude":"-16.5888646","Name":"Tasfir Demba Mbeye Street"},{"Latitude":"13.2684326","Longitude":"-16.6422837","Name":"Taxi Junction"},{"Latitude":"13.3569764","Longitude":"-14.7432290","Name":"ToubaMboyenne - Ndimbou"},{"Latitude":"13.2721014","Longitude":"-16.6613976","Name":"WIFI Junction"},{"Latitude":"13.4509402","Longitude":"-16.5746899","Name":"West Davidson Carrol Street"},{"Latitude":"13.1788421","Longitude":"-16.4233325","Name":"old road"}]