[{"Latitude":"6.6374052","Longitude":"-5.1062487","Name":"ANCIENNE VOIE"},{"Latitude":"5.3709746","Longitude":"-3.9273459","Name":"AVENUE CISSE ABDOURAHMANE"},{"Latitude":"5.3729009","Longitude":"-3.9251594","Name":"AVENUE DJARATE OMER"},{"Latitude":"5.3704701","Longitude":"-3.9281917","Name":"AVENUE ZORO GUINA"},{"Latitude":"5.2363042","Longitude":"-3.8739017","Name":"Ancien A100"},{"Latitude":"5.3385156","Longitude":"-3.9202282","Name":"Ancien Route d'Abatta"},{"Latitude":"5.3645291","Longitude":"-3.9106903","Name":"Ancienne Route de Bingerville"},{"Latitude":"5.3865493","Longitude":"-4.0211007","Name":"Autoroute d'Abobo"},{"Latitude":"5.3142574","Longitude":"-4.0050132","Name":"Avenue 1"},{"Latitude":"5.3075208","Longitude":"-4.0086351","Name":"Avenue 10"},{"Latitude":"5.3070948","Longitude":"-4.0084896","Name":"Avenue 11"},{"Latitude":"5.3066722","Longitude":"-4.0083267","Name":"Avenue 12"},{"Latitude":"5.3473167","Longitude":"-4.0227881","Name":"Avenue 13"},{"Latitude":"5.3058122","Longitude":"-4.0080397","Name":"Avenue 14"},{"Latitude":"5.3053355","Longitude":"-4.0080397","Name":"Avenue 15"},{"Latitude":"5.3026032","Longitude":"-4.0141242","Name":"Avenue 16"},{"Latitude":"5.3024694","Longitude":"-4.0131033","Name":"Avenue 17"},{"Latitude":"5.3020733","Longitude":"-4.0129269","Name":"Avenue 18"},{"Latitude":"5.3016441","Longitude":"-4.0127663","Name":"Avenue 19"},{"Latitude":"5.3132854","Longitude":"-4.0054676","Name":"Avenue 2"},{"Latitude":"5.3012217","Longitude":"-4.0126090","Name":"Avenue 20"},{"Latitude":"5.3022379","Longitude":"-4.0067462","Name":"Avenue 22"},{"Latitude":"5.3032022","Longitude":"-4.0026981","Name":"Avenue 23"},{"Latitude":"5.3033581","Longitude":"-4.0008827","Name":"Avenue 24"},{"Latitude":"5.3023548","Longitude":"-4.0023950","Name":"Avenue 25"},{"Latitude":"5.3032968","Longitude":"-3.9983526","Name":"Avenue 26"},{"Latitude":"5.3085357","Longitude":"-4.0151986","Name":"Avenue 3"},{"Latitude":"5.3081213","Longitude":"-4.0150483","Name":"Avenue 4"},{"Latitude":"5.3106220","Longitude":"-4.0069366","Name":"Avenue 5"},{"Latitude":"5.3090718","Longitude":"-4.0096450","Name":"Avenue 6"},{"Latitude":"5.3069917","Longitude":"-4.0141638","Name":"Avenue 7"},{"Latitude":"5.3083240","Longitude":"-4.0090308","Name":"Avenue 8"},{"Latitude":"5.3061340","Longitude":"-4.0138822","Name":"Avenue 9"},{"Latitude":"5.3274124","Longitude":"-4.0217498","Name":"Avenue A58 Dr. Crozet"},{"Latitude":"5.3217490","Longitude":"-4.0137897","Name":"Avenue Abdoulaye Fadiga"},{"Latitude":"7.6695254","Longitude":"-5.0491999","Name":"Avenue Alassane Ouattara"},{"Latitude":"5.3702623","Longitude":"-3.9265509","Name":"Avenue Assahore Konan Jacques"},{"Latitude":"5.3457141","Longitude":"-3.9493939","Name":"Avenue Attoumgblan"},{"Latitude":"5.3062695","Longitude":"-4.0148674","Name":"Avenue B78"},{"Latitude":"5.3695893","Longitude":"-3.9245480","Name":"Avenue Bohoun Bouabre"},{"Latitude":"5.3243224","Longitude":"-4.0153331","Name":"Avenue Chardy"},{"Latitude":"5.3092066","Longitude":"-4.0165184","Name":"Avenue Christiani"},{"Latitude":"5.3196931","Longitude":"-4.0133572","Name":"Avenue Crosson Duplessis"},{"Latitude":"5.3213832","Longitude":"-4.0179387","Name":"Avenue Delafosse"},{"Latitude":"5.3708334","Longitude":"-3.9244003","Name":"Avenue Diby Koffi Charles"},{"Latitude":"5.3702022","Longitude":"-3.9249711","Name":"Avenue Djedje Mama O. S."},{"Latitude":"5.3438843","Longitude":"-3.9487733","Name":"Avenue Djembé"},{"Latitude":"5.3150919","Longitude":"-4.0179009","Name":"Avenue Faidherbe"},{"Latitude":"5.3219295","Longitude":"-4.0176733","Name":"Avenue Franchet D'Esperey"},{"Latitude":"5.3064187","Longitude":"-4.0144446","Name":"Avenue Gabriel Dadié"},{"Latitude":"5.3574083","Longitude":"-3.9869159","Name":"Avenue Harris Memel Fotê"},{"Latitude":"5.3179904","Longitude":"-4.0174100","Name":"Avenue Houdaille"},{"Latitude":"5.3197932","Longitude":"-4.0217458","Name":"Avenue Hoven"},{"Latitude":"7.6844278","Longitude":"-5.0257549","Name":"Avenue Jacques Aka"},{"Latitude":"5.3389213","Longitude":"-3.9959362","Name":"Avenue Jean Mermoz"},{"Latitude":"5.3317757","Longitude":"-4.0211067","Name":"Avenue Jean Paul 2"},{"Latitude":"5.3319565","Longitude":"-4.0214436","Name":"Avenue Jean-Paul II"},{"Latitude":"5.3202851","Longitude":"-4.0178052","Name":"Avenue Joseph Anoma"},{"Latitude":"5.3384768","Longitude":"-4.0132033","Name":"Avenue Joseph Blohorn"},{"Latitude":"5.3439186","Longitude":"-3.9482310","Name":"Avenue Kinkeni"},{"Latitude":"5.3430066","Longitude":"-3.9470487","Name":"Avenue Krin"},{"Latitude":"5.3021236","Longitude":"-4.0003358","Name":"Avenue L.P. Clouzet"},{"Latitude":"5.3187420","Longitude":"-4.0195439","Name":"Avenue Lamblin"},{"Latitude":"7.6762084","Longitude":"-5.0268948","Name":"Avenue Mamadou Konaté"},{"Latitude":"5.3252507","Longitude":"-4.0186815","Name":"Avenue Marchand"},{"Latitude":"5.3422609","Longitude":"-4.0742522","Name":"Avenue Marie-Thérèse-Houphouët-Boigny"},{"Latitude":"5.4016410","Longitude":"-4.0045914","Name":"Avenue Mermoz"},{"Latitude":"5.3876381","Longitude":"-4.0017455","Name":"Avenue Moulo Kouassi"},{"Latitude":"5.3193263","Longitude":"-4.0141212","Name":"Avenue Noguès / Avenue A8"},{"Latitude":"5.3716500","Longitude":"-3.9256624","Name":"Avenue Ouattara Karim"},{"Latitude":"5.3703520","Longitude":"-3.9276820","Name":"Avenue Ouattara Sie Abou"},{"Latitude":"5.3026808","Longitude":"-4.0069520","Name":"Avenue Ouézzin Coulibaly"},{"Latitude":"5.3731360","Longitude":"-3.9254891","Name":"Avenue Pote Moussa Ismael"},{"Latitude":"5.3416882","Longitude":"-4.0224596","Name":"Avenue Reboul"},{"Latitude":"5.3435958","Longitude":"-3.9458781","Name":"Avenue Sabar"},{"Latitude":"5.3444800","Longitude":"-3.9467188","Name":"Avenue Tabala"},{"Latitude":"5.3241490","Longitude":"-4.0199446","Name":"Avenue Terrasson de Fougères"},{"Latitude":"5.3241595","Longitude":"-4.0161981","Name":"Avenue Terrasson de Fougêres"},{"Latitude":"5.3150277","Longitude":"-4.0178437","Name":"Avenue Treich-Lapleine"},{"Latitude":"9.5039155","Longitude":"-7.5626909","Name":"Avenue Vakaba Touré"},{"Latitude":"5.3088953","Longitude":"-4.0157398","Name":"Avenue Victor Biaka Boda"},{"Latitude":"5.3109627","Longitude":"-3.9884955","Name":"Avenue de Marcory"},{"Latitude":"5.3430641","Longitude":"-4.0266112","Name":"Avenue de l'Agnéby"},{"Latitude":"5.3401120","Longitude":"-4.0048135","Name":"Avenue de l'Entente"},{"Latitude":"5.3440023","Longitude":"-4.0048613","Name":"Avenue de l'entente"},{"Latitude":"5.2570590","Longitude":"-3.9706618","Name":"Avenue de la Baltique"},{"Latitude":"5.3028295","Longitude":"-3.9827624","Name":"Avenue de la Côte d’Ivoire"},{"Latitude":"5.3208989","Longitude":"-4.0201300","Name":"Avenue de la Fosse"},{"Latitude":"7.6807337","Longitude":"-5.0407371","Name":"Avenue de la Fraternité"},{"Latitude":"5.3359651","Longitude":"-4.0215136","Name":"Avenue de la Gendarmerie"},{"Latitude":"5.3047699","Longitude":"-4.0081074","Name":"Avenue de la Reine Pokou"},{"Latitude":"5.3032384","Longitude":"-3.9874878","Name":"Avenue de la T.S.F."},{"Latitude":"7.6875032","Longitude":"-5.0122193","Name":"Avenue de la fraternité"},{"Latitude":"5.3961995","Longitude":"-3.9688348","Name":"Avenue de la solidarité"},{"Latitude":"5.3269089","Longitude":"-4.0184640","Name":"Avenue des Anciens Combattant"},{"Latitude":"5.3498718","Longitude":"-3.9887147","Name":"Avenue des Grandes Écoles"},{"Latitude":"5.3539289","Longitude":"-3.9915351","Name":"Avenue des Jardins"},{"Latitude":"5.3295510","Longitude":"-4.0216994","Name":"Avenue du Docteur Jamot"},{"Latitude":"7.4084416","Longitude":"-7.5512257","Name":"Avenue du Président Alassane Ouattara"},{"Latitude":"5.3952856","Longitude":"-3.9680816","Name":"Avenue du savoir"},{"Latitude":"5.3621953","Longitude":"-3.9972931","Name":"Avenue Émile Boga Doudou"},{"Latitude":"7.2696734","Longitude":"-2.9219064","Name":"Berekum - Dormaa Ahenkro Road"},{"Latitude":"8.0400373","Longitude":"-2.7964409","Name":"Bondoukou - Sampa"},{"Latitude":"5.3125026","Longitude":"-3.9919080","Name":"Boulevard Achalme"},{"Latitude":"9.4585549","Longitude":"-5.6357182","Name":"Boulevard Alassane Ouattara"},{"Latitude":"5.3401998","Longitude":"-4.0216533","Name":"Boulevard Angoulvant"},{"Latitude":"5.2924296","Longitude":"-3.9459643","Name":"Boulevard Antananarivo"},{"Latitude":"5.3005468","Longitude":"-3.9475719","Name":"Boulevard Antanarivo"},{"Latitude":"5.3576620","Longitude":"-3.9644055","Name":"Boulevard Arsène Usher Assouan"},{"Latitude":"5.3451539","Longitude":"-4.0793205","Name":"Boulevard Bel air"},{"Latitude":"5.3240484","Longitude":"-4.0169829","Name":"Boulevard Botreau Roussel"},{"Latitude":"5.3295671","Longitude":"-4.0239025","Name":"Boulevard Carde"},{"Latitude":"5.3251650","Longitude":"-4.0206568","Name":"Boulevard Clozel"},{"Latitude":"5.3437965","Longitude":"-4.0345445","Name":"Boulevard Felix Houphouët Boigny"},{"Latitude":"5.3744571","Longitude":"-3.9215504","Name":"Boulevard François Mitterrand"},{"Latitude":"5.2144031","Longitude":"-3.7314446","Name":"Boulevard Félix Houphouët Boigny"},{"Latitude":"5.3049342","Longitude":"-4.0091448","Name":"Boulevard Gbon Coulibaly"},{"Latitude":"5.3017814","Longitude":"-4.0080263","Name":"Boulevard Gon Coulibaly"},{"Latitude":"5.1971052","Longitude":"-3.7375266","Name":"Boulevard Gouverneur Angoulvant"},{"Latitude":"5.3295023","Longitude":"-4.0097308","Name":"Boulevard Hassan II"},{"Latitude":"4.7316923","Longitude":"-6.6277969","Name":"Boulevard Houphouet Boigny"},{"Latitude":"5.3532033","Longitude":"-4.0329384","Name":"Boulevard Jacob Willia"},{"Latitude":"5.3280030","Longitude":"-4.0048815","Name":"Boulevard Latrille"},{"Latitude":"5.1963272","Longitude":"-3.7321503","Name":"Boulevard Louis Alphonse Bonhoure"},{"Latitude":"5.3020658","Longitude":"-4.0004205","Name":"Boulevard Mamadou Konaté"},{"Latitude":"5.4470552","Longitude":"-4.0504959","Name":"Boulevard Mohamed VI"},{"Latitude":"5.2967063","Longitude":"-4.0030585","Name":"Boulevard Nanan Yamousso"},{"Latitude":"5.3337461","Longitude":"-4.0245944","Name":"Boulevard Nangui Abrogroua"},{"Latitude":"5.3473982","Longitude":"-4.0733121","Name":"Boulevard Principal / Rue O13"},{"Latitude":"5.3316936","Longitude":"-4.0227837","Name":"Boulevard Roumé"},{"Latitude":"5.3352027","Longitude":"-3.9982161","Name":"Boulevard Thérèse Houphouët-Boigny"},{"Latitude":"5.1952645","Longitude":"-3.7350629","Name":"Boulevard Treich-Laplène"},{"Latitude":"5.3081038","Longitude":"-4.0187091","Name":"Boulevard Valéry Giscard d'Estaing"},{"Latitude":"5.2985088","Longitude":"-4.0020516","Name":"Boulevard Valéry Giscard d’Estaing"},{"Latitude":"5.2022799","Longitude":"-4.4140417","Name":"Boulevard circulaire Henriette-Dagri-Diabaté"},{"Latitude":"5.3102347","Longitude":"-3.9879623","Name":"Boulevard d'Achalme"},{"Latitude":"5.3049021","Longitude":"-3.9914102","Name":"Boulevard d'Anjou"},{"Latitude":"5.2974675","Longitude":"-3.9786668","Name":"Boulevard de Brazzaville"},{"Latitude":"5.3404256","Longitude":"-4.0165248","Name":"Boulevard de France"},{"Latitude":"5.3616784","Longitude":"-3.9495742","Name":"Boulevard de France Prolongée"},{"Latitude":"5.3392878","Longitude":"-4.0194281","Name":"Boulevard de L'indénié"},{"Latitude":"5.3043137","Longitude":"-3.9884588","Name":"Boulevard de Lorraine"},{"Latitude":"5.2765276","Longitude":"-3.9665029","Name":"Boulevard de Marseille"},{"Latitude":"5.2595844","Longitude":"-3.9687654","Name":"Boulevard de Petit Bassam"},{"Latitude":"5.2692540","Longitude":"-4.0047214","Name":"Boulevard de Vridi"},{"Latitude":"5.2571264","Longitude":"-3.9353849","Name":"Boulevard de l'Aéroport"},{"Latitude":"5.3553433","Longitude":"-4.0324049","Name":"Boulevard de l'Ouest"},{"Latitude":"5.3459883","Longitude":"-4.0053832","Name":"Boulevard de l'Université"},{"Latitude":"5.2566949","Longitude":"-3.9335939","Name":"Boulevard de l'aéroport"},{"Latitude":"5.3091199","Longitude":"-4.0164183","Name":"Boulevard de la Fosse"},{"Latitude":"7.6812042","Longitude":"-5.0326661","Name":"Boulevard de la Mairie"},{"Latitude":"5.3355940","Longitude":"-4.0289730","Name":"Boulevard de la Paix"},{"Latitude":"5.3214797","Longitude":"-4.0196040","Name":"Boulevard de la République"},{"Latitude":"5.3360576","Longitude":"-4.0191945","Name":"Boulevard des Avodirés"},{"Latitude":"5.3459265","Longitude":"-4.0127342","Name":"Boulevard du 4 Novembre"},{"Latitude":"5.3084622","Longitude":"-4.0127776","Name":"Boulevard du 6 février"},{"Latitude":"5.2888791","Longitude":"-3.9674323","Name":"Boulevard du 7 Décembre"},{"Latitude":"5.2941810","Longitude":"-3.9549766","Name":"Boulevard du Caire"},{"Latitude":"5.3065661","Longitude":"-3.9460409","Name":"Boulevard du Cameroun"},{"Latitude":"5.2962655","Longitude":"-3.9932750","Name":"Boulevard du Canal"},{"Latitude":"5.3012515","Longitude":"-3.9886028","Name":"Boulevard du Gabon"},{"Latitude":"5.3150607","Longitude":"-4.0162774","Name":"Boulevard du Général de Gaulle"},{"Latitude":"5.2960691","Longitude":"-4.0121488","Name":"Boulevard du Port"},{"Latitude":"9.0042278","Longitude":"-3.1805367","Name":"Bouna - Koutouba"},{"Latitude":"8.8406454","Longitude":"-3.7708397","Name":"Bridge over Iringou"},{"Latitude":"5.3509232","Longitude":"-4.0204262","Name":"C28"},{"Latitude":"5.3514793","Longitude":"-4.0204277","Name":"C30"},{"Latitude":"5.3314187","Longitude":"-4.1088327","Name":"Cité Bracodi Rte Cité verte"},{"Latitude":"4.7489404","Longitude":"-6.6517416","Name":"Culdisac"},{"Latitude":"5.3536425","Longitude":"-3.9742687","Name":"D97"},{"Latitude":"6.6638723","Longitude":"-6.5067574","Name":"Daloa-Issia"},{"Latitude":"9.5757757","Longitude":"-7.5364307","Name":"Digue de Logbanasso"},{"Latitude":"6.0169000","Longitude":"-5.3110589","Name":"Divo-Hiré-Oumé"},{"Latitude":"5.9178827","Longitude":"-5.0828075","Name":"Divo-Tissalé"},{"Latitude":"8.2280205","Longitude":"-3.3404821","Name":"Don vagne"},{"Latitude":"9.4975747","Longitude":"-3.2073212","Name":"Doropo - Bouna"},{"Latitude":"6.7052744","Longitude":"-5.1734917","Name":"ECHANGEUR  GOUROMINANKRO"},{"Latitude":"5.3226390","Longitude":"-4.3700940","Name":"Entree du Lycee Leboutou de Dabou"},{"Latitude":"6.8901051","Longitude":"-5.2254456","Name":"Esplanade ESA"},{"Latitude":"6.1276192","Longitude":"-5.9438154","Name":"Gagnoa - Ouragahio"},{"Latitude":"6.3786612","Longitude":"-5.9564513","Name":"Gagnoa - Ouragahio - Sinfra"},{"Latitude":"6.0607309","Longitude":"-5.8149380","Name":"Gagnoa-Lakota"},{"Latitude":"5.0758394","Longitude":"-3.0234151","Name":"Half Assini – New Town Road"},{"Latitude":"5.2790371","Longitude":"-4.0066251","Name":"Impasse Lagunaire"},{"Latitude":"9.4813595","Longitude":"-5.6411624","Name":"Korhogo - Niellé"},{"Latitude":"8.3843192","Longitude":"-3.0872843","Name":"Koutouba - Bondoukou"},{"Latitude":"8.3663384","Longitude":"-4.4227079","Name":"Koutouba - Dabakala"},{"Latitude":"5.4029855","Longitude":"-3.9784808","Name":"L160"},{"Latitude":"5.3231295","Longitude":"-4.3571272","Name":"La Côtière"},{"Latitude":"5.5048095","Longitude":"-4.0802099","Name":"La rue Jérusalem"},{"Latitude":"5.8426024","Longitude":"-5.4702151","Name":"Lakota-Divo"},{"Latitude":"7.2657259","Longitude":"-8.1554828","Name":"Lola - Danané"},{"Latitude":"7.3311147","Longitude":"-7.6733787","Name":"Main Street"},{"Latitude":"5.4123385","Longitude":"-4.0001674","Name":"N 90"},{"Latitude":"5.4812918","Longitude":"-3.7458444","Name":"National B 104 Route d'Alépé"},{"Latitude":"5.4206213","Longitude":"-4.0103102","Name":"O 169"},{"Latitude":"5.4116360","Longitude":"-4.0193724","Name":"O 22"},{"Latitude":"5.4201235","Longitude":"-4.0164767","Name":"O106"},{"Latitude":"5.3187130","Longitude":"-4.0631112","Name":"O76"},{"Latitude":"5.3396191","Longitude":"-3.9215048","Name":"Oribat, Rue Camellia"},{"Latitude":"5.3401295","Longitude":"-3.9209857","Name":"Oribat, Rue des lys"},{"Latitude":"6.2200951","Longitude":"-5.6829816","Name":"Oumé - Gagnoa"},{"Latitude":"6.2821679","Longitude":"-5.3514925","Name":"Oumé-Divo"},{"Latitude":"6.4310088","Longitude":"-5.5752799","Name":"Oumé-Sinfra"},{"Latitude":"5.3519638","Longitude":"-4.0672126","Name":"P178"},{"Latitude":"9.0247047","Longitude":"-3.3891978","Name":"Piste Principale Bania-Gawi"},{"Latitude":"5.2227394","Longitude":"-5.1825308","Name":"Piste d'accès à Tibériade"},{"Latitude":"5.2312440","Longitude":"-5.1839899","Name":"Piste de Liboli"},{"Latitude":"7.7100321","Longitude":"-5.0386088","Name":"Place de la Cité de l'Air"},{"Latitude":"5.2067751","Longitude":"-3.7353786","Name":"Place de la Paix"},{"Latitude":"5.3162733","Longitude":"-4.0196456","Name":"Place de la République"},{"Latitude":"7.6829183","Longitude":"-5.0194884","Name":"Place de la paix"},{"Latitude":"7.6891633","Longitude":"-5.0231358","Name":"Pont Djibo"},{"Latitude":"5.2777004","Longitude":"-4.2375583","Name":"Pont Philippe-Grégoire-Yacé"},{"Latitude":"7.9389530","Longitude":"-3.9403287","Name":"Pont de Bassawa-Sérébou"},{"Latitude":"7.8500900","Longitude":"-5.4789577","Name":"Pont de Bodokro"},{"Latitude":"7.6967315","Longitude":"-5.6773554","Name":"Pont de Béoumi"},{"Latitude":"8.8013087","Longitude":"-3.7718815","Name":"Pont de Kongo"},{"Latitude":"5.2005691","Longitude":"-3.7366741","Name":"Pont de la Victoire"},{"Latitude":"5.3063505","Longitude":"-3.9640482","Name":"Pont sans fil Aliodan"},{"Latitude":"6.7361347","Longitude":"-3.4873867","Name":"Préfet"},{"Latitude":"5.4271816","Longitude":"-4.0198602","Name":"Q 1"},{"Latitude":"5.4327275","Longitude":"-4.0131140","Name":"Q 112"},{"Latitude":"5.5342084","Longitude":"-3.9967965","Name":"Q 125"},{"Latitude":"5.4353396","Longitude":"-4.0069932","Name":"Q 134"},{"Latitude":"5.4382507","Longitude":"-4.0165886","Name":"Q 180"},{"Latitude":"5.4265854","Longitude":"-4.0134619","Name":"Q 40"},{"Latitude":"5.4294770","Longitude":"-4.0107095","Name":"Q 58"},{"Latitude":"6.7153051","Longitude":"-5.1720984","Name":"RUE PRINCESSE DE GOUROMINANKRO"},{"Latitude":"5.3581847","Longitude":"-3.9647635","Name":"Rond-Point Riviéra 3"},{"Latitude":"5.3564436","Longitude":"-3.9674234","Name":"Rond-Point Sainte Famille"},{"Latitude":"5.4203214","Longitude":"-4.0182969","Name":"Rond-Point de la Mairie"},{"Latitude":"5.3643262","Longitude":"-3.9603001","Name":"Rond-Point de la Palmeraie"},{"Latitude":"5.4116329","Longitude":"-4.0156201","Name":"Rond-Point du Banco"},{"Latitude":"5.2950030","Longitude":"-4.0035379","Name":"Rond-Point du CHU de Treichville"},{"Latitude":"6.8244243","Longitude":"-5.2738919","Name":"Rond-Point du Château d’Eau"},{"Latitude":"7.6898272","Longitude":"-7.5217145","Name":"Route"},{"Latitude":"6.3805191","Longitude":"-5.4219729","Name":"Route AEECI"},{"Latitude":"5.4383362","Longitude":"-4.0142302","Name":"Route Akéikoi"},{"Latitude":"5.1519789","Longitude":"-3.3901402","Name":"Route Assouindé-Assinie-Mafia"},{"Latitude":"5.3416587","Longitude":"-4.0183339","Name":"Route C37"},{"Latitude":"6.3613611","Longitude":"-5.4253846","Name":"Route De Kpatabonou"},{"Latitude":"5.3567000","Longitude":"-3.9405273","Name":"Route G 11"},{"Latitude":"5.3585146","Longitude":"-3.9503547","Name":"Route G50"},{"Latitude":"5.3612366","Longitude":"-3.9589568","Name":"Route G50/Rue E166"},{"Latitude":"6.6171300","Longitude":"-6.8653225","Name":"Route Guéssabo-Issa"},{"Latitude":"5.3469987","Longitude":"-4.0946057","Name":"Route Hamza"},{"Latitude":"6.6474852","Longitude":"-3.2537255","Name":"Route Internationale"},{"Latitude":"6.3817054","Longitude":"-5.4207479","Name":"Route Mairie"},{"Latitude":"7.1111026","Longitude":"-7.5525561","Name":"Route Man-Duékoué"},{"Latitude":"5.3420294","Longitude":"-3.9846427","Name":"Route Mosquée ENS"},{"Latitude":"5.3493671","Longitude":"-4.0874602","Name":"Route Principale Port Bouet 2"},{"Latitude":"6.5349055","Longitude":"-5.1423362","Name":"Route Principale d'Assinzé"},{"Latitude":"5.6943015","Longitude":"-6.2779194","Name":"Route SIPEF-CI"},{"Latitude":"5.3403270","Longitude":"-3.9861355","Name":"Route Sciences Education"},{"Latitude":"6.3823131","Longitude":"-5.4082944","Name":"Route Socroa"},{"Latitude":"6.7670175","Longitude":"-5.1127544","Name":"Route Toumodi-Abli"},{"Latitude":"5.3275207","Longitude":"-3.9164248","Name":"Route d'Abatta"},{"Latitude":"5.4150374","Longitude":"-3.9973296","Name":"Route d'Abobo Baoulé"},{"Latitude":"5.1683687","Longitude":"-3.5303876","Name":"Route d'Abokro"},{"Latitude":"5.4150219","Longitude":"-3.9942228","Name":"Route d'Alépé"},{"Latitude":"5.4796802","Longitude":"-4.0451867","Name":"Route d'Anyama-Adjame"},{"Latitude":"5.2039788","Longitude":"-3.7843072","Name":"Route d'Azuretti"},{"Latitude":"7.6839350","Longitude":"-5.0231015","Name":"Route de Béoumi"},{"Latitude":"5.3589293","Longitude":"-4.0454648","Name":"Route de Dabou"},{"Latitude":"6.8210094","Longitude":"-5.2945105","Name":"Route de Daloa"},{"Latitude":"5.6370180","Longitude":"-3.7713530","Name":"Route de Danguira"},{"Latitude":"5.3489365","Longitude":"-3.8626849","Name":"Route de M'batto Bouaké"},{"Latitude":"6.8458099","Longitude":"-5.2582833","Name":"Route de Mami Adjoua"},{"Latitude":"6.8142821","Longitude":"-5.2917400","Name":"Route de Saint-France"},{"Latitude":"5.7882643","Longitude":"-6.6046473","Name":"Route de San-Pedro"},{"Latitude":"4.7706360","Longitude":"-6.6713737","Name":"Route de Tabou"},{"Latitude":"7.2990164","Longitude":"-6.4842457","Name":"Route de Vavoua"},{"Latitude":"7.7102880","Longitude":"-5.0385088","Name":"Route de l'Aéroport"},{"Latitude":"4.7554477","Longitude":"-6.6499861","Name":"Route de l'aéroport"},{"Latitude":"5.1952128","Longitude":"-3.6919211","Name":"Route de l'embouchure"},{"Latitude":"5.3469009","Longitude":"-3.9728438","Name":"Route de la Maternité d'Anono Village"},{"Latitude":"4.7537878","Longitude":"-6.6412957","Name":"Route de la Zone"},{"Latitude":"5.3727941","Longitude":"-4.0521768","Name":"Route de l’inspecteur principal Martineau"},{"Latitude":"5.3856728","Longitude":"-4.0766385","Name":"Route de prison, voie de Yopougon-N'Dotré"},{"Latitude":"4.7475124","Longitude":"-6.6286147","Name":"Route des Grumiers"},{"Latitude":"5.3802526","Longitude":"-4.0624040","Name":"Route des avodirés"},{"Latitude":"7.6815643","Longitude":"-5.0373708","Name":"Route du Banco"},{"Latitude":"4.7455379","Longitude":"-6.6328905","Name":"Route du Port"},{"Latitude":"5.4028677","Longitude":"-4.0064765","Name":"Route du Zoo"},{"Latitude":"5.3644062","Longitude":"-4.0162880","Name":"Route du Zoo / F 93"},{"Latitude":"5.3728729","Longitude":"-4.0116432","Name":"Route du Zoo / G 11"},{"Latitude":"5.3738906","Longitude":"-4.0500624","Name":"Route du gouverneur Reste"},{"Latitude":"5.3015764","Longitude":"-3.9909956","Name":"Route parallèle de Boulevard Valéry Giscard d’Estaing"},{"Latitude":"5.4682423","Longitude":"-4.1860203","Name":"Route principale"},{"Latitude":"5.4145941","Longitude":"-6.5625492","Name":"Route secondaire"},{"Latitude":"5.3872027","Longitude":"-3.9683865","Name":"Ru Jasmin"},{"Latitude":"5.3077099","Longitude":"-4.0134567","Name":"Rue 10"},{"Latitude":"5.4015599","Longitude":"-3.9926433","Name":"Rue 105"},{"Latitude":"5.3078668","Longitude":"-4.0130431","Name":"Rue 11"},{"Latitude":"5.3028440","Longitude":"-4.0107820","Name":"Rue 12"},{"Latitude":"5.3072805","Longitude":"-4.0119366","Name":"Rue 13"},{"Latitude":"5.3070667","Longitude":"-4.0113177","Name":"Rue 14"},{"Latitude":"5.4426337","Longitude":"-4.0291420","Name":"Rue 144"},{"Latitude":"5.3093292","Longitude":"-4.0116540","Name":"Rue 15"},{"Latitude":"5.3097825","Longitude":"-4.0103814","Name":"Rue 18"},{"Latitude":"7.6811469","Longitude":"-5.0189123","Name":"Rue 19"},{"Latitude":"5.3013815","Longitude":"-4.0064418","Name":"Rue 20"},{"Latitude":"5.3055491","Longitude":"-4.0074389","Name":"Rue 21"},{"Latitude":"7.6795633","Longitude":"-5.0180731","Name":"Rue 22"},{"Latitude":"5.3116357","Longitude":"-4.0086713","Name":"Rue 23"},{"Latitude":"6.9097478","Longitude":"-5.3532198","Name":"Rue 2359"},{"Latitude":"6.8838374","Longitude":"-5.3752166","Name":"Rue 2372"},{"Latitude":"5.3019871","Longitude":"-4.0047470","Name":"Rue 24"},{"Latitude":"5.3104209","Longitude":"-4.0072593","Name":"Rue 25"},{"Latitude":"7.6779487","Longitude":"-5.0172175","Name":"Rue 26"},{"Latitude":"5.3400685","Longitude":"-4.0252600","Name":"Rue 27"},{"Latitude":"7.6770823","Longitude":"-5.0167584","Name":"Rue 28"},{"Latitude":"7.6766848","Longitude":"-5.0165477","Name":"Rue 29"},{"Latitude":"7.6762671","Longitude":"-5.0163264","Name":"Rue 30"},{"Latitude":"5.3476537","Longitude":"-3.9772616","Name":"Rue 54"},{"Latitude":"5.4369530","Longitude":"-4.0350817","Name":"Rue 6"},{"Latitude":"5.3081213","Longitude":"-4.0150483","Name":"Rue 7"},{"Latitude":"5.3086823","Longitude":"-4.0147874","Name":"Rue 8"},{"Latitude":"5.3045893","Longitude":"-4.0128457","Name":"Rue 9"},{"Latitude":"4.6569937","Longitude":"-6.9387406","Name":"Rue 970 / Rouet de Grand Béréby"},{"Latitude":"5.3166776","Longitude":"-4.0175318","Name":"Rue A 31"},{"Latitude":"5.3175198","Longitude":"-4.0164455","Name":"Rue A 41"},{"Latitude":"5.3177807","Longitude":"-4.0161089","Name":"Rue A 43"},{"Latitude":"5.3180548","Longitude":"-4.0157553","Name":"Rue A 47"},{"Latitude":"5.3183300","Longitude":"-4.0154003","Name":"Rue A 49"},{"Latitude":"5.3245041","Longitude":"-4.0221134","Name":"Rue A 50"},{"Latitude":"5.3258266","Longitude":"-4.0233871","Name":"Rue A 50 / Avenue Marchand"},{"Latitude":"5.3209603","Longitude":"-4.0225035","Name":"Rue A 7"},{"Latitude":"5.2874104","Longitude":"-4.0085979","Name":"Rue A10"},{"Latitude":"5.3016441","Longitude":"-4.0127663","Name":"Rue A11"},{"Latitude":"5.3240205","Longitude":"-4.0046125","Name":"Rue A13"},{"Latitude":"5.2880479","Longitude":"-4.0091098","Name":"Rue A14"},{"Latitude":"5.3236984","Longitude":"-4.0038266","Name":"Rue A15"},{"Latitude":"5.2875208","Longitude":"-4.0057202","Name":"Rue A16"},{"Latitude":"5.2895046","Longitude":"-4.0084782","Name":"Rue A18"},{"Latitude":"5.3232230","Longitude":"-4.0041107","Name":"Rue A2"},{"Latitude":"5.3290924","Longitude":"-4.0002224","Name":"Rue A21"},{"Latitude":"5.3304027","Longitude":"-4.0009659","Name":"Rue A24"},{"Latitude":"5.3288485","Longitude":"-3.9992714","Name":"Rue A25"},{"Latitude":"5.3313077","Longitude":"-4.0014216","Name":"Rue A26"},{"Latitude":"5.2886998","Longitude":"-4.0096182","Name":"Rue A27"},{"Latitude":"5.3312382","Longitude":"-3.9995733","Name":"Rue A28"},{"Latitude":"5.2880479","Longitude":"-4.0091098","Name":"Rue A29"},{"Latitude":"5.3314439","Longitude":"-3.9977708","Name":"Rue A30"},{"Latitude":"5.3231549","Longitude":"-3.9999602","Name":"Rue A31"},{"Latitude":"5.3319306","Longitude":"-4.0002987","Name":"Rue A32"},{"Latitude":"5.3244485","Longitude":"-3.9995573","Name":"Rue A33"},{"Latitude":"5.3321569","Longitude":"-4.0041733","Name":"Rue A34"},{"Latitude":"5.3242054","Longitude":"-3.9989568","Name":"Rue A35"},{"Latitude":"5.3324220","Longitude":"-4.0012943","Name":"Rue A36"},{"Latitude":"5.2765181","Longitude":"-4.0066474","Name":"Rue A37"},{"Latitude":"5.3327757","Longitude":"-4.0012644","Name":"Rue A38"},{"Latitude":"5.3246036","Longitude":"-3.9980531","Name":"Rue A39"},{"Latitude":"5.3236953","Longitude":"-4.0001759","Name":"Rue A4"},{"Latitude":"5.3321442","Longitude":"-3.9982389","Name":"Rue A40"},{"Latitude":"5.2832734","Longitude":"-4.0046950","Name":"Rue A41"},{"Latitude":"5.3329474","Longitude":"-3.9998938","Name":"Rue A44"},{"Latitude":"5.3331879","Longitude":"-4.0031242","Name":"Rue A46"},{"Latitude":"5.2973802","Longitude":"-4.0013138","Name":"Rue A47"},{"Latitude":"5.3340208","Longitude":"-4.0012971","Name":"Rue A48"},{"Latitude":"5.3258934","Longitude":"-3.9967462","Name":"Rue A49"},{"Latitude":"5.3302298","Longitude":"-3.9956280","Name":"Rue A52"},{"Latitude":"5.3301126","Longitude":"-3.9927310","Name":"Rue A56"},{"Latitude":"5.3310729","Longitude":"-3.9912503","Name":"Rue A57"},{"Latitude":"5.3190611","Longitude":"-4.0128322","Name":"Rue A57 Montigny"},{"Latitude":"5.3240215","Longitude":"-4.0045072","Name":"Rue A6"},{"Latitude":"5.3336149","Longitude":"-4.0037866","Name":"Rue A7"},{"Latitude":"5.3241250","Longitude":"-4.0003491","Name":"Rue A8"},{"Latitude":"5.3357364","Longitude":"-4.0023233","Name":"Rue A9"},{"Latitude":"5.3606783","Longitude":"-3.8904074","Name":"Rue Adjê Pêssi"},{"Latitude":"5.3698235","Longitude":"-3.9236810","Name":"Rue Adopo Alain"},{"Latitude":"5.3627004","Longitude":"-4.0007819","Name":"Rue Ahmadou Kourouma"},{"Latitude":"5.3721073","Longitude":"-3.9239516","Name":"Rue Ahoussi Arthur"},{"Latitude":"5.2928871","Longitude":"-3.9823104","Name":"Rue Alex Fleming"},{"Latitude":"5.3196040","Longitude":"-4.0165009","Name":"Rue Alphonse Daudet"},{"Latitude":"5.3334429","Longitude":"-3.9424152","Name":"Rue Ambassade De Chine"},{"Latitude":"6.3752799","Longitude":"-5.4201865","Name":"Rue Annexe Gatazra"},{"Latitude":"6.3773613","Longitude":"-5.4168450","Name":"Rue Annexe Prefecture"},{"Latitude":"5.3294881","Longitude":"-3.9386626","Name":"Rue Antenne/Rue F33"},{"Latitude":"5.3517071","Longitude":"-3.9730745","Name":"Rue Apha Blondy"},{"Latitude":"5.3453264","Longitude":"-3.9483207","Name":"Rue Ardin"},{"Latitude":"7.6710544","Longitude":"-5.0265331","Name":"Rue Assan Kouadio"},{"Latitude":"5.3694774","Longitude":"-3.9249904","Name":"Rue Assi Yapo Martial"},{"Latitude":"5.2957125","Longitude":"-3.9513953","Name":"Rue Augustin"},{"Latitude":"5.3003302","Longitude":"-4.0077732","Name":"Rue B 24"},{"Latitude":"5.3056995","Longitude":"-4.0164621","Name":"Rue B1"},{"Latitude":"5.3011077","Longitude":"-3.9981236","Name":"Rue B10"},{"Latitude":"5.3394180","Longitude":"-4.0126788","Name":"Rue B11"},{"Latitude":"5.3016114","Longitude":"-3.9964484","Name":"Rue B12"},{"Latitude":"5.3392013","Longitude":"-4.0121186","Name":"Rue B13 Canebière"},{"Latitude":"5.3022053","Longitude":"-3.9963255","Name":"Rue B14"},{"Latitude":"5.3450013","Longitude":"-4.0140889","Name":"Rue B15"},{"Latitude":"5.3025699","Longitude":"-3.9965403","Name":"Rue B16"},{"Latitude":"5.3430919","Longitude":"-4.0113934","Name":"Rue B17"},{"Latitude":"5.3030293","Longitude":"-3.9965632","Name":"Rue B18"},{"Latitude":"5.3435643","Longitude":"-4.0110156","Name":"Rue B19"},{"Latitude":"5.3399065","Longitude":"-4.0034320","Name":"Rue B20"},{"Latitude":"5.3406666","Longitude":"-4.0047214","Name":"Rue B22"},{"Latitude":"5.3541516","Longitude":"-4.0032788","Name":"Rue B23"},{"Latitude":"5.3004520","Longitude":"-4.0074429","Name":"Rue B24"},{"Latitude":"5.3419746","Longitude":"-4.0087109","Name":"Rue B26"},{"Latitude":"5.3472617","Longitude":"-4.0084025","Name":"Rue B27"},{"Latitude":"5.3434715","Longitude":"-4.0083465","Name":"Rue B28"},{"Latitude":"5.3400872","Longitude":"-4.0257102","Name":"Rue B29"},{"Latitude":"5.3428125","Longitude":"-4.0289014","Name":"Rue B3"},{"Latitude":"5.3408937","Longitude":"-4.0144971","Name":"Rue B30"},{"Latitude":"5.3455899","Longitude":"-4.0065618","Name":"Rue B31"},{"Latitude":"5.3426737","Longitude":"-4.0278371","Name":"Rue B32"},{"Latitude":"5.3441546","Longitude":"-4.0075969","Name":"Rue B33"},{"Latitude":"5.3447740","Longitude":"-4.0054983","Name":"Rue B34"},{"Latitude":"5.3395986","Longitude":"-4.0243372","Name":"Rue B35"},{"Latitude":"5.3453075","Longitude":"-4.0117693","Name":"Rue B36"},{"Latitude":"5.3052500","Longitude":"-4.0082784","Name":"Rue B37"},{"Latitude":"5.2996241","Longitude":"-4.0022307","Name":"Rue B4"},{"Latitude":"5.3039424","Longitude":"-4.0019932","Name":"Rue B40"},{"Latitude":"5.3380140","Longitude":"-4.0082733","Name":"Rue B41"},{"Latitude":"5.3477076","Longitude":"-4.0083937","Name":"Rue B42"},{"Latitude":"5.3048767","Longitude":"-4.0023280","Name":"Rue B46"},{"Latitude":"5.3463972","Longitude":"-4.0263825","Name":"Rue B48"},{"Latitude":"5.3476769","Longitude":"-4.0044294","Name":"Rue B49"},{"Latitude":"5.3433971","Longitude":"-4.0144869","Name":"Rue B5"},{"Latitude":"5.3496771","Longitude":"-4.0059737","Name":"Rue B50"},{"Latitude":"5.3007644","Longitude":"-4.0039982","Name":"Rue B51"},{"Latitude":"5.3467556","Longitude":"-4.0041854","Name":"Rue B52"},{"Latitude":"5.3453587","Longitude":"-4.0043484","Name":"Rue B53"},{"Latitude":"5.3482916","Longitude":"-4.0262521","Name":"Rue B54"},{"Latitude":"5.3531294","Longitude":"-4.0050671","Name":"Rue B56"},{"Latitude":"5.3027690","Longitude":"-4.0025431","Name":"Rue B59"},{"Latitude":"5.3061488","Longitude":"-4.0027834","Name":"Rue B60"},{"Latitude":"5.3067958","Longitude":"-4.0039602","Name":"Rue B61"},{"Latitude":"5.3008466","Longitude":"-4.0006877","Name":"Rue B63"},{"Latitude":"5.3061488","Longitude":"-4.0027834","Name":"Rue B67"},{"Latitude":"5.3042562","Longitude":"-3.9997110","Name":"Rue B69"},{"Latitude":"5.3425281","Longitude":"-4.0138976","Name":"Rue B7"},{"Latitude":"5.3052336","Longitude":"-3.9997867","Name":"Rue B71"},{"Latitude":"5.3032968","Longitude":"-3.9983526","Name":"Rue B73"},{"Latitude":"5.3026380","Longitude":"-3.9972961","Name":"Rue B77"},{"Latitude":"5.3020629","Longitude":"-3.9962279","Name":"Rue B79"},{"Latitude":"5.3010361","Longitude":"-3.9989821","Name":"Rue B8"},{"Latitude":"5.3057358","Longitude":"-3.9983314","Name":"Rue B81"},{"Latitude":"5.3050823","Longitude":"-3.9964478","Name":"Rue B83"},{"Latitude":"5.3473775","Longitude":"-4.0078224","Name":"Rue B9"},{"Latitude":"5.3885112","Longitude":"-4.0034596","Name":"Rue Bandama"},{"Latitude":"6.7277264","Longitude":"-3.4978847","Name":"Rue Baoulekro"},{"Latitude":"5.2839058","Longitude":"-3.9707992","Name":"Rue Benjamin Franklin"},{"Latitude":"7.6822701","Longitude":"-5.0263370","Name":"Rue Bernard Dadié"},{"Latitude":"5.1949772","Longitude":"-3.7319968","Name":"Rue Besson"},{"Latitude":"5.3449615","Longitude":"-3.9467561","Name":"Rue Bolon"},{"Latitude":"5.3381295","Longitude":"-3.9998455","Name":"Rue Booker Washington"},{"Latitude":"5.3699363","Longitude":"-3.9232287","Name":"Rue Bouadi Beda Paul"},{"Latitude":"5.3703512","Longitude":"-3.9798223","Name":"Rue Bougainvilliers"},{"Latitude":"5.1957859","Longitude":"-3.7313313","Name":"Rue Bouët"},{"Latitude":"5.1957903","Longitude":"-3.7303989","Name":"Rue Brertignarc"},{"Latitude":"5.3361267","Longitude":"-3.9903894","Name":"Rue C 49"},{"Latitude":"5.3461804","Longitude":"-3.9869320","Name":"Rue C 55"},{"Latitude":"5.3467329","Longitude":"-4.0240680","Name":"Rue C1"},{"Latitude":"5.3451733","Longitude":"-4.0222353","Name":"Rue C10"},{"Latitude":"5.3506503","Longitude":"-3.9991464","Name":"Rue C11"},{"Latitude":"5.3466183","Longitude":"-4.0227383","Name":"Rue C12"},{"Latitude":"5.3493073","Longitude":"-4.0194967","Name":"Rue C13"},{"Latitude":"5.3468586","Longitude":"-4.0212096","Name":"Rue C14"},{"Latitude":"5.3438861","Longitude":"-3.9979291","Name":"Rue C15"},{"Latitude":"5.3474852","Longitude":"-4.0210177","Name":"Rue C16"},{"Latitude":"5.3456055","Longitude":"-4.0195346","Name":"Rue C17"},{"Latitude":"5.3385109","Longitude":"-3.9891268","Name":"Rue C18"},{"Latitude":"5.3439282","Longitude":"-3.9970967","Name":"Rue C19"},{"Latitude":"5.3488484","Longitude":"-4.0205864","Name":"Rue C20"},{"Latitude":"5.3453073","Longitude":"-3.9980620","Name":"Rue C21"},{"Latitude":"5.3498121","Longitude":"-4.0223517","Name":"Rue C22"},{"Latitude":"5.3618747","Longitude":"-3.9788308","Name":"Rue C23"},{"Latitude":"5.3428251","Longitude":"-3.9977555","Name":"Rue C24"},{"Latitude":"5.3512659","Longitude":"-4.0235855","Name":"Rue C26"},{"Latitude":"5.3377638","Longitude":"-3.9945938","Name":"Rue C27"},{"Latitude":"5.3509083","Longitude":"-4.0199420","Name":"Rue C28"},{"Latitude":"5.3366882","Longitude":"-3.9938797","Name":"Rue C29"},{"Latitude":"5.3118813","Longitude":"-4.0050388","Name":"Rue C3"},{"Latitude":"5.3384809","Longitude":"-3.9928222","Name":"Rue C31"},{"Latitude":"5.3524922","Longitude":"-4.0226233","Name":"Rue C32"},{"Latitude":"5.3524266","Longitude":"-3.9942508","Name":"Rue C33"},{"Latitude":"5.3524999","Longitude":"-4.0199178","Name":"Rue C34"},{"Latitude":"5.3533256","Longitude":"-3.9936958","Name":"Rue C35"},{"Latitude":"5.3532142","Longitude":"-4.0199219","Name":"Rue C36"},{"Latitude":"5.3517293","Longitude":"-3.9926926","Name":"Rue C37"},{"Latitude":"9.4465062","Longitude":"-5.6285423","Name":"Rue C38"},{"Latitude":"5.3518155","Longitude":"-3.9919323","Name":"Rue C39"},{"Latitude":"5.3430179","Longitude":"-4.0216346","Name":"Rue C4"},{"Latitude":"5.3478998","Longitude":"-3.9959824","Name":"Rue C40"},{"Latitude":"5.3463921","Longitude":"-3.9927697","Name":"Rue C41"},{"Latitude":"5.3485721","Longitude":"-3.9974622","Name":"Rue C42"},{"Latitude":"5.3479365","Longitude":"-3.9914726","Name":"Rue C43"},{"Latitude":"5.3486826","Longitude":"-3.9956194","Name":"Rue C44"},{"Latitude":"5.3458616","Longitude":"-3.9887251","Name":"Rue C47"},{"Latitude":"5.3503167","Longitude":"-3.9869227","Name":"Rue C48"},{"Latitude":"5.3128717","Longitude":"-4.0051765","Name":"Rue C5"},{"Latitude":"5.3525204","Longitude":"-3.9784434","Name":"Rue C50/D112"},{"Latitude":"5.3404658","Longitude":"-3.9880358","Name":"Rue C51 Mosquée Ibn Baz"},{"Latitude":"5.3500600","Longitude":"-3.9925016","Name":"Rue C52"},{"Latitude":"5.3518155","Longitude":"-3.9919323","Name":"Rue C56"},{"Latitude":"5.3511659","Longitude":"-3.9978169","Name":"Rue C58"},{"Latitude":"5.3360176","Longitude":"-3.9918514","Name":"Rue C6"},{"Latitude":"5.3520042","Longitude":"-3.9980247","Name":"Rue C60"},{"Latitude":"5.3525965","Longitude":"-3.9927878","Name":"Rue C62"},{"Latitude":"5.3534191","Longitude":"-3.9928814","Name":"Rue C64"},{"Latitude":"5.3431206","Longitude":"-4.0224764","Name":"Rue C7"},{"Latitude":"5.3375956","Longitude":"-3.9972197","Name":"Rue C8"},{"Latitude":"5.3462196","Longitude":"-4.0214053","Name":"Rue C9"},{"Latitude":"6.7311913","Longitude":"-3.4895790","Name":"Rue CIE"},{"Latitude":"5.3081014","Longitude":"-3.9747931","Name":"Rue Campala"},{"Latitude":"5.3834491","Longitude":"-3.9671032","Name":"Rue Camélia"},{"Latitude":"5.1970845","Longitude":"-3.7346394","Name":"Rue Capitaine Marchand"},{"Latitude":"5.3067348","Longitude":"-3.9395704","Name":"Rue Cardinal Lavigerie"},{"Latitude":"5.3682697","Longitude":"-3.9797197","Name":"Rue Cavally"},{"Latitude":"5.3185951","Longitude":"-4.0135615","Name":"Rue Chardy"},{"Latitude":"7.6711127","Longitude":"-5.0244006","Name":"Rue Charles Gnahoré"},{"Latitude":"5.3444800","Longitude":"-3.9467188","Name":"Rue Cimboa"},{"Latitude":"5.3239218","Longitude":"-4.1066417","Name":"Rue Cité Caféier"},{"Latitude":"5.1949103","Longitude":"-3.7317400","Name":"Rue Cité Policière"},{"Latitude":"6.3759676","Longitude":"-5.4241106","Name":"Rue Cité Soweto- Cité Emeuraude"},{"Latitude":"5.3312694","Longitude":"-4.1074199","Name":"Rue Cité Verte"},{"Latitude":"5.2957215","Longitude":"-3.9914312","Name":"Rue Clément Ader"},{"Latitude":"6.3775911","Longitude":"-5.4180254","Name":"Rue College Catholique"},{"Latitude":"5.3200363","Longitude":"-4.0188210","Name":"Rue Colomb"},{"Latitude":"5.1945460","Longitude":"-3.7294913","Name":"Rue Commandant Pineau"},{"Latitude":"5.3880485","Longitude":"-4.0034379","Name":"Rue Comoé"},{"Latitude":"5.3094402","Longitude":"-3.9728231","Name":"Rue Crackess"},{"Latitude":"6.3848400","Longitude":"-5.4191592","Name":"Rue Côcô"},{"Latitude":"5.3449169","Longitude":"-3.9813718","Name":"Rue D1"},{"Latitude":"5.3348957","Longitude":"-3.9820122","Name":"Rue D10"},{"Latitude":"5.3497056","Longitude":"-3.9696429","Name":"Rue D100"},{"Latitude":"5.3543346","Longitude":"-3.9723414","Name":"Rue D101"},{"Latitude":"5.3502594","Longitude":"-3.9771981","Name":"Rue D102"},{"Latitude":"5.3543138","Longitude":"-3.9718537","Name":"Rue D103"},{"Latitude":"5.3543541","Longitude":"-3.9713632","Name":"Rue D105"},{"Latitude":"5.3525786","Longitude":"-3.9715196","Name":"Rue D106"},{"Latitude":"5.3543150","Longitude":"-3.9708665","Name":"Rue D107"},{"Latitude":"5.3523614","Longitude":"-3.9737417","Name":"Rue D108"},{"Latitude":"5.3544656","Longitude":"-3.9703926","Name":"Rue D109"},{"Latitude":"5.3090778","Longitude":"-3.9928782","Name":"Rue D11"},{"Latitude":"5.3526963","Longitude":"-3.9742687","Name":"Rue D110"},{"Latitude":"5.3548913","Longitude":"-3.9698423","Name":"Rue D111"},{"Latitude":"5.3518014","Longitude":"-3.9811351","Name":"Rue D114"},{"Latitude":"5.3543138","Longitude":"-3.9718537","Name":"Rue D118"},{"Latitude":"5.3105492","Longitude":"-3.9925094","Name":"Rue D12"},{"Latitude":"5.3544655","Longitude":"-3.9708658","Name":"Rue D120"},{"Latitude":"5.3511464","Longitude":"-3.9808130","Name":"Rue D13"},{"Latitude":"5.3354473","Longitude":"-3.9812264","Name":"Rue D14"},{"Latitude":"5.3512457","Longitude":"-3.9807018","Name":"Rue D15"},{"Latitude":"5.3348774","Longitude":"-3.9805646","Name":"Rue D16"},{"Latitude":"5.3488968","Longitude":"-3.9785737","Name":"Rue D17"},{"Latitude":"5.3367726","Longitude":"-3.9814080","Name":"Rue D18"},{"Latitude":"5.3506657","Longitude":"-3.9793412","Name":"Rue D19"},{"Latitude":"5.3289348","Longitude":"-3.9792395","Name":"Rue D2"},{"Latitude":"5.3355155","Longitude":"-3.9795620","Name":"Rue D20"},{"Latitude":"5.3103340","Longitude":"-3.9903688","Name":"Rue D21"},{"Latitude":"5.3339487","Longitude":"-3.9775357","Name":"Rue D22"},{"Latitude":"5.3385056","Longitude":"-3.9785229","Name":"Rue D23"},{"Latitude":"5.3370239","Longitude":"-3.9798889","Name":"Rue D24"},{"Latitude":"5.3163212","Longitude":"-3.9938408","Name":"Rue D25"},{"Latitude":"5.3348922","Longitude":"-3.9790692","Name":"Rue D27"},{"Latitude":"5.3404788","Longitude":"-3.9776524","Name":"Rue D28"},{"Latitude":"5.3512115","Longitude":"-3.9786863","Name":"Rue D29"},{"Latitude":"5.3596501","Longitude":"-4.0273093","Name":"Rue D3"},{"Latitude":"5.3354284","Longitude":"-3.9730355","Name":"Rue D30"},{"Latitude":"5.3473461","Longitude":"-3.9761564","Name":"Rue D31"},{"Latitude":"5.3364882","Longitude":"-3.9720358","Name":"Rue D32"},{"Latitude":"5.3533783","Longitude":"-3.9769354","Name":"Rue D33"},{"Latitude":"5.3382939","Longitude":"-3.9693280","Name":"Rue D34"},{"Latitude":"5.3329381","Longitude":"-3.9792971","Name":"Rue D35"},{"Latitude":"5.3402485","Longitude":"-3.9798500","Name":"Rue D36"},{"Latitude":"5.3298504","Longitude":"-3.9786589","Name":"Rue D37"},{"Latitude":"5.3390912","Longitude":"-3.9745487","Name":"Rue D38"},{"Latitude":"5.3297832","Longitude":"-3.9756440","Name":"Rue D39"},{"Latitude":"5.3320512","Longitude":"-3.9824382","Name":"Rue D4"},{"Latitude":"5.3396209","Longitude":"-3.9714034","Name":"Rue D40"},{"Latitude":"5.3502865","Longitude":"-3.9750410","Name":"Rue D41"},{"Latitude":"5.3412312","Longitude":"-3.9728127","Name":"Rue D42"},{"Latitude":"5.3487822","Longitude":"-3.9745107","Name":"Rue D43"},{"Latitude":"5.3438996","Longitude":"-3.9748644","Name":"Rue D44"},{"Latitude":"5.3500316","Longitude":"-3.9719548","Name":"Rue D45"},{"Latitude":"5.3410612","Longitude":"-3.9796650","Name":"Rue D46"},{"Latitude":"5.3493233","Longitude":"-3.9725159","Name":"Rue D47"},{"Latitude":"5.3457931","Longitude":"-3.9801173","Name":"Rue D48"},{"Latitude":"5.3474929","Longitude":"-3.9740804","Name":"Rue D49"},{"Latitude":"5.3091765","Longitude":"-3.9944831","Name":"Rue D5"},{"Latitude":"5.3455073","Longitude":"-3.9792748","Name":"Rue D50"},{"Latitude":"5.3460291","Longitude":"-3.9748886","Name":"Rue D51"},{"Latitude":"5.3467530","Longitude":"-3.9783110","Name":"Rue D52"},{"Latitude":"5.3450782","Longitude":"-3.9733913","Name":"Rue D55"},{"Latitude":"5.3490079","Longitude":"-3.9786654","Name":"Rue D56"},{"Latitude":"5.3471772","Longitude":"-3.9706587","Name":"Rue D57"},{"Latitude":"5.3496508","Longitude":"-3.9792027","Name":"Rue D58"},{"Latitude":"5.3445710","Longitude":"-3.9724463","Name":"Rue D59"},{"Latitude":"5.3304232","Longitude":"-3.9788091","Name":"Rue D6"},{"Latitude":"5.3495481","Longitude":"-3.9800786","Name":"Rue D60"},{"Latitude":"5.3397027","Longitude":"-3.9742841","Name":"Rue D61"},{"Latitude":"5.3512115","Longitude":"-3.9786863","Name":"Rue D62"},{"Latitude":"5.3389963","Longitude":"-3.9735532","Name":"Rue D63"},{"Latitude":"5.3505198","Longitude":"-3.9802540","Name":"Rue D64"},{"Latitude":"5.3412312","Longitude":"-3.9728127","Name":"Rue D65"},{"Latitude":"5.3478365","Longitude":"-3.9765228","Name":"Rue D66"},{"Latitude":"5.3448899","Longitude":"-3.9712062","Name":"Rue D67"},{"Latitude":"5.3499214","Longitude":"-3.9776129","Name":"Rue D68"},{"Latitude":"5.3411387","Longitude":"-3.9722853","Name":"Rue D69"},{"Latitude":"5.3423705","Longitude":"-3.9787544","Name":"Rue D7"},{"Latitude":"5.3430022","Longitude":"-3.9714242","Name":"Rue D71"},{"Latitude":"5.3461947","Longitude":"-3.9736609","Name":"Rue D72"},{"Latitude":"5.3443254","Longitude":"-3.9700328","Name":"Rue D73"},{"Latitude":"5.3470373","Longitude":"-3.9736833","Name":"Rue D74"},{"Latitude":"5.3473792","Longitude":"-3.9732635","Name":"Rue D76"},{"Latitude":"5.3423986","Longitude":"-3.9699267","Name":"Rue D77"},{"Latitude":"5.3482269","Longitude":"-3.9732357","Name":"Rue D78"},{"Latitude":"5.3439784","Longitude":"-3.9692348","Name":"Rue D80"},{"Latitude":"5.3485294","Longitude":"-3.9727120","Name":"Rue D82"},{"Latitude":"5.3459878","Longitude":"-3.9676788","Name":"Rue D83"},{"Latitude":"5.3452320","Longitude":"-3.9687628","Name":"Rue D84"},{"Latitude":"5.3486945","Longitude":"-3.9707869","Name":"Rue D86"},{"Latitude":"5.3459878","Longitude":"-3.9676788","Name":"Rue D88"},{"Latitude":"5.3419900","Longitude":"-3.9690793","Name":"Rue D89"},{"Latitude":"5.3111393","Longitude":"-3.9938256","Name":"Rue D9"},{"Latitude":"5.3494408","Longitude":"-3.9703023","Name":"Rue D92"},{"Latitude":"5.3525673","Longitude":"-3.9756796","Name":"Rue D93"},{"Latitude":"5.3474041","Longitude":"-3.9685049","Name":"Rue D94"},{"Latitude":"5.3521224","Longitude":"-3.9751760","Name":"Rue D95"},{"Latitude":"5.3540941","Longitude":"-3.9728452","Name":"Rue D99"},{"Latitude":"6.3870992","Longitude":"-5.4164104","Name":"Rue De L'Abbatoir"},{"Latitude":"6.3815347","Longitude":"-5.4249582","Name":"Rue De La Gendarmerie"},{"Latitude":"6.3851958","Longitude":"-5.4155773","Name":"Rue Des Hôtels"},{"Latitude":"5.3688699","Longitude":"-3.9280643","Name":"Rue Djike Pauline"},{"Latitude":"5.3719690","Longitude":"-3.9272220","Name":"Rue Doumbia Famoussa"},{"Latitude":"6.3839737","Longitude":"-5.4212245","Name":"Rue Dy Lycée"},{"Latitude":"5.3101793","Longitude":"-3.9757433","Name":"Rue E 11"},{"Latitude":"5.3503947","Longitude":"-3.9523516","Name":"Rue E 139"},{"Latitude":"5.3602104","Longitude":"-3.9586862","Name":"Rue E 147"},{"Latitude":"5.3569805","Longitude":"-3.9580763","Name":"Rue E 153"},{"Latitude":"5.3531097","Longitude":"-3.9577801","Name":"Rue E 155"},{"Latitude":"5.3071929","Longitude":"-3.9780727","Name":"Rue E1"},{"Latitude":"5.3551067","Longitude":"-4.0243879","Name":"Rue E10"},{"Latitude":"5.3518728","Longitude":"-3.9580090","Name":"Rue E100"},{"Latitude":"5.3290613","Longitude":"-3.9548891","Name":"Rue E101"},{"Latitude":"5.3064929","Longitude":"-3.9583601","Name":"Rue E102"},{"Latitude":"5.3264794","Longitude":"-3.9561932","Name":"Rue E103"},{"Latitude":"5.3533438","Longitude":"-3.9509408","Name":"Rue E104"},{"Latitude":"5.3071577","Longitude":"-3.9561760","Name":"Rue E106"},{"Latitude":"5.3531976","Longitude":"-3.9639406","Name":"Rue E108"},{"Latitude":"5.3260660","Longitude":"-3.9556698","Name":"Rue E109"},{"Latitude":"5.3525776","Longitude":"-3.9652190","Name":"Rue E11"},{"Latitude":"5.3532701","Longitude":"-3.9664279","Name":"Rue E110"},{"Latitude":"5.3243454","Longitude":"-3.9572255","Name":"Rue E111"},{"Latitude":"5.3079125","Longitude":"-3.9596911","Name":"Rue E112"},{"Latitude":"5.3239114","Longitude":"-3.9565198","Name":"Rue E113"},{"Latitude":"5.3082872","Longitude":"-3.9607823","Name":"Rue E114"},{"Latitude":"5.3538518","Longitude":"-3.9612318","Name":"Rue E116"},{"Latitude":"5.3264732","Longitude":"-3.9550846","Name":"Rue E117"},{"Latitude":"5.3538111","Longitude":"-3.9523074","Name":"Rue E118"},{"Latitude":"5.3275375","Longitude":"-3.9542417","Name":"Rue E119"},{"Latitude":"5.3547134","Longitude":"-4.0252131","Name":"Rue E12"},{"Latitude":"5.3543848","Longitude":"-3.9603637","Name":"Rue E120"},{"Latitude":"5.3246768","Longitude":"-3.9548895","Name":"Rue E121"},{"Latitude":"5.3544025","Longitude":"-3.9609486","Name":"Rue E122"},{"Latitude":"5.3384148","Longitude":"-3.9512567","Name":"Rue E123"},{"Latitude":"5.3545117","Longitude":"-3.9632114","Name":"Rue E124"},{"Latitude":"5.3332888","Longitude":"-3.9550385","Name":"Rue E125"},{"Latitude":"5.3546523","Longitude":"-3.9652450","Name":"Rue E126"},{"Latitude":"5.3339562","Longitude":"-3.9530142","Name":"Rue E127"},{"Latitude":"5.3552753","Longitude":"-3.9663816","Name":"Rue E128"},{"Latitude":"5.3422343","Longitude":"-3.9515188","Name":"Rue E129"},{"Latitude":"5.3372041","Longitude":"-3.9503526","Name":"Rue E131"},{"Latitude":"5.3560610","Longitude":"-3.9640697","Name":"Rue E132"},{"Latitude":"5.3464693","Longitude":"-3.9517384","Name":"Rue E133"},{"Latitude":"5.3549525","Longitude":"-3.9613087","Name":"Rue E134"},{"Latitude":"5.3465153","Longitude":"-3.9508484","Name":"Rue E135"},{"Latitude":"5.3562319","Longitude":"-3.9615785","Name":"Rue E136"},{"Latitude":"5.3505887","Longitude":"-3.9539910","Name":"Rue E137"},{"Latitude":"5.3571741","Longitude":"-3.9620043","Name":"Rue E138"},{"Latitude":"5.3066539","Longitude":"-3.9766697","Name":"Rue E14"},{"Latitude":"5.3576832","Longitude":"-3.9616891","Name":"Rue E140"},{"Latitude":"5.3582182","Longitude":"-3.9614226","Name":"Rue E141"},{"Latitude":"5.3581891","Longitude":"-3.9613758","Name":"Rue E142"},{"Latitude":"5.3567546","Longitude":"-3.9601958","Name":"Rue E143"},{"Latitude":"5.3586240","Longitude":"-3.9608610","Name":"Rue E144"},{"Latitude":"5.3599402","Longitude":"-3.9592370","Name":"Rue E145"},{"Latitude":"5.3592496","Longitude":"-3.9606759","Name":"Rue E146"},{"Latitude":"5.3544406","Longitude":"-3.9577304","Name":"Rue E148"},{"Latitude":"5.3603218","Longitude":"-3.9581092","Name":"Rue E149"},{"Latitude":"5.3565487","Longitude":"-3.9650967","Name":"Rue E15"},{"Latitude":"5.3557018","Longitude":"-3.9593415","Name":"Rue E150"},{"Latitude":"5.3599299","Longitude":"-3.9572262","Name":"Rue E151"},{"Latitude":"5.3573655","Longitude":"-3.9565721","Name":"Rue E152"},{"Latitude":"5.3560616","Longitude":"-3.9581375","Name":"Rue E154"},{"Latitude":"5.3551027","Longitude":"-3.9577124","Name":"Rue E155"},{"Latitude":"5.3563049","Longitude":"-3.9563455","Name":"Rue E156"},{"Latitude":"5.3558845","Longitude":"-3.9563583","Name":"Rue E157"},{"Latitude":"5.3567653","Longitude":"-3.9565277","Name":"Rue E158"},{"Latitude":"5.3065364","Longitude":"-3.9659787","Name":"Rue E16"},{"Latitude":"5.3587145","Longitude":"-3.9510350","Name":"Rue E160"},{"Latitude":"5.3552535","Longitude":"-3.9544603","Name":"Rue E161"},{"Latitude":"5.3582824","Longitude":"-3.9551469","Name":"Rue E162"},{"Latitude":"5.3568061","Longitude":"-3.9521961","Name":"Rue E163"},{"Latitude":"5.3602104","Longitude":"-3.9586862","Name":"Rue E164"},{"Latitude":"5.3548993","Longitude":"-3.9524013","Name":"Rue E165"},{"Latitude":"5.3504997","Longitude":"-3.9506149","Name":"Rue E167"},{"Latitude":"5.3051836","Longitude":"-3.9746910","Name":"Rue E17"},{"Latitude":"5.3072451","Longitude":"-3.9775598","Name":"Rue E18"},{"Latitude":"5.3051270","Longitude":"-3.9744627","Name":"Rue E19"},{"Latitude":"5.3048107","Longitude":"-3.9750566","Name":"Rue E2"},{"Latitude":"5.3072185","Longitude":"-3.9754065","Name":"Rue E20"},{"Latitude":"5.3538391","Longitude":"-3.9633071","Name":"Rue E21"},{"Latitude":"5.3070427","Longitude":"-3.9731994","Name":"Rue E22"},{"Latitude":"5.3516266","Longitude":"-3.9634573","Name":"Rue E23"},{"Latitude":"5.3068481","Longitude":"-3.9687896","Name":"Rue E24"},{"Latitude":"5.3108394","Longitude":"-3.9737128","Name":"Rue E25"},{"Latitude":"5.3069566","Longitude":"-3.9662871","Name":"Rue E26"},{"Latitude":"5.3088979","Longitude":"-3.9735897","Name":"Rue E27"},{"Latitude":"5.3074640","Longitude":"-3.9714410","Name":"Rue E28"},{"Latitude":"5.3524764","Longitude":"-3.9627523","Name":"Rue E29"},{"Latitude":"5.3108827","Longitude":"-3.9772103","Name":"Rue E3"},{"Latitude":"5.3283995","Longitude":"-3.9559610","Name":"Rue E30"},{"Latitude":"5.3108333","Longitude":"-3.9731077","Name":"Rue E31"},{"Latitude":"5.3075102","Longitude":"-3.9674971","Name":"Rue E32"},{"Latitude":"5.3470146","Longitude":"-3.9621967","Name":"Rue E33"},{"Latitude":"5.3076777","Longitude":"-3.9767973","Name":"Rue E34"},{"Latitude":"5.3532251","Longitude":"-3.9618166","Name":"Rue E35"},{"Latitude":"5.3283945","Longitude":"-3.9429458","Name":"Rue E36"},{"Latitude":"5.3533885","Longitude":"-3.9612750","Name":"Rue E37"},{"Latitude":"5.3341023","Longitude":"-3.9589998","Name":"Rue E38"},{"Latitude":"5.3080436","Longitude":"-3.9720766","Name":"Rue E39"},{"Latitude":"5.3051239","Longitude":"-3.9765969","Name":"Rue E4"},{"Latitude":"5.3364226","Longitude":"-3.9585711","Name":"Rue E40"},{"Latitude":"5.3501635","Longitude":"-3.9610701","Name":"Rue E41"},{"Latitude":"5.3370410","Longitude":"-3.9536946","Name":"Rue E42"},{"Latitude":"5.3469864","Longitude":"-3.9614053","Name":"Rue E43"},{"Latitude":"5.3080833","Longitude":"-3.9702583","Name":"Rue E44"},{"Latitude":"5.3506505","Longitude":"-3.9601873","Name":"Rue E45"},{"Latitude":"5.3390759","Longitude":"-3.9529988","Name":"Rue E46"},{"Latitude":"5.3498580","Longitude":"-3.9594480","Name":"Rue E47"},{"Latitude":"5.3083142","Longitude":"-3.9650846","Name":"Rue E48"},{"Latitude":"5.3523112","Longitude":"-3.9579957","Name":"Rue E49"},{"Latitude":"5.3088997","Longitude":"-3.9772489","Name":"Rue E5"},{"Latitude":"5.3464739","Longitude":"-3.9526860","Name":"Rue E50"},{"Latitude":"5.3466087","Longitude":"-3.9595118","Name":"Rue E51"},{"Latitude":"5.3088997","Longitude":"-3.9772489","Name":"Rue E52"},{"Latitude":"5.3477116","Longitude":"-3.9595789","Name":"Rue E53"},{"Latitude":"5.3087099","Longitude":"-3.9762340","Name":"Rue E54"},{"Latitude":"5.3480271","Longitude":"-3.9590188","Name":"Rue E55"},{"Latitude":"5.3450666","Longitude":"-3.9622594","Name":"Rue E56"},{"Latitude":"5.3462063","Longitude":"-3.9578392","Name":"Rue E57"},{"Latitude":"5.3462063","Longitude":"-3.9578392","Name":"Rue E58"},{"Latitude":"5.3538913","Longitude":"-4.0165906","Name":"Rue E59"},{"Latitude":"5.3053862","Longitude":"-3.9748272","Name":"Rue E6"},{"Latitude":"5.3086218","Longitude":"-3.9708525","Name":"Rue E60"},{"Latitude":"5.3075102","Longitude":"-3.9674971","Name":"Rue E61"},{"Latitude":"5.3083067","Longitude":"-3.9687733","Name":"Rue E62"},{"Latitude":"5.3468544","Longitude":"-3.9553316","Name":"Rue E63"},{"Latitude":"5.3086942","Longitude":"-3.9661466","Name":"Rue E64"},{"Latitude":"5.3086976","Longitude":"-3.9663707","Name":"Rue E65"},{"Latitude":"5.3094417","Longitude":"-3.9781880","Name":"Rue E66"},{"Latitude":"5.3117185","Longitude":"-3.9663219","Name":"Rue E67"},{"Latitude":"5.3094287","Longitude":"-3.9735706","Name":"Rue E68"},{"Latitude":"5.3495970","Longitude":"-3.9558192","Name":"Rue E69"},{"Latitude":"5.3558217","Longitude":"-3.9671655","Name":"Rue E7"},{"Latitude":"5.3092689","Longitude":"-3.9702416","Name":"Rue E70"},{"Latitude":"5.3492783","Longitude":"-3.9547998","Name":"Rue E71"},{"Latitude":"5.3093875","Longitude":"-3.9679974","Name":"Rue E72"},{"Latitude":"5.3100733","Longitude":"-3.9657939","Name":"Rue E73"},{"Latitude":"5.3499120","Longitude":"-3.9610450","Name":"Rue E74"},{"Latitude":"5.3391603","Longitude":"-3.9545595","Name":"Rue E75"},{"Latitude":"5.3504837","Longitude":"-3.9656709","Name":"Rue E76"},{"Latitude":"5.3100684","Longitude":"-3.9654110","Name":"Rue E77"},{"Latitude":"5.3097763","Longitude":"-3.9766508","Name":"Rue E78"},{"Latitude":"5.3100638","Longitude":"-3.9650522","Name":"Rue E79"},{"Latitude":"5.3266843","Longitude":"-3.9583028","Name":"Rue E8"},{"Latitude":"5.3512097","Longitude":"-3.9640689","Name":"Rue E80"},{"Latitude":"5.3100594","Longitude":"-3.9647061","Name":"Rue E81"},{"Latitude":"5.3515345","Longitude":"-3.9640595","Name":"Rue E82"},{"Latitude":"5.3100550","Longitude":"-3.9643598","Name":"Rue E83"},{"Latitude":"5.3526107","Longitude":"-3.9659384","Name":"Rue E84"},{"Latitude":"5.3310843","Longitude":"-3.9578732","Name":"Rue E85"},{"Latitude":"5.3525894","Longitude":"-3.9634330","Name":"Rue E86"},{"Latitude":"5.3505609","Longitude":"-3.9580236","Name":"Rue E88"},{"Latitude":"5.3068855","Longitude":"-3.9621222","Name":"Rue E89"},{"Latitude":"5.3109435","Longitude":"-3.9762558","Name":"Rue E9"},{"Latitude":"5.3111067","Longitude":"-3.9708142","Name":"Rue E90"},{"Latitude":"5.3266843","Longitude":"-3.9583028","Name":"Rue E91"},{"Latitude":"5.3511652","Longitude":"-3.9546097","Name":"Rue E92"},{"Latitude":"5.3072221","Longitude":"-3.9614417","Name":"Rue E93"},{"Latitude":"5.3510471","Longitude":"-3.9580328","Name":"Rue E94"},{"Latitude":"5.3072131","Longitude":"-3.9596934","Name":"Rue E95"},{"Latitude":"5.3116458","Longitude":"-3.9708059","Name":"Rue E96"},{"Latitude":"5.3071747","Longitude":"-3.9579268","Name":"Rue E97"},{"Latitude":"5.3514911","Longitude":"-3.9593182","Name":"Rue E98"},{"Latitude":"5.3068086","Longitude":"-3.9561782","Name":"Rue E99"},{"Latitude":"5.3472697","Longitude":"-3.9569731","Name":"Rue EECI"},{"Latitude":"5.2969487","Longitude":"-3.9766565","Name":"Rue F 127"},{"Latitude":"5.2996725","Longitude":"-3.9731727","Name":"Rue F 132"},{"Latitude":"5.3022823","Longitude":"-3.9729014","Name":"Rue F 133"},{"Latitude":"5.2994478","Longitude":"-3.9714700","Name":"Rue F 136"},{"Latitude":"5.3022101","Longitude":"-3.9736270","Name":"Rue F 138"},{"Latitude":"5.3008040","Longitude":"-3.9725400","Name":"Rue F 143"},{"Latitude":"5.3016871","Longitude":"-3.9714221","Name":"Rue F 146"},{"Latitude":"5.3016871","Longitude":"-3.9714221","Name":"Rue F 147"},{"Latitude":"5.3040270","Longitude":"-3.9695205","Name":"Rue F 151"},{"Latitude":"5.3028313","Longitude":"-3.9707835","Name":"Rue F 208"},{"Latitude":"5.3036574","Longitude":"-3.9709415","Name":"Rue F 210"},{"Latitude":"5.3069241","Longitude":"-3.9936694","Name":"Rue F 24"},{"Latitude":"5.3062943","Longitude":"-3.9934451","Name":"Rue F 7"},{"Latitude":"5.3061313","Longitude":"-3.9887177","Name":"Rue F 98"},{"Latitude":"5.3275033","Longitude":"-3.9417080","Name":"Rue F1"},{"Latitude":"5.3280045","Longitude":"-3.9395497","Name":"Rue F10"},{"Latitude":"5.3010856","Longitude":"-3.9798671","Name":"Rue F100"},{"Latitude":"5.3029571","Longitude":"-3.9782914","Name":"Rue F101"},{"Latitude":"5.3021167","Longitude":"-3.9818785","Name":"Rue F102"},{"Latitude":"5.2998820","Longitude":"-3.9794506","Name":"Rue F103"},{"Latitude":"5.3026869","Longitude":"-3.9777968","Name":"Rue F105"},{"Latitude":"5.3046257","Longitude":"-3.9860483","Name":"Rue F106"},{"Latitude":"5.3030562","Longitude":"-3.9768266","Name":"Rue F107"},{"Latitude":"5.3024869","Longitude":"-3.9816738","Name":"Rue F108"},{"Latitude":"5.2961836","Longitude":"-3.9815303","Name":"Rue F109"},{"Latitude":"5.3274743","Longitude":"-3.9401817","Name":"Rue F11"},{"Latitude":"5.3016566","Longitude":"-3.9800279","Name":"Rue F110"},{"Latitude":"5.2963789","Longitude":"-3.9797238","Name":"Rue F111"},{"Latitude":"5.3028125","Longitude":"-3.9814937","Name":"Rue F112"},{"Latitude":"5.3022241","Longitude":"-3.9758988","Name":"Rue F113"},{"Latitude":"5.3020726","Longitude":"-3.9754844","Name":"Rue F115"},{"Latitude":"5.3065259","Longitude":"-3.9885098","Name":"Rue F116"},{"Latitude":"5.3019156","Longitude":"-3.9751021","Name":"Rue F117"},{"Latitude":"5.3023035","Longitude":"-3.9799965","Name":"Rue F118"},{"Latitude":"5.3005783","Longitude":"-3.9755217","Name":"Rue F119"},{"Latitude":"5.3045971","Longitude":"-3.9918226","Name":"Rue F12"},{"Latitude":"5.3031382","Longitude":"-3.9813093","Name":"Rue F120"},{"Latitude":"5.3031542","Longitude":"-3.9746206","Name":"Rue F121"},{"Latitude":"5.3041270","Longitude":"-3.9831658","Name":"Rue F122"},{"Latitude":"5.3018120","Longitude":"-3.9747932","Name":"Rue F123"},{"Latitude":"5.3047630","Longitude":"-3.9843868","Name":"Rue F124"},{"Latitude":"5.2950332","Longitude":"-3.9783256","Name":"Rue F125"},{"Latitude":"5.3065907","Longitude":"-3.9877166","Name":"Rue F128"},{"Latitude":"5.3016646","Longitude":"-3.9743659","Name":"Rue F129"},{"Latitude":"5.3254203","Longitude":"-3.9399742","Name":"Rue F13"},{"Latitude":"5.3016859","Longitude":"-3.9739421","Name":"Rue F131"},{"Latitude":"5.3009421","Longitude":"-3.9755420","Name":"Rue F134"},{"Latitude":"5.3010556","Longitude":"-3.9729939","Name":"Rue F137"},{"Latitude":"5.3002818","Longitude":"-3.9715982","Name":"Rue F139"},{"Latitude":"5.3276318","Longitude":"-3.9333273","Name":"Rue F14"},{"Latitude":"5.3026871","Longitude":"-3.9748972","Name":"Rue F140"},{"Latitude":"5.2946072","Longitude":"-3.9755524","Name":"Rue F141"},{"Latitude":"5.3019213","Longitude":"-3.9730994","Name":"Rue F142"},{"Latitude":"5.3022823","Longitude":"-3.9729014","Name":"Rue F144"},{"Latitude":"5.3042572","Longitude":"-3.9706115","Name":"Rue F145"},{"Latitude":"5.3026497","Longitude":"-3.9726999","Name":"Rue F148"},{"Latitude":"5.3280045","Longitude":"-3.9395497","Name":"Rue F15"},{"Latitude":"5.3028835","Longitude":"-3.9790912","Name":"Rue F150"},{"Latitude":"5.3041688","Longitude":"-3.9811518","Name":"Rue F152"},{"Latitude":"5.3011816","Longitude":"-3.9705117","Name":"Rue F153"},{"Latitude":"5.3078808","Longitude":"-3.9883513","Name":"Rue F158"},{"Latitude":"5.3055580","Longitude":"-3.9942819","Name":"Rue F16"},{"Latitude":"5.3081343","Longitude":"-3.9882230","Name":"Rue F160"},{"Latitude":"5.3021670","Longitude":"-3.9770719","Name":"Rue F164"},{"Latitude":"5.3034788","Longitude":"-3.9793370","Name":"Rue F166"},{"Latitude":"5.3045029","Longitude":"-3.9809692","Name":"Rue F168"},{"Latitude":"5.3276705","Longitude":"-3.9392134","Name":"Rue F17"},{"Latitude":"5.3058081","Longitude":"-3.9834905","Name":"Rue F170"},{"Latitude":"5.3064335","Longitude":"-3.9841697","Name":"Rue F172"},{"Latitude":"5.3078023","Longitude":"-3.9870458","Name":"Rue F174"},{"Latitude":"5.3085350","Longitude":"-3.9880095","Name":"Rue F176"},{"Latitude":"5.3059018","Longitude":"-3.9944169","Name":"Rue F18"},{"Latitude":"5.3025493","Longitude":"-3.9769065","Name":"Rue F180"},{"Latitude":"5.3031799","Longitude":"-3.9775154","Name":"Rue F182"},{"Latitude":"5.3038668","Longitude":"-3.9791746","Name":"Rue F184"},{"Latitude":"5.3048327","Longitude":"-3.9807890","Name":"Rue F186"},{"Latitude":"5.3055876","Longitude":"-3.9822111","Name":"Rue F188"},{"Latitude":"5.3092108","Longitude":"-3.9892198","Name":"Rue F19"},{"Latitude":"5.3041636","Longitude":"-3.9789514","Name":"Rue F190"},{"Latitude":"5.3059461","Longitude":"-3.9820112","Name":"Rue F192"},{"Latitude":"5.3082132","Longitude":"-3.9862306","Name":"Rue F194"},{"Latitude":"5.3083509","Longitude":"-3.9867375","Name":"Rue F196"},{"Latitude":"5.3046538","Longitude":"-3.9787218","Name":"Rue F198"},{"Latitude":"5.3246367","Longitude":"-3.9407919","Name":"Rue F2"},{"Latitude":"5.3062448","Longitude":"-3.9945357","Name":"Rue F20"},{"Latitude":"5.3094607","Longitude":"-3.9877492","Name":"Rue F200"},{"Latitude":"5.3091655","Longitude":"-3.9862797","Name":"Rue F202"},{"Latitude":"5.3076148","Longitude":"-3.9895520","Name":"Rue F21"},{"Latitude":"5.3042572","Longitude":"-3.9706115","Name":"Rue F212"},{"Latitude":"5.3065702","Longitude":"-3.9946367","Name":"Rue F22"},{"Latitude":"5.3276991","Longitude":"-3.9385984","Name":"Rue F23"},{"Latitude":"5.3265986","Longitude":"-3.9364335","Name":"Rue F24"},{"Latitude":"5.3272902","Longitude":"-3.9383351","Name":"Rue F25"},{"Latitude":"5.3270168","Longitude":"-3.9348044","Name":"Rue F26"},{"Latitude":"5.3094607","Longitude":"-3.9877492","Name":"Rue F27"},{"Latitude":"5.3024420","Longitude":"-3.9891860","Name":"Rue F28"},{"Latitude":"5.3081343","Longitude":"-3.9882230","Name":"Rue F29"},{"Latitude":"5.3062448","Longitude":"-3.9945357","Name":"Rue F3"},{"Latitude":"5.3029609","Longitude":"-3.9889282","Name":"Rue F30"},{"Latitude":"5.3058896","Longitude":"-3.9888565","Name":"Rue F31"},{"Latitude":"5.3034466","Longitude":"-3.9889218","Name":"Rue F32"},{"Latitude":"5.3059438","Longitude":"-3.9879971","Name":"Rue F33"},{"Latitude":"5.3299517","Longitude":"-3.9338793","Name":"Rue F34"},{"Latitude":"5.3081691","Longitude":"-3.9862541","Name":"Rue F35"},{"Latitude":"5.3285919","Longitude":"-3.9362563","Name":"Rue F36"},{"Latitude":"5.3281375","Longitude":"-3.9367641","Name":"Rue F37"},{"Latitude":"5.3053452","Longitude":"-3.9904431","Name":"Rue F38"},{"Latitude":"5.3265319","Longitude":"-3.9343165","Name":"Rue F39"},{"Latitude":"5.3270857","Longitude":"-3.9387217","Name":"Rue F4"},{"Latitude":"5.3302694","Longitude":"-3.9353540","Name":"Rue F40"},{"Latitude":"5.3017995","Longitude":"-3.9876611","Name":"Rue F41"},{"Latitude":"5.2988376","Longitude":"-3.9836443","Name":"Rue F42"},{"Latitude":"5.3021916","Longitude":"-3.9874602","Name":"Rue F43"},{"Latitude":"5.3006314","Longitude":"-3.9865280","Name":"Rue F44"},{"Latitude":"5.3046257","Longitude":"-3.9860483","Name":"Rue F45"},{"Latitude":"5.3292767","Longitude":"-3.9353921","Name":"Rue F47"},{"Latitude":"5.3320471","Longitude":"-3.9369786","Name":"Rue F48"},{"Latitude":"5.3276318","Longitude":"-3.9333273","Name":"Rue F49"},{"Latitude":"5.3040983","Longitude":"-3.9932201","Name":"Rue F5"},{"Latitude":"5.2987594","Longitude":"-3.9825370","Name":"Rue F50"},{"Latitude":"5.3328810","Longitude":"-3.9377700","Name":"Rue F52"},{"Latitude":"5.2984925","Longitude":"-3.9815867","Name":"Rue F54"},{"Latitude":"5.3043524","Longitude":"-3.9846169","Name":"Rue F55"},{"Latitude":"5.2991613","Longitude":"-3.9823276","Name":"Rue F56"},{"Latitude":"5.3008913","Longitude":"-3.9860600","Name":"Rue F57"},{"Latitude":"5.3026133","Longitude":"-3.9881799","Name":"Rue F58"},{"Latitude":"5.3038378","Longitude":"-3.9845777","Name":"Rue F59"},{"Latitude":"5.3266936","Longitude":"-3.9410051","Name":"Rue F6"},{"Latitude":"5.3314572","Longitude":"-3.9350595","Name":"Rue F61"},{"Latitude":"5.3350705","Longitude":"-3.9378718","Name":"Rue F62"},{"Latitude":"5.3036842","Longitude":"-3.9834139","Name":"Rue F63"},{"Latitude":"5.2988850","Longitude":"-3.9813785","Name":"Rue F64"},{"Latitude":"5.3306854","Longitude":"-3.9384302","Name":"Rue F65"},{"Latitude":"5.2996589","Longitude":"-3.9823112","Name":"Rue F66"},{"Latitude":"5.3006343","Longitude":"-3.9846104","Name":"Rue F67"},{"Latitude":"5.3346087","Longitude":"-3.9401452","Name":"Rue F68"},{"Latitude":"5.3030815","Longitude":"-3.9832161","Name":"Rue F69"},{"Latitude":"5.2992959","Longitude":"-3.9811573","Name":"Rue F70"},{"Latitude":"5.3034648","Longitude":"-3.9830190","Name":"Rue F71"},{"Latitude":"5.3000460","Longitude":"-3.9820977","Name":"Rue F72"},{"Latitude":"5.3337018","Longitude":"-3.9393365","Name":"Rue F73"},{"Latitude":"5.3354673","Longitude":"-3.9409638","Name":"Rue F74"},{"Latitude":"5.2996578","Longitude":"-3.9809667","Name":"Rue F76"},{"Latitude":"5.3042652","Longitude":"-3.9810991","Name":"Rue F77"},{"Latitude":"5.3008253","Longitude":"-3.9825969","Name":"Rue F78"},{"Latitude":"5.3016072","Longitude":"-3.9824518","Name":"Rue F79"},{"Latitude":"5.3264094","Longitude":"-3.9406100","Name":"Rue F8"},{"Latitude":"5.3000559","Longitude":"-3.9830369","Name":"Rue F81"},{"Latitude":"5.2961875","Longitude":"-3.9756252","Name":"Rue F82"},{"Latitude":"5.3028125","Longitude":"-3.9814937","Name":"Rue F83"},{"Latitude":"5.2987564","Longitude":"-3.9747970","Name":"Rue F84"},{"Latitude":"5.3040910","Longitude":"-3.9807935","Name":"Rue F85"},{"Latitude":"5.3009969","Longitude":"-3.9814083","Name":"Rue F86"},{"Latitude":"5.3002170","Longitude":"-3.9820033","Name":"Rue F87"},{"Latitude":"5.2991613","Longitude":"-3.9823276","Name":"Rue F89"},{"Latitude":"5.3277302","Longitude":"-3.9408724","Name":"Rue F9"},{"Latitude":"5.3002147","Longitude":"-3.9792670","Name":"Rue F90"},{"Latitude":"5.3012880","Longitude":"-3.9812484","Name":"Rue F92"},{"Latitude":"5.2988850","Longitude":"-3.9813785","Name":"Rue F93"},{"Latitude":"5.3020535","Longitude":"-3.9798164","Name":"Rue F95"},{"Latitude":"5.3056556","Longitude":"-3.9884170","Name":"Rue F96"},{"Latitude":"5.3038057","Longitude":"-3.9791579","Name":"Rue F97"},{"Latitude":"5.3006316","Longitude":"-3.9800290","Name":"Rue F99"},{"Latitude":"5.3680792","Longitude":"-3.9260378","Name":"Rue Fea Okoh Gervais"},{"Latitude":"5.3275732","Longitude":"-3.9478117","Name":"Rue Filao"},{"Latitude":"5.3323866","Longitude":"-4.0103343","Name":"Rue Flamboyants"},{"Latitude":"5.3729814","Longitude":"-3.9248100","Name":"Rue Fofana Lassina"},{"Latitude":"7.6787324","Longitude":"-5.0407575","Name":"Rue Fourniez Bidoz"},{"Latitude":"5.1971552","Longitude":"-3.7389763","Name":"Rue Francis Wodié"},{"Latitude":"5.2776071","Longitude":"-3.9732699","Name":"Rue G 101"},{"Latitude":"5.2782078","Longitude":"-3.9729142","Name":"Rue G 103"},{"Latitude":"5.2779934","Longitude":"-3.9709543","Name":"Rue G 113"},{"Latitude":"5.2776689","Longitude":"-3.9703894","Name":"Rue G 117"},{"Latitude":"5.2773706","Longitude":"-3.9698720","Name":"Rue G 119"},{"Latitude":"5.2764950","Longitude":"-3.9690243","Name":"Rue G 121"},{"Latitude":"5.2930022","Longitude":"-3.9801526","Name":"Rue G 127"},{"Latitude":"5.2930536","Longitude":"-3.9783312","Name":"Rue G 133"},{"Latitude":"5.2919755","Longitude":"-3.9783434","Name":"Rue G 139"},{"Latitude":"5.2917622","Longitude":"-3.9779316","Name":"Rue G 143"},{"Latitude":"5.2914648","Longitude":"-3.9773848","Name":"Rue G 147"},{"Latitude":"5.2758434","Longitude":"-3.9719774","Name":"Rue G 34"},{"Latitude":"5.2765434","Longitude":"-3.9754255","Name":"Rue G 36"},{"Latitude":"5.2785934","Longitude":"-3.9791516","Name":"Rue G 38"},{"Latitude":"5.2768468","Longitude":"-3.9744149","Name":"Rue G 42"},{"Latitude":"5.2762485","Longitude":"-3.9713623","Name":"Rue G 44"},{"Latitude":"5.2821427","Longitude":"-3.9814879","Name":"Rue G 46"},{"Latitude":"5.2806282","Longitude":"-3.9787285","Name":"Rue G 48"},{"Latitude":"5.2792271","Longitude":"-3.9761997","Name":"Rue G 50"},{"Latitude":"5.2804840","Longitude":"-3.9820826","Name":"Rue G 55"},{"Latitude":"5.2823134","Longitude":"-3.9786467","Name":"Rue G 56"},{"Latitude":"5.2800700","Longitude":"-3.9806396","Name":"Rue G 57"},{"Latitude":"5.2794016","Longitude":"-3.9723133","Name":"Rue G 60"},{"Latitude":"5.2776689","Longitude":"-3.9703894","Name":"Rue G 62"},{"Latitude":"5.2809433","Longitude":"-3.9793588","Name":"Rue G 63"},{"Latitude":"5.2827261","Longitude":"-3.9779051","Name":"Rue G 64"},{"Latitude":"5.2771832","Longitude":"-3.9801575","Name":"Rue G 65"},{"Latitude":"5.2816610","Longitude":"-3.9774530","Name":"Rue G 69"},{"Latitude":"5.2896542","Longitude":"-3.9835890","Name":"Rue G10"},{"Latitude":"5.2773093","Longitude":"-3.9727204","Name":"Rue G107"},{"Latitude":"5.2711366","Longitude":"-3.9774728","Name":"Rue G11"},{"Latitude":"5.2918098","Longitude":"-3.9882948","Name":"Rue G12"},{"Latitude":"5.2873092","Longitude":"-3.9816119","Name":"Rue G129"},{"Latitude":"5.2878130","Longitude":"-3.9808188","Name":"Rue G135"},{"Latitude":"5.2875298","Longitude":"-3.9803262","Name":"Rue G137"},{"Latitude":"5.2935785","Longitude":"-3.9824423","Name":"Rue G14"},{"Latitude":"5.2873336","Longitude":"-3.9799762","Name":"Rue G141"},{"Latitude":"5.2944199","Longitude":"-3.9834084","Name":"Rue G16"},{"Latitude":"5.2847916","Longitude":"-3.9753951","Name":"Rue G173"},{"Latitude":"5.2845440","Longitude":"-3.9749187","Name":"Rue G175"},{"Latitude":"5.2878073","Longitude":"-3.9724910","Name":"Rue G177"},{"Latitude":"5.2840397","Longitude":"-3.9740241","Name":"Rue G179"},{"Latitude":"5.2837894","Longitude":"-3.9734738","Name":"Rue G181"},{"Latitude":"5.2824614","Longitude":"-3.9732337","Name":"Rue G183"},{"Latitude":"5.2820507","Longitude":"-3.9724865","Name":"Rue G189"},{"Latitude":"5.2724668","Longitude":"-3.9776576","Name":"Rue G2"},{"Latitude":"5.2730205","Longitude":"-3.9748353","Name":"Rue G28"},{"Latitude":"5.2737279","Longitude":"-3.9795170","Name":"Rue G3"},{"Latitude":"5.2955837","Longitude":"-3.9875996","Name":"Rue G33"},{"Latitude":"5.2867491","Longitude":"-3.9855035","Name":"Rue G37"},{"Latitude":"5.2851044","Longitude":"-3.9849197","Name":"Rue G39"},{"Latitude":"5.2733657","Longitude":"-3.9779336","Name":"Rue G4"},{"Latitude":"5.2788297","Longitude":"-3.9782975","Name":"Rue G40"},{"Latitude":"5.2820343","Longitude":"-3.9829195","Name":"Rue G47"},{"Latitude":"5.2730653","Longitude":"-3.9790313","Name":"Rue G5"},{"Latitude":"5.2776071","Longitude":"-3.9732699","Name":"Rue G52"},{"Latitude":"5.2808712","Longitude":"-3.9757338","Name":"Rue G58"},{"Latitude":"5.2829366","Longitude":"-3.9797861","Name":"Rue G59"},{"Latitude":"5.2810702","Longitude":"-3.9800629","Name":"Rue G61"},{"Latitude":"5.2863195","Longitude":"-3.9818776","Name":"Rue G66"},{"Latitude":"5.2797748","Longitude":"-3.9792046","Name":"Rue G67"},{"Latitude":"5.2733657","Longitude":"-3.9779336","Name":"Rue G7"},{"Latitude":"5.2788297","Longitude":"-3.9782975","Name":"Rue G73"},{"Latitude":"5.2785061","Longitude":"-3.9776999","Name":"Rue G75"},{"Latitude":"5.2824614","Longitude":"-3.9732337","Name":"Rue G76"},{"Latitude":"5.2780420","Longitude":"-3.9768516","Name":"Rue G81"},{"Latitude":"5.2828423","Longitude":"-3.9725661","Name":"Rue G82"},{"Latitude":"5.2805826","Longitude":"-3.9752030","Name":"Rue G83"},{"Latitude":"5.2777336","Longitude":"-3.9762833","Name":"Rue G85"},{"Latitude":"5.2768084","Longitude":"-3.9760174","Name":"Rue G87"},{"Latitude":"5.2806602","Longitude":"-3.9741915","Name":"Rue G89"},{"Latitude":"5.2724668","Longitude":"-3.9776576","Name":"Rue G9"},{"Latitude":"5.2771862","Longitude":"-3.9750384","Name":"Rue G91"},{"Latitude":"5.2867817","Longitude":"-3.9721718","Name":"Rue G92"},{"Latitude":"5.2778592","Longitude":"-3.9738616","Name":"Rue G97"},{"Latitude":"5.2739327","Longitude":"-3.9751465","Name":"Rue G99"},{"Latitude":"5.3705780","Longitude":"-3.9253533","Name":"Rue Gahaka Jean Pierre"},{"Latitude":"5.2902591","Longitude":"-3.9502904","Name":"Rue Gandour Georges"},{"Latitude":"7.6806423","Longitude":"-5.0274398","Name":"Rue Georges Kuny"},{"Latitude":"5.3691541","Longitude":"-3.9803363","Name":"Rue Glaheulle"},{"Latitude":"5.3234068","Longitude":"-4.0187011","Name":"Rue Gourgas"},{"Latitude":"5.3105785","Longitude":"-3.9370689","Name":"Rue Grand Campement"},{"Latitude":"5.3698227","Longitude":"-3.9277825","Name":"Rue Guede Djue Narcisse"},{"Latitude":"5.1966718","Longitude":"-3.7334150","Name":"Rue Général Mangin"},{"Latitude":"5.3761526","Longitude":"-3.9401915","Name":"Rue H1"},{"Latitude":"5.3729664","Longitude":"-3.9343849","Name":"Rue H10"},{"Latitude":"5.2926127","Longitude":"-3.9665255","Name":"Rue H100"},{"Latitude":"5.2891893","Longitude":"-3.9585882","Name":"Rue H101"},{"Latitude":"5.2943183","Longitude":"-3.9592355","Name":"Rue H102"},{"Latitude":"5.2947342","Longitude":"-3.9574180","Name":"Rue H104"},{"Latitude":"5.2947037","Longitude":"-3.9598878","Name":"Rue H106"},{"Latitude":"5.3729397","Longitude":"-3.9381668","Name":"Rue H11"},{"Latitude":"5.2938713","Longitude":"-3.9686020","Name":"Rue H110"},{"Latitude":"5.2957796","Longitude":"-3.9601375","Name":"Rue H112"},{"Latitude":"5.2948022","Longitude":"-3.9670131","Name":"Rue H114"},{"Latitude":"5.2969453","Longitude":"-3.9579597","Name":"Rue H116"},{"Latitude":"5.2939491","Longitude":"-3.9733937","Name":"Rue H118"},{"Latitude":"5.2874795","Longitude":"-3.9576356","Name":"Rue H119"},{"Latitude":"5.3733229","Longitude":"-3.9350487","Name":"Rue H12"},{"Latitude":"5.2949378","Longitude":"-3.9688543","Name":"Rue H120"},{"Latitude":"5.2937812","Longitude":"-3.9591064","Name":"Rue H121"},{"Latitude":"5.2959399","Longitude":"-3.9642961","Name":"Rue H122"},{"Latitude":"5.2970435","Longitude":"-3.9598571","Name":"Rue H123"},{"Latitude":"5.2968714","Longitude":"-3.9603910","Name":"Rue H124"},{"Latitude":"5.2966636","Longitude":"-3.9591378","Name":"Rue H125"},{"Latitude":"5.2974655","Longitude":"-3.9580872","Name":"Rue H126"},{"Latitude":"5.2991321","Longitude":"-3.9595495","Name":"Rue H127"},{"Latitude":"5.2962615","Longitude":"-3.9643727","Name":"Rue H128"},{"Latitude":"5.3013393","Longitude":"-3.9601704","Name":"Rue H129"},{"Latitude":"5.3732214","Longitude":"-3.9376847","Name":"Rue H13"},{"Latitude":"5.2955366","Longitude":"-3.9693144","Name":"Rue H130"},{"Latitude":"5.2957526","Longitude":"-3.9708296","Name":"Rue H132"},{"Latitude":"5.2905068","Longitude":"-3.9571004","Name":"Rue H133"},{"Latitude":"5.2955288","Longitude":"-3.9731349","Name":"Rue H134"},{"Latitude":"5.2946196","Longitude":"-3.9579954","Name":"Rue H135"},{"Latitude":"5.2962793","Longitude":"-3.9709532","Name":"Rue H136"},{"Latitude":"5.2986686","Longitude":"-3.9589808","Name":"Rue H137"},{"Latitude":"5.2983634","Longitude":"-3.9699882","Name":"Rue H138"},{"Latitude":"5.3008752","Longitude":"-3.9594947","Name":"Rue H139"},{"Latitude":"5.3739390","Longitude":"-3.9346459","Name":"Rue H14"},{"Latitude":"5.2970693","Longitude":"-3.9711386","Name":"Rue H140"},{"Latitude":"5.2958018","Longitude":"-3.9576796","Name":"Rue H143"},{"Latitude":"5.2969590","Longitude":"-3.9645374","Name":"Rue H144"},{"Latitude":"5.3035860","Longitude":"-3.9611200","Name":"Rue H145"},{"Latitude":"5.2973014","Longitude":"-3.9646172","Name":"Rue H146"},{"Latitude":"5.3036938","Longitude":"-3.9606590","Name":"Rue H147"},{"Latitude":"5.2986686","Longitude":"-3.9589808","Name":"Rue H148"},{"Latitude":"5.3037952","Longitude":"-3.9602022","Name":"Rue H149"},{"Latitude":"5.3728061","Longitude":"-3.9366224","Name":"Rue H15"},{"Latitude":"5.3037534","Longitude":"-3.9597358","Name":"Rue H151"},{"Latitude":"5.2973807","Longitude":"-3.9659273","Name":"Rue H152"},{"Latitude":"5.2985039","Longitude":"-3.9607755","Name":"Rue H154"},{"Latitude":"5.2895488","Longitude":"-3.9556836","Name":"Rue H155"},{"Latitude":"5.2971049","Longitude":"-3.9683972","Name":"Rue H156"},{"Latitude":"5.2982657","Longitude":"-3.9575361","Name":"Rue H157"},{"Latitude":"5.2977284","Longitude":"-3.9660165","Name":"Rue H158"},{"Latitude":"5.3741913","Longitude":"-3.9354684","Name":"Rue H16"},{"Latitude":"5.2986531","Longitude":"-3.9614300","Name":"Rue H160"},{"Latitude":"5.3006670","Longitude":"-3.9579572","Name":"Rue H161"},{"Latitude":"5.2994034","Longitude":"-3.9584044","Name":"Rue H162"},{"Latitude":"5.2930024","Longitude":"-3.9559530","Name":"Rue H163"},{"Latitude":"5.2984745","Longitude":"-3.9648906","Name":"Rue H164"},{"Latitude":"5.2962294","Longitude":"-3.9562799","Name":"Rue H165"},{"Latitude":"5.3001322","Longitude":"-3.9578258","Name":"Rue H166"},{"Latitude":"5.3034713","Longitude":"-3.9572977","Name":"Rue H167"},{"Latitude":"5.2983400","Longitude":"-3.9678516","Name":"Rue H168"},{"Latitude":"5.3038347","Longitude":"-3.9561803","Name":"Rue H169"},{"Latitude":"5.3725177","Longitude":"-3.9357910","Name":"Rue H17"},{"Latitude":"5.2999272","Longitude":"-3.9611144","Name":"Rue H170"},{"Latitude":"5.3004698","Longitude":"-3.9587668","Name":"Rue H172"},{"Latitude":"5.3010140","Longitude":"-3.9563463","Name":"Rue H174"},{"Latitude":"5.2982279","Longitude":"-3.9705609","Name":"Rue H176"},{"Latitude":"5.2992192","Longitude":"-3.9663706","Name":"Rue H178"},{"Latitude":"5.3731549","Longitude":"-3.9357909","Name":"Rue H18"},{"Latitude":"5.3008752","Longitude":"-3.9594947","Name":"Rue H180"},{"Latitude":"5.2995538","Longitude":"-3.9676776","Name":"Rue H182"},{"Latitude":"5.3006775","Longitude":"-3.9624935","Name":"Rue H184"},{"Latitude":"5.3013393","Longitude":"-3.9601704","Name":"Rue H186"},{"Latitude":"5.3017427","Longitude":"-3.9585443","Name":"Rue H188"},{"Latitude":"5.3717834","Longitude":"-3.9348621","Name":"Rue H19"},{"Latitude":"5.3023810","Longitude":"-3.9558363","Name":"Rue H190"},{"Latitude":"5.3013848","Longitude":"-3.9626462","Name":"Rue H192"},{"Latitude":"5.3010233","Longitude":"-3.9667840","Name":"Rue H194"},{"Latitude":"5.3019650","Longitude":"-3.9627827","Name":"Rue H196"},{"Latitude":"5.3015986","Longitude":"-3.9669158","Name":"Rue H198"},{"Latitude":"5.3722066","Longitude":"-3.9369826","Name":"Rue H20"},{"Latitude":"5.3028027","Longitude":"-3.9617508","Name":"Rue H200"},{"Latitude":"5.3036938","Longitude":"-3.9606590","Name":"Rue H202"},{"Latitude":"5.3028050","Longitude":"-3.9671955","Name":"Rue H204"},{"Latitude":"5.3035815","Longitude":"-3.9638432","Name":"Rue H206"},{"Latitude":"5.3035258","Longitude":"-3.9667486","Name":"Rue H208"},{"Latitude":"5.3744047","Longitude":"-3.9369042","Name":"Rue H21"},{"Latitude":"5.3046231","Longitude":"-3.9611313","Name":"Rue H210"},{"Latitude":"5.3038666","Longitude":"-3.9679774","Name":"Rue H212"},{"Latitude":"5.3043875","Longitude":"-3.9655824","Name":"Rue H214"},{"Latitude":"5.3049165","Longitude":"-3.9663855","Name":"Rue H216"},{"Latitude":"5.3737074","Longitude":"-3.9367457","Name":"Rue H22"},{"Latitude":"5.3739390","Longitude":"-3.9346459","Name":"Rue H23"},{"Latitude":"5.3733209","Longitude":"-3.9382754","Name":"Rue H24"},{"Latitude":"5.3724777","Longitude":"-3.9343219","Name":"Rue H25"},{"Latitude":"5.3738519","Longitude":"-3.9383978","Name":"Rue H26"},{"Latitude":"5.2848976","Longitude":"-3.9611066","Name":"Rue H28"},{"Latitude":"5.2985159","Longitude":"-3.9693433","Name":"Rue H29"},{"Latitude":"5.2949175","Longitude":"-3.9736069","Name":"Rue H3"},{"Latitude":"5.2863451","Longitude":"-3.9549194","Name":"Rue H30"},{"Latitude":"5.2962897","Longitude":"-3.9688298","Name":"Rue H31"},{"Latitude":"5.2839494","Longitude":"-3.9663807","Name":"Rue H32"},{"Latitude":"5.2855393","Longitude":"-3.9601330","Name":"Rue H34"},{"Latitude":"5.2852990","Longitude":"-3.9653940","Name":"Rue H35"},{"Latitude":"5.2850535","Longitude":"-3.9629326","Name":"Rue H36"},{"Latitude":"5.2852990","Longitude":"-3.9653940","Name":"Rue H38"},{"Latitude":"5.3576393","Longitude":"-4.0352762","Name":"Rue H4"},{"Latitude":"5.2862782","Longitude":"-3.9632288","Name":"Rue H40"},{"Latitude":"5.2882510","Longitude":"-3.9543347","Name":"Rue H42"},{"Latitude":"5.3030053","Longitude":"-3.9689988","Name":"Rue H43"},{"Latitude":"5.2876916","Longitude":"-3.9595162","Name":"Rue H44"},{"Latitude":"5.3038666","Longitude":"-3.9679774","Name":"Rue H45"},{"Latitude":"5.2883351","Longitude":"-3.9566372","Name":"Rue H46"},{"Latitude":"5.2860433","Longitude":"-3.9676285","Name":"Rue H48"},{"Latitude":"5.3714223","Longitude":"-3.9380621","Name":"Rue H5"},{"Latitude":"5.2867504","Longitude":"-3.9645947","Name":"Rue H50"},{"Latitude":"5.3049996","Longitude":"-3.9670732","Name":"Rue H51"},{"Latitude":"5.2879813","Longitude":"-3.9607299","Name":"Rue H52"},{"Latitude":"5.2888273","Longitude":"-3.9567533","Name":"Rue H54"},{"Latitude":"5.2909946","Longitude":"-3.9634773","Name":"Rue H57"},{"Latitude":"5.2892426","Longitude":"-3.9569938","Name":"Rue H58"},{"Latitude":"5.3007313","Longitude":"-3.9654167","Name":"Rue H59"},{"Latitude":"5.3716925","Longitude":"-3.9360668","Name":"Rue H6"},{"Latitude":"5.2889055","Longitude":"-3.9598024","Name":"Rue H60"},{"Latitude":"5.2852849","Longitude":"-3.9611960","Name":"Rue H61"},{"Latitude":"5.2874931","Longitude":"-3.9680425","Name":"Rue H62"},{"Latitude":"5.3008536","Longitude":"-3.9649012","Name":"Rue H63"},{"Latitude":"5.2895700","Longitude":"-3.9591996","Name":"Rue H64"},{"Latitude":"5.3043875","Longitude":"-3.9655824","Name":"Rue H65"},{"Latitude":"5.2899930","Longitude":"-3.9569816","Name":"Rue H66"},{"Latitude":"5.2997510","Longitude":"-3.9641207","Name":"Rue H67"},{"Latitude":"5.2884620","Longitude":"-3.9664711","Name":"Rue H68"},{"Latitude":"5.3714652","Longitude":"-3.9368723","Name":"Rue H7"},{"Latitude":"5.2898579","Longitude":"-3.9602317","Name":"Rue H70"},{"Latitude":"5.2901095","Longitude":"-3.9588026","Name":"Rue H72"},{"Latitude":"5.2869084","Longitude":"-3.9605021","Name":"Rue H77"},{"Latitude":"5.2898789","Longitude":"-3.9658736","Name":"Rue H78"},{"Latitude":"5.2983701","Longitude":"-3.9631994","Name":"Rue H79"},{"Latitude":"5.3722982","Longitude":"-3.9350002","Name":"Rue H8"},{"Latitude":"5.2914366","Longitude":"-3.9591171","Name":"Rue H80"},{"Latitude":"5.2959113","Longitude":"-3.9619595","Name":"Rue H81"},{"Latitude":"5.2923057","Longitude":"-3.9563409","Name":"Rue H82"},{"Latitude":"5.2989769","Longitude":"-3.9627652","Name":"Rue H83"},{"Latitude":"5.2904088","Longitude":"-3.9659965","Name":"Rue H84"},{"Latitude":"5.2923891","Longitude":"-3.9575718","Name":"Rue H86"},{"Latitude":"5.2857953","Longitude":"-3.9590631","Name":"Rue H87"},{"Latitude":"5.2909413","Longitude":"-3.9661275","Name":"Rue H88"},{"Latitude":"5.2996558","Longitude":"-3.9622464","Name":"Rue H89"},{"Latitude":"5.3724256","Longitude":"-3.9380830","Name":"Rue H9"},{"Latitude":"5.2924992","Longitude":"-3.9593672","Name":"Rue H90"},{"Latitude":"5.3025311","Longitude":"-3.9629158","Name":"Rue H91"},{"Latitude":"5.2929112","Longitude":"-3.9576885","Name":"Rue H92"},{"Latitude":"5.2900708","Longitude":"-3.9593192","Name":"Rue H93"},{"Latitude":"5.2983638","Longitude":"-3.9613601","Name":"Rue H95"},{"Latitude":"5.2920769","Longitude":"-3.9664001","Name":"Rue H96"},{"Latitude":"5.2997903","Longitude":"-3.9616852","Name":"Rue H97"},{"Latitude":"5.2940831","Longitude":"-3.9578639","Name":"Rue H98"},{"Latitude":"5.3039318","Longitude":"-3.9623051","Name":"Rue H99"},{"Latitude":"7.6838770","Longitude":"-5.0501637","Name":"Rue Hector Ledent"},{"Latitude":"9.5048430","Longitude":"-7.5596465","Name":"Rue Henri Bourgoin"},{"Latitude":"6.3778962","Longitude":"-5.4191901","Name":"Rue Hôpital Général de Oumé"},{"Latitude":"6.3743056","Longitude":"-5.4231973","Name":"Rue Hôtel La Source"},{"Latitude":"6.3797143","Longitude":"-5.4144653","Name":"Rue Hôtel Zénith"},{"Latitude":"5.3593602","Longitude":"-3.9812503","Name":"Rue I1"},{"Latitude":"5.3558214","Longitude":"-3.9752274","Name":"Rue I10"},{"Latitude":"5.3678843","Longitude":"-3.9706670","Name":"Rue I100"},{"Latitude":"5.3126934","Longitude":"-3.9483684","Name":"Rue I101"},{"Latitude":"5.3689187","Longitude":"-3.9672473","Name":"Rue I102"},{"Latitude":"5.3677323","Longitude":"-3.9632803","Name":"Rue I103"},{"Latitude":"5.3681823","Longitude":"-3.9719626","Name":"Rue I104"},{"Latitude":"5.3120056","Longitude":"-3.9474541","Name":"Rue I105"},{"Latitude":"5.3695495","Longitude":"-3.9674418","Name":"Rue I106"},{"Latitude":"5.3130656","Longitude":"-3.9478481","Name":"Rue I107"},{"Latitude":"5.3688085","Longitude":"-3.9619835","Name":"Rue I109"},{"Latitude":"5.3545453","Longitude":"-3.9786843","Name":"Rue I11"},{"Latitude":"5.3621604","Longitude":"-3.9616147","Name":"Rue I110"},{"Latitude":"5.3735900","Longitude":"-3.9591485","Name":"Rue I111"},{"Latitude":"5.3629516","Longitude":"-3.9574405","Name":"Rue I112"},{"Latitude":"5.3664338","Longitude":"-3.9627021","Name":"Rue I113"},{"Latitude":"5.3630817","Longitude":"-3.9605901","Name":"Rue I114"},{"Latitude":"5.3656787","Longitude":"-3.9627935","Name":"Rue I115"},{"Latitude":"5.3649510","Longitude":"-3.9623402","Name":"Rue I116"},{"Latitude":"5.3709881","Longitude":"-3.9597370","Name":"Rue I117"},{"Latitude":"5.3651146","Longitude":"-3.9614262","Name":"Rue I118"},{"Latitude":"5.3670206","Longitude":"-3.9607000","Name":"Rue I119"},{"Latitude":"5.3572018","Longitude":"-3.9723598","Name":"Rue I12"},{"Latitude":"5.3634022","Longitude":"-3.9582217","Name":"Rue I120"},{"Latitude":"5.3704729","Longitude":"-3.9540853","Name":"Rue I1200"},{"Latitude":"5.3727882","Longitude":"-3.9576075","Name":"Rue I121"},{"Latitude":"5.3699067","Longitude":"-3.9508282","Name":"Rue I1220"},{"Latitude":"5.3748244","Longitude":"-3.9559837","Name":"Rue I1222"},{"Latitude":"5.3649951","Longitude":"-3.9611929","Name":"Rue I123"},{"Latitude":"5.3656680","Longitude":"-3.9614242","Name":"Rue I124"},{"Latitude":"5.3641966","Longitude":"-3.9603809","Name":"Rue I125"},{"Latitude":"5.3659952","Longitude":"-3.9603983","Name":"Rue I127"},{"Latitude":"5.3660980","Longitude":"-3.9611869","Name":"Rue I128"},{"Latitude":"5.3566519","Longitude":"-3.9754847","Name":"Rue I129"},{"Latitude":"5.3552994","Longitude":"-3.9781778","Name":"Rue I13"},{"Latitude":"5.3650071","Longitude":"-3.9580792","Name":"Rue I130"},{"Latitude":"5.3707723","Longitude":"-3.9575285","Name":"Rue I131"},{"Latitude":"5.3671461","Longitude":"-3.9609253","Name":"Rue I132"},{"Latitude":"5.3725698","Longitude":"-3.9563835","Name":"Rue I133"},{"Latitude":"5.3661730","Longitude":"-3.9589533","Name":"Rue I134"},{"Latitude":"5.3705592","Longitude":"-3.9571324","Name":"Rue I135"},{"Latitude":"5.3691316","Longitude":"-3.9635646","Name":"Rue I136"},{"Latitude":"5.3690168","Longitude":"-3.9633045","Name":"Rue I138"},{"Latitude":"5.3568770","Longitude":"-3.9747066","Name":"Rue I14"},{"Latitude":"5.3678939","Longitude":"-3.9612861","Name":"Rue I140"},{"Latitude":"5.3687991","Longitude":"-3.9575442","Name":"Rue I141"},{"Latitude":"5.3646971","Longitude":"-3.9554252","Name":"Rue I142"},{"Latitude":"5.3639162","Longitude":"-3.9597505","Name":"Rue I143"},{"Latitude":"5.3650906","Longitude":"-3.9547901","Name":"Rue I144"},{"Latitude":"5.3648949","Longitude":"-3.9582083","Name":"Rue I145"},{"Latitude":"5.3662863","Longitude":"-3.9572896","Name":"Rue I146"},{"Latitude":"5.3665762","Longitude":"-3.9578642","Name":"Rue I147"},{"Latitude":"5.3681262","Longitude":"-3.9607081","Name":"Rue I148"},{"Latitude":"5.3700960","Longitude":"-3.9562713","Name":"Rue I149"},{"Latitude":"5.3690896","Longitude":"-3.9826615","Name":"Rue I15"},{"Latitude":"5.3685548","Longitude":"-3.9605123","Name":"Rue I150"},{"Latitude":"5.3718086","Longitude":"-3.9550311","Name":"Rue I151"},{"Latitude":"5.3694948","Longitude":"-3.9622155","Name":"Rue I152"},{"Latitude":"5.3747931","Longitude":"-3.9535725","Name":"Rue I153"},{"Latitude":"5.3704024","Longitude":"-3.9634421","Name":"Rue I154"},{"Latitude":"5.3683348","Longitude":"-3.9567054","Name":"Rue I155"},{"Latitude":"5.3700515","Longitude":"-3.9622513","Name":"Rue I156"},{"Latitude":"5.3687010","Longitude":"-3.9597916","Name":"Rue I158"},{"Latitude":"5.3647120","Longitude":"-3.9575498","Name":"Rue I159"},{"Latitude":"5.3565336","Longitude":"-3.9803321","Name":"Rue I16"},{"Latitude":"5.3677247","Longitude":"-3.9581185","Name":"Rue I160"},{"Latitude":"5.3684895","Longitude":"-3.9551650","Name":"Rue I161"},{"Latitude":"5.3664331","Longitude":"-3.9554261","Name":"Rue I162"},{"Latitude":"5.3711496","Longitude":"-3.9537335","Name":"Rue I163"},{"Latitude":"5.3668537","Longitude":"-3.9551948","Name":"Rue I164"},{"Latitude":"5.3737047","Longitude":"-3.9524147","Name":"Rue I165"},{"Latitude":"5.3687991","Longitude":"-3.9575442","Name":"Rue I166"},{"Latitude":"5.3644700","Longitude":"-3.9570979","Name":"Rue I167"},{"Latitude":"5.3703542","Longitude":"-3.9600732","Name":"Rue I168"},{"Latitude":"5.3658330","Longitude":"-3.9557371","Name":"Rue I169"},{"Latitude":"5.3678685","Longitude":"-3.9819539","Name":"Rue I17"},{"Latitude":"5.3676562","Longitude":"-3.9551130","Name":"Rue I170"},{"Latitude":"5.3664665","Longitude":"-3.9537813","Name":"Rue I171"},{"Latitude":"5.3667603","Longitude":"-3.9525515","Name":"Rue I172"},{"Latitude":"5.3712909","Longitude":"-3.9514209","Name":"Rue I173"},{"Latitude":"5.3679099","Longitude":"-3.9535292","Name":"Rue I174"},{"Latitude":"5.3679099","Longitude":"-3.9535292","Name":"Rue I175"},{"Latitude":"5.3688873","Longitude":"-3.9558680","Name":"Rue I176"},{"Latitude":"5.3678806","Longitude":"-3.9527855","Name":"Rue I177"},{"Latitude":"5.3709881","Longitude":"-3.9597370","Name":"Rue I178"},{"Latitude":"5.3677951","Longitude":"-3.9520338","Name":"Rue I179"},{"Latitude":"5.2965934","Longitude":"-3.9508060","Name":"Rue I18"},{"Latitude":"5.3716052","Longitude":"-3.9599278","Name":"Rue I180"},{"Latitude":"5.3684720","Longitude":"-3.9505009","Name":"Rue I181"},{"Latitude":"5.3708304","Longitude":"-3.9584712","Name":"Rue I182"},{"Latitude":"5.3670967","Longitude":"-3.9509247","Name":"Rue I183"},{"Latitude":"5.3723348","Longitude":"-3.9601529","Name":"Rue I184"},{"Latitude":"5.3673947","Longitude":"-3.9499834","Name":"Rue I185"},{"Latitude":"5.3716676","Longitude":"-3.9588899","Name":"Rue I186"},{"Latitude":"5.3707187","Longitude":"-3.9499695","Name":"Rue I187"},{"Latitude":"5.3703370","Longitude":"-3.9567154","Name":"Rue I188"},{"Latitude":"5.3696123","Longitude":"-3.9816655","Name":"Rue I19"},{"Latitude":"5.3691591","Longitude":"-3.9547830","Name":"Rue I190"},{"Latitude":"5.3687869","Longitude":"-3.9525069","Name":"Rue I192"},{"Latitude":"5.3782791","Longitude":"-3.9592356","Name":"Rue I195"},{"Latitude":"5.3739352","Longitude":"-3.9609526","Name":"Rue I196"},{"Latitude":"5.3714083","Longitude":"-3.9561365","Name":"Rue I198"},{"Latitude":"5.2971484","Longitude":"-3.9500842","Name":"Rue I20"},{"Latitude":"5.3727882","Longitude":"-3.9576075","Name":"Rue I202"},{"Latitude":"5.3725698","Longitude":"-3.9563835","Name":"Rue I204"},{"Latitude":"5.3715227","Longitude":"-3.9544627","Name":"Rue I206"},{"Latitude":"5.3701207","Longitude":"-3.9523637","Name":"Rue I208"},{"Latitude":"5.3739104","Longitude":"-3.9580017","Name":"Rue I210"},{"Latitude":"5.3756268","Longitude":"-3.9600440","Name":"Rue I212"},{"Latitude":"5.3744631","Longitude":"-3.9576966","Name":"Rue I214"},{"Latitude":"5.3729745","Longitude":"-3.9552936","Name":"Rue I216"},{"Latitude":"5.3714652","Longitude":"-3.9527125","Name":"Rue I218"},{"Latitude":"5.2974733","Longitude":"-3.9484442","Name":"Rue I22"},{"Latitude":"5.3721060","Longitude":"-3.9523700","Name":"Rue I220"},{"Latitude":"5.3752811","Longitude":"-3.9556700","Name":"Rue I224"},{"Latitude":"5.3747931","Longitude":"-3.9535725","Name":"Rue I226"},{"Latitude":"5.3743455","Longitude":"-3.9520874","Name":"Rue I228"},{"Latitude":"5.2970869","Longitude":"-3.9505860","Name":"Rue I23"},{"Latitude":"5.3752806","Longitude":"-3.9533090","Name":"Rue I230"},{"Latitude":"5.3760947","Longitude":"-3.9535076","Name":"Rue I232"},{"Latitude":"5.2972196","Longitude":"-3.9509601","Name":"Rue I24"},{"Latitude":"5.3672396","Longitude":"-3.9787030","Name":"Rue I25"},{"Latitude":"5.3461467","Longitude":"-4.0400465","Name":"Rue I26"},{"Latitude":"5.3592984","Longitude":"-3.9768516","Name":"Rue I27"},{"Latitude":"5.3618747","Longitude":"-3.9788308","Name":"Rue I28"},{"Latitude":"5.2988391","Longitude":"-3.9503079","Name":"Rue I29"},{"Latitude":"5.3563126","Longitude":"-3.9811806","Name":"Rue I3"},{"Latitude":"5.3628266","Longitude":"-3.9759087","Name":"Rue I30"},{"Latitude":"5.3571029","Longitude":"-3.9739288","Name":"Rue I31"},{"Latitude":"5.3005685","Longitude":"-3.9515782","Name":"Rue I32"},{"Latitude":"5.3573633","Longitude":"-3.9723232","Name":"Rue I33"},{"Latitude":"5.2951887","Longitude":"-3.9479247","Name":"Rue I35"},{"Latitude":"5.3656379","Longitude":"-3.9771550","Name":"Rue I36"},{"Latitude":"5.3005164","Longitude":"-3.9491701","Name":"Rue I37"},{"Latitude":"5.3656378","Longitude":"-3.9802924","Name":"Rue I38"},{"Latitude":"5.3668510","Longitude":"-3.9773328","Name":"Rue I39"},{"Latitude":"5.3537667","Longitude":"-3.9791500","Name":"Rue I4"},{"Latitude":"5.3075669","Longitude":"-3.9406625","Name":"Rue I40"},{"Latitude":"5.3646129","Longitude":"-3.9765292","Name":"Rue I41"},{"Latitude":"5.3056111","Longitude":"-3.9442881","Name":"Rue I42"},{"Latitude":"5.3069025","Longitude":"-3.9433965","Name":"Rue I44"},{"Latitude":"5.3040422","Longitude":"-3.9548260","Name":"Rue I45"},{"Latitude":"5.3069159","Longitude":"-3.9441031","Name":"Rue I46"},{"Latitude":"5.3042104","Longitude":"-3.9541447","Name":"Rue I47"},{"Latitude":"5.3064968","Longitude":"-3.9453222","Name":"Rue I48"},{"Latitude":"5.3058389","Longitude":"-3.9538376","Name":"Rue I49"},{"Latitude":"5.3053835","Longitude":"-3.9557326","Name":"Rue I5"},{"Latitude":"5.3078650","Longitude":"-3.9443607","Name":"Rue I50"},{"Latitude":"5.3060163","Longitude":"-3.9531410","Name":"Rue I51"},{"Latitude":"5.3604927","Longitude":"-3.9694360","Name":"Rue I53"},{"Latitude":"5.3070973","Longitude":"-3.9458066","Name":"Rue I54"},{"Latitude":"5.3605247","Longitude":"-3.9685375","Name":"Rue I55"},{"Latitude":"5.3082198","Longitude":"-3.9445853","Name":"Rue I56"},{"Latitude":"5.3576113","Longitude":"-3.9674336","Name":"Rue I57"},{"Latitude":"5.3680210","Longitude":"-3.9723292","Name":"Rue I59"},{"Latitude":"5.3545453","Longitude":"-3.9786843","Name":"Rue I6"},{"Latitude":"5.3070513","Longitude":"-3.9494046","Name":"Rue I60"},{"Latitude":"5.3682631","Longitude":"-3.9716190","Name":"Rue I61"},{"Latitude":"5.3582628","Longitude":"-3.9667565","Name":"Rue I62"},{"Latitude":"5.3053866","Longitude":"-3.9494945","Name":"Rue I63"},{"Latitude":"5.3062248","Longitude":"-3.9549682","Name":"Rue I64"},{"Latitude":"5.3661060","Longitude":"-3.9692985","Name":"Rue I65"},{"Latitude":"5.3588512","Longitude":"-3.9671173","Name":"Rue I66"},{"Latitude":"5.3689060","Longitude":"-3.9691409","Name":"Rue I67"},{"Latitude":"5.3070513","Longitude":"-3.9494046","Name":"Rue I68"},{"Latitude":"5.3637439","Longitude":"-3.9674892","Name":"Rue I69"},{"Latitude":"5.3576773","Longitude":"-3.9703692","Name":"Rue I7"},{"Latitude":"5.3150949","Longitude":"-3.9440159","Name":"Rue I70"},{"Latitude":"5.3088995","Longitude":"-3.9483377","Name":"Rue I71"},{"Latitude":"5.3096101","Longitude":"-3.9455978","Name":"Rue I72"},{"Latitude":"5.3144866","Longitude":"-3.9515550","Name":"Rue I73"},{"Latitude":"5.3102971","Longitude":"-3.9461385","Name":"Rue I74"},{"Latitude":"5.3603218","Longitude":"-3.9646026","Name":"Rue I75"},{"Latitude":"5.3109032","Longitude":"-3.9466132","Name":"Rue I76"},{"Latitude":"5.3629128","Longitude":"-3.9646550","Name":"Rue I77"},{"Latitude":"5.3570689","Longitude":"-3.9771704","Name":"Rue I78"},{"Latitude":"5.3040639","Longitude":"-3.9429939","Name":"Rue I79"},{"Latitude":"5.2924296","Longitude":"-3.9459643","Name":"Rue I8"},{"Latitude":"5.3116911","Longitude":"-3.9478671","Name":"Rue I80"},{"Latitude":"5.3681743","Longitude":"-3.9662777","Name":"Rue I81"},{"Latitude":"5.3642727","Longitude":"-3.9657399","Name":"Rue I82"},{"Latitude":"5.3652661","Longitude":"-3.9650211","Name":"Rue I83"},{"Latitude":"5.3631672","Longitude":"-3.9700100","Name":"Rue I84"},{"Latitude":"5.3046026","Longitude":"-3.9423216","Name":"Rue I85"},{"Latitude":"5.3138203","Longitude":"-3.9504218","Name":"Rue I86"},{"Latitude":"5.3063065","Longitude":"-3.9434018","Name":"Rue I87"},{"Latitude":"5.3599366","Longitude":"-3.9712608","Name":"Rue I88"},{"Latitude":"5.3072425","Longitude":"-3.9443577","Name":"Rue I89"},{"Latitude":"5.3599447","Longitude":"-3.9793434","Name":"Rue I9"},{"Latitude":"5.3660593","Longitude":"-3.9652786","Name":"Rue I90"},{"Latitude":"5.3068003","Longitude":"-3.9435305","Name":"Rue I91"},{"Latitude":"5.3649387","Longitude":"-3.9702496","Name":"Rue I92"},{"Latitude":"5.3600160","Longitude":"-3.9617354","Name":"Rue I93"},{"Latitude":"5.3655465","Longitude":"-3.9712518","Name":"Rue I94"},{"Latitude":"5.3056730","Longitude":"-3.9409594","Name":"Rue I95"},{"Latitude":"5.3663006","Longitude":"-3.9718336","Name":"Rue I96"},{"Latitude":"5.3074077","Longitude":"-3.9427533","Name":"Rue I97"},{"Latitude":"5.3681743","Longitude":"-3.9662777","Name":"Rue I98"},{"Latitude":"5.3720474","Longitude":"-3.9617054","Name":"Rue I99"},{"Latitude":"5.3554699","Longitude":"-3.9847674","Name":"Rue J10"},{"Latitude":"5.3787667","Longitude":"-3.9949827","Name":"Rue J100"},{"Latitude":"5.3794798","Longitude":"-3.9908611","Name":"Rue J102"},{"Latitude":"5.3797355","Longitude":"-3.9924968","Name":"Rue J104"},{"Latitude":"5.3808728","Longitude":"-3.9926822","Name":"Rue J106"},{"Latitude":"5.3684520","Longitude":"-3.9888337","Name":"Rue J107"},{"Latitude":"5.3569041","Longitude":"-3.9976814","Name":"Rue J11"},{"Latitude":"5.3643889","Longitude":"-3.9886470","Name":"Rue J111"},{"Latitude":"5.3687561","Longitude":"-3.9879885","Name":"Rue J113"},{"Latitude":"5.3644677","Longitude":"-3.9864278","Name":"Rue J115"},{"Latitude":"5.3610701","Longitude":"-3.9844566","Name":"Rue J117"},{"Latitude":"5.3787558","Longitude":"-3.9906951","Name":"Rue J119"},{"Latitude":"5.3771025","Longitude":"-3.9898008","Name":"Rue J121"},{"Latitude":"5.3787558","Longitude":"-3.9906951","Name":"Rue J123"},{"Latitude":"5.3883833","Longitude":"-3.9916158","Name":"Rue J125"},{"Latitude":"5.3604901","Longitude":"-3.9951254","Name":"Rue J13"},{"Latitude":"5.3577354","Longitude":"-3.9852262","Name":"Rue J14"},