[{"Latitude":"17.6887189","Longitude":"-64.8361386","Name":"10th Avenue West"},{"Latitude":"17.6876274","Longitude":"-64.8329923","Name":"11th Avenue East"},{"Latitude":"17.6870361","Longitude":"-64.8355790","Name":"11th Avenue West"},{"Latitude":"17.6947723","Longitude":"-64.8333589","Name":"1st Avenue"},{"Latitude":"17.6935432","Longitude":"-64.8325421","Name":"1st Loop South"},{"Latitude":"17.7237550","Longitude":"-64.7927044","Name":"1st Street"},{"Latitude":"17.6959420","Longitude":"-64.8342500","Name":"1st Street North"},{"Latitude":"17.6939151","Longitude":"-64.8317526","Name":"1st Street South"},{"Latitude":"17.6962697","Longitude":"-64.8331510","Name":"1st loop North"},{"Latitude":"17.6954892","Longitude":"-64.8373016","Name":"2nd Avenue"},{"Latitude":"17.6983484","Longitude":"-64.8371809","Name":"2nd Loop North"},{"Latitude":"17.6936208","Longitude":"-64.8363960","Name":"2nd Loop South"},{"Latitude":"17.7250801","Longitude":"-64.7905774","Name":"2nd Street"},{"Latitude":"17.6950250","Longitude":"-64.8374780","Name":"2nd Street North"},{"Latitude":"17.6977258","Longitude":"-64.8351157","Name":"3rd Avenue"},{"Latitude":"17.7257383","Longitude":"-64.7905337","Name":"3rd Street"},{"Latitude":"17.6985822","Longitude":"-64.8344234","Name":"3rd Street North"},{"Latitude":"17.6975008","Longitude":"-64.8337181","Name":"3rd Street South"},{"Latitude":"17.7014316","Longitude":"-64.8361872","Name":"4th Avenue East"},{"Latitude":"17.7011278","Longitude":"-64.8371905","Name":"4th Avenue West"},{"Latitude":"17.7263283","Longitude":"-64.7906708","Name":"4th Street"},{"Latitude":"17.7023083","Longitude":"-64.8354820","Name":"4th Street East"},{"Latitude":"17.7004970","Longitude":"-64.8392332","Name":"4th Street West"},{"Latitude":"17.7033103","Longitude":"-64.8347309","Name":"5th Avenue East"},{"Latitude":"17.7022499","Longitude":"-64.8397456","Name":"5th Avenue West"},{"Latitude":"17.7269483","Longitude":"-64.7908101","Name":"5th Street"},{"Latitude":"17.7037110","Longitude":"-64.8348768","Name":"6th Avenue East"},{"Latitude":"17.7027103","Longitude":"-64.8398851","Name":"6th Avenue West"},{"Latitude":"17.7266831","Longitude":"-64.7936798","Name":"6th Street"},{"Latitude":"17.7072130","Longitude":"-64.8382841","Name":"7th Avenue"},{"Latitude":"17.7272873","Longitude":"-64.7938835","Name":"7th Street"},{"Latitude":"17.7081069","Longitude":"-64.8374337","Name":"7th Street North"},{"Latitude":"17.7067860","Longitude":"-64.8375159","Name":"7th Street South"},{"Latitude":"17.7083070","Longitude":"-64.8377398","Name":"8th Avenue East"},{"Latitude":"17.6912758","Longitude":"-64.8345986","Name":"9th Avenue East"},{"Latitude":"17.6894724","Longitude":"-64.8358241","Name":"9th Avenue West"},{"Latitude":"17.7345029","Longitude":"-64.6537910","Name":"Acacia Drive"},{"Latitude":"17.7210716","Longitude":"-64.7784355","Name":"Acosta Street"},{"Latitude":"17.7734625","Longitude":"-64.7996153","Name":"Acoy Road"},{"Latitude":"18.3452585","Longitude":"-64.9307714","Name":"Adel Gade"},{"Latitude":"17.7097916","Longitude":"-64.8098989","Name":"Adventure Hill Circle"},{"Latitude":"17.7444128","Longitude":"-64.8036790","Name":"Agustín Road"},{"Latitude":"18.3363525","Longitude":"-64.9647201","Name":"Airport Road"},{"Latitude":"17.6974633","Longitude":"-64.8262654","Name":"Airport Road"},{"Latitude":"18.3531550","Longitude":"-64.7318060","Name":"Ajax Peak Rd"},{"Latitude":"18.3452585","Longitude":"-64.9307714","Name":"Alexander Gade"},{"Latitude":"17.7306705","Longitude":"-64.7324792","Name":"Alfa Street"},{"Latitude":"17.7240231","Longitude":"-64.8223734","Name":"Alfredo Andrews Street"},{"Latitude":"17.7267411","Longitude":"-64.8233072","Name":"Alfredo Andrews Street"},{"Latitude":"18.3294165","Longitude":"-64.7942309","Name":"Alice Street"},{"Latitude":"18.3305292","Longitude":"-64.7897550","Name":"Allamanda Place"},{"Latitude":"17.7329881","Longitude":"-64.7525446","Name":"Almond Ridge Drive"},{"Latitude":"18.3408256","Longitude":"-64.9193331","Name":"Alton Adams Senior Drive"},{"Latitude":"17.6915897","Longitude":"-64.8645310","Name":"Americana Way"},{"Latitude":"17.6909361","Longitude":"-64.8673972","Name":"Amigo Avenue"},{"Latitude":"17.7334827","Longitude":"-64.7537951","Name":"Ani Drive"},{"Latitude":"17.7340602","Longitude":"-64.7450234","Name":"Anise Lane"},{"Latitude":"18.3442711","Longitude":"-64.9322153","Name":"Anna Strade"},{"Latitude":"18.3239800","Longitude":"-64.7667400","Name":"Arawak Rd"},{"Latitude":"17.7719862","Longitude":"-64.7427612","Name":"Arawak Road"},{"Latitude":"17.7445847","Longitude":"-64.7947830","Name":"Archibald - Johannes Street"},{"Latitude":"17.7435562","Longitude":"-64.7981383","Name":"Archibald - Johannes Street"},{"Latitude":"18.3550049","Longitude":"-64.8960274","Name":"Atlantic Road"},{"Latitude":"18.3655560","Longitude":"-64.9157427","Name":"Atlantic View Road"},{"Latitude":"18.3229000","Longitude":"-64.7940000","Name":"Azure Bay Road"},{"Latitude":"17.7762696","Longitude":"-64.7465358","Name":"Bacuba Road"},{"Latitude":"18.3564204","Longitude":"-64.8983331","Name":"Bail Hal Road"},{"Latitude":"17.7562154","Longitude":"-64.6174141","Name":"Bajamar Road"},{"Latitude":"18.3625523","Longitude":"-64.9046302","Name":"Barbados Circle"},{"Latitude":"18.3618915","Longitude":"-64.9052992","Name":"Barbados Circle"},{"Latitude":"17.7318566","Longitude":"-64.8220382","Name":"Bastian Street"},{"Latitude":"17.7311066","Longitude":"-64.7317298","Name":"Battalion Avenue"},{"Latitude":"18.3320657","Longitude":"-64.7948840","Name":"Battery"},{"Latitude":"18.3362540","Longitude":"-64.7275870","Name":"Bay Forest Road"},{"Latitude":"18.3365037","Longitude":"-64.7284221","Name":"Bay Forest Road"},{"Latitude":"17.6916047","Longitude":"-64.8267481","Name":"Bay Meadows Street"},{"Latitude":"18.3299497","Longitude":"-64.7961398","Name":"Beach View"},{"Latitude":"18.3435229","Longitude":"-64.9236219","Name":"Benjamin Drive"},{"Latitude":"17.7411080","Longitude":"-64.7916787","Name":"Bermúdez Road"},{"Latitude":"18.3262200","Longitude":"-64.7874000","Name":"Beth Cruz Rd"},{"Latitude":"18.3280600","Longitude":"-64.7867820","Name":"Bethany Approach"},{"Latitude":"18.3313272","Longitude":"-64.7871426","Name":"Bethany Church Rd"},{"Latitude":"17.7311051","Longitude":"-64.7606894","Name":"Betsy Avenue"},{"Latitude":"18.3447174","Longitude":"-64.9258695","Name":"Bjerge Gade"},{"Latitude":"17.7333374","Longitude":"-64.7449142","Name":"Black Wattle Way"},{"Latitude":"18.3433186","Longitude":"-64.9297414","Name":"Blackbeard's Hill Way"},{"Latitude":"18.3445582","Longitude":"-64.9297070","Name":"Blackbeard's Lane"},{"Latitude":"17.7341176","Longitude":"-64.6518510","Name":"Blue Dolphin Drive"},{"Latitude":"18.3178891","Longitude":"-64.7882561","Name":"Blue Water Rd"},{"Latitude":"18.3393465","Longitude":"-64.9251430","Name":"Bluebeard Castle Avenue"},{"Latitude":"18.3405404","Longitude":"-64.9243478","Name":"Bluebeard Castle Circle"},{"Latitude":"18.3400998","Longitude":"-64.9233709","Name":"Bluebeard Castle Way"},{"Latitude":"18.3204276","Longitude":"-64.7760099","Name":"Boatman Point Rd"},{"Latitude":"18.3187400","Longitude":"-64.7783200","Name":"Boatman Rd"},{"Latitude":"17.7259373","Longitude":"-64.7575945","Name":"Bonieto Street"},{"Latitude":"18.3392270","Longitude":"-64.7202470","Name":"Bordeaux Mountain Road"},{"Latitude":"18.3376140","Longitude":"-64.7305150","Name":"Bordeaux Mt Rd"},{"Latitude":"17.7514908","Longitude":"-64.7870217","Name":"Bougainvillea Drive"},{"Latitude":"17.6888431","Longitude":"-64.8306119","Name":"Bougainvillea Road"},{"Latitude":"17.7131756","Longitude":"-64.7285260","Name":"Bougainvillea Street"},{"Latitude":"18.3123769","Longitude":"-64.7806071","Name":"Bovacap Rd"},{"Latitude":"17.7412244","Longitude":"-64.7958503","Name":"Boyens Lane"},{"Latitude":"18.3294450","Longitude":"-64.7919620","Name":"Boynes Street"},{"Latitude":"17.7453491","Longitude":"-64.7780073","Name":"Branch Street"},{"Latitude":"17.7313046","Longitude":"-64.7308155","Name":"Bravo Street"},{"Latitude":"18.3432611","Longitude":"-64.9320013","Name":"Bred Gade"},{"Latitude":"18.3425255","Longitude":"-64.9756191","Name":"Brewers Bay Road"},{"Latitude":"17.7300809","Longitude":"-64.7292660","Name":"Bridgade Boulevard"},{"Latitude":"17.7488162","Longitude":"-64.7622063","Name":"Browns View"},{"Latitude":"17.7562960","Longitude":"-64.6158952","Name":"Buena Vista Road"},{"Latitude":"17.7727515","Longitude":"-64.7418733","Name":"Bufano Circle"},{"Latitude":"17.7733926","Longitude":"-64.7425704","Name":"Bufano Road"},{"Latitude":"18.3291000","Longitude":"-64.7948500","Name":"Cactus Hill Run"},{"Latitude":"18.3285760","Longitude":"-64.7942440","Name":"Cactushillrun"},{"Latitude":"18.3300770","Longitude":"-64.7057130","Name":"Calabash Boom Road"},{"Latitude":"18.3469967","Longitude":"-64.8915156","Name":"Calabash Drive"},{"Latitude":"17.7192001","Longitude":"-64.7676336","Name":"Calabash Lane"},{"Latitude":"17.6934084","Longitude":"-64.8687451","Name":"Campo Rico Road"},{"Latitude":"17.6947905","Longitude":"-64.8682441","Name":"Campo Rico Street"},{"Latitude":"18.3433896","Longitude":"-64.9274037","Name":"Canal Gade"},{"Latitude":"17.7739987","Longitude":"-64.8096895","Name":"Cane Bay Road"},{"Latitude":"17.7322322","Longitude":"-64.7438876","Name":"Cardamom Drive"},{"Latitude":"17.6909361","Longitude":"-64.8673972","Name":"Caribbean Avenue"},{"Latitude":"18.3263100","Longitude":"-64.7654700","Name":"Caribe"},{"Latitude":"17.7749129","Longitude":"-64.7457461","Name":"Caribe Road"},{"Latitude":"17.7725512","Longitude":"-64.7454058","Name":"Caribe Road East"},{"Latitude":"17.6938308","Longitude":"-64.8439005","Name":"Carlton Road"},{"Latitude":"17.7340334","Longitude":"-64.7457109","Name":"Carmomile Drive"},{"Latitude":"17.7099257","Longitude":"-64.8086935","Name":"Caroton Lane"},{"Latitude":"17.7303936","Longitude":"-64.7605123","Name":"Carrs Drive"},{"Latitude":"17.7494515","Longitude":"-64.7817316","Name":"Cashew Drive"},{"Latitude":"17.7288763","Longitude":"-64.7610127","Name":"Catalina Drive"},{"Latitude":"17.7498936","Longitude":"-64.7602976","Name":"Catherine's Hope Road"},{"Latitude":"18.3451097","Longitude":"-64.9326739","Name":"Catherineberg Road"},{"Latitude":"18.3449418","Longitude":"-64.9358122","Name":"Cecelia Gade"},{"Latitude":"17.7584941","Longitude":"-64.7498134","Name":"Cecilio Drive"},{"Latitude":"18.3522420","Longitude":"-64.7178250","Name":"Cedar Ln"},{"Latitude":"18.3520200","Longitude":"-64.7184720","Name":"Cedar Ln"},{"Latitude":"17.7146551","Longitude":"-64.8190170","Name":"Centerline Road"},{"Latitude":"18.3279900","Longitude":"-64.7969400","Name":"Century Street"},{"Latitude":"18.3543540","Longitude":"-64.7166470","Name":"Cereus Corner"},{"Latitude":"17.7308056","Longitude":"-64.7566056","Name":"Charles Avenue"},{"Latitude":"18.3205545","Longitude":"-64.7810111","Name":"Chocolate Hole Rd"},{"Latitude":"18.3254480","Longitude":"-64.7905092","Name":"Christian Way"},{"Latitude":"17.7397201","Longitude":"-64.7098794","Name":"Christiansted Bypass"},{"Latitude":"17.6990599","Longitude":"-64.8374422","Name":"Church Avenue"},{"Latitude":"17.7465995","Longitude":"-64.7031059","Name":"Church Street"},{"Latitude":"17.7461864","Longitude":"-64.7027563","Name":"Church Street"},{"Latitude":"17.6972023","Longitude":"-64.8375204","Name":"Church Street Loop South"},{"Latitude":"17.6981625","Longitude":"-64.8378193","Name":"Church Street West"},{"Latitude":"17.7326266","Longitude":"-64.7576970","Name":"Cindy Avenue"},{"Latitude":"18.3247530","Longitude":"-64.7623160","Name":"Cocoloba Trl"},{"Latitude":"17.7131756","Longitude":"-64.7285260","Name":"Coconut Lane"},{"Latitude":"17.7519418","Longitude":"-64.7789923","Name":"Coconut Street"},{"Latitude":"18.3474805","Longitude":"-64.8692392","Name":"Coki Point Road"},{"Latitude":"18.3444084","Longitude":"-64.8936868","Name":"Collage Hill Lane"},{"Latitude":"17.7190967","Longitude":"-64.7777753","Name":"Colón Street"},{"Latitude":"18.3441284","Longitude":"-64.9305866","Name":"Commandant Gade"},{"Latitude":"18.3418906","Longitude":"-64.9310750","Name":"Commandant Gade Over Vandet"},{"Latitude":"17.7448923","Longitude":"-64.7043458","Name":"Company Street"},{"Latitude":"17.7543107","Longitude":"-64.7596140","Name":"Concordia Lane"},{"Latitude":"17.7074794","Longitude":"-64.8685302","Name":"Concordia Road"},{"Latitude":"17.7353210","Longitude":"-64.7299020","Name":"Constitution Hill Road"},{"Latitude":"18.3241250","Longitude":"-64.7937100","Name":"Contant Heights"},{"Latitude":"18.3251342","Longitude":"-64.7883358","Name":"Contant Point Loop"},{"Latitude":"18.3252500","Longitude":"-64.7888600","Name":"Contant Point Road"},{"Latitude":"17.7394841","Longitude":"-64.7119082","Name":"Contentment Road"},{"Latitude":"17.7511645","Longitude":"-64.6220729","Name":"Coral Reef Trail"},{"Latitude":"17.7101673","Longitude":"-64.7928155","Name":"Correctional Road"},{"Latitude":"17.7320071","Longitude":"-64.6498680","Name":"Corry Drive"},{"Latitude":"17.7771228","Longitude":"-64.8038596","Name":"Cotton Mill Road"},{"Latitude":"17.7535690","Longitude":"-64.6726568","Name":"Cove Lane"},{"Latitude":"17.7409089","Longitude":"-64.8847905","Name":"Creque Dam Road"},{"Latitude":"17.7572423","Longitude":"-64.7630967","Name":"Crooked Lane"},{"Latitude":"17.7514852","Longitude":"-64.7837020","Name":"Croton Lane"},{"Latitude":"18.3476158","Longitude":"-64.9572106","Name":"Crown Mountain Road"},{"Latitude":"17.7469418","Longitude":"-64.7987607","Name":"Cruz Lane"},{"Latitude":"17.7188513","Longitude":"-64.7785208","Name":"Cruz Street"},{"Latitude":"17.7295095","Longitude":"-64.7589418","Name":"Crystal Drive"},{"Latitude":"18.3426630","Longitude":"-64.9325368","Name":"Crystal Gade"},{"Latitude":"17.7331004","Longitude":"-64.7577781","Name":"Crystal Lane"},{"Latitude":"17.7304059","Longitude":"-64.7578980","Name":"Crystal Lane"},{"Latitude":"18.3408461","Longitude":"-64.9345102","Name":"Curacao Street"},{"Latitude":"17.7317176","Longitude":"-64.7534894","Name":"Cural Drive"},{"Latitude":"18.3625483","Longitude":"-64.9043282","Name":"Curassow Court"},{"Latitude":"17.7144316","Longitude":"-64.8828969","Name":"Custom House Street"},{"Latitude":"18.3246746","Longitude":"-64.7876123","Name":"Dalmida Lane"},{"Latitude":"18.3245700","Longitude":"-64.7885000","Name":"Dalmida View"},{"Latitude":"17.7424997","Longitude":"-64.7952933","Name":"Daniel Lane"},{"Latitude":"18.3446597","Longitude":"-64.9253875","Name":"Danus Gade"},{"Latitude":"17.7749884","Longitude":"-64.7669174","Name":"Darlene Drive"},{"Latitude":"17.7335930","Longitude":"-64.6504215","Name":"David Oliver Drive"},{"Latitude":"17.7335258","Longitude":"-64.7420041","Name":"Dejah Drive"},{"Latitude":"18.3437400","Longitude":"-64.7705500","Name":"Dennis Bay Rd"},{"Latitude":"18.3443362","Longitude":"-64.9251008","Name":"Denton Street"},{"Latitude":"17.7261989","Longitude":"-64.7652063","Name":"Diamond Avenue"},{"Latitude":"17.7281841","Longitude":"-64.7596196","Name":"Dimon Circle"},{"Latitude":"17.7476572","Longitude":"-64.6222231","Name":"Divi Divi Trail"},{"Latitude":"17.7306267","Longitude":"-64.7334126","Name":"Division Avenue"},{"Latitude":"17.7295680","Longitude":"-64.7322948","Name":"Division Avenue"},{"Latitude":"18.3334063","Longitude":"-64.7939370","Name":"Dock Trail"},{"Latitude":"17.7620756","Longitude":"-64.7572484","Name":"Dolby Hill Road"},{"Latitude":"17.7423941","Longitude":"-64.6881696","Name":"Dolphin Court"},{"Latitude":"17.7267567","Longitude":"-64.7577775","Name":"Dolphin Street"},{"Latitude":"18.3402240","Longitude":"-64.9263448","Name":"Domhus Strade"},{"Latitude":"18.3442811","Longitude":"-64.9312457","Name":"Domini Gade"},{"Latitude":"18.3442276","Longitude":"-64.9308468","Name":"Domini Tvaer Gade"},{"Latitude":"18.3481649","Longitude":"-64.8953497","Name":"Donoe Bypass Road"},{"Latitude":"18.3411489","Longitude":"-64.8995949","Name":"Donoe Road"},{"Latitude":"18.3323223","Longitude":"-64.7910041","Name":"Doris Lane"},{"Latitude":"17.7742099","Longitude":"-64.7484584","Name":"Dove Lane"},{"Latitude":"18.3698786","Longitude":"-64.9228987","Name":"Dove Way"},{"Latitude":"18.3646357","Longitude":"-64.9047091","Name":"Dowitcher Court"},{"Latitude":"17.7049941","Longitude":"-64.8816058","Name":"Dr. Eller Street"},{"Latitude":"17.7031097","Longitude":"-64.8808914","Name":"Dr. Eller Street"},{"Latitude":"18.3606191","Longitude":"-64.8990544","Name":"Dragon Lane"},{"Latitude":"18.3411908","Longitude":"-64.9345996","Name":"Dronningens Gade"},{"Latitude":"18.3410667","Longitude":"-64.9358094","Name":"Dronningens Gade"},{"Latitude":"18.3428752","Longitude":"-64.9284393","Name":"Dronningens Gade E"},{"Latitude":"18.3301320","Longitude":"-64.7956800","Name":"Dronningens Tvaer Gade"},{"Latitude":"17.7475158","Longitude":"-64.7981133","Name":"Earl Lane"},{"Latitude":"17.7148942","Longitude":"-64.7915623","Name":"East Airport Road"},{"Latitude":"17.7559017","Longitude":"-64.5672699","Name":"East End Road"},{"Latitude":"17.7419290","Longitude":"-64.7052485","Name":"East Street"},{"Latitude":"17.7570222","Longitude":"-64.6722259","Name":"East Valley Road"},{"Latitude":"17.7283578","Longitude":"-64.7313378","Name":"Echo Street"},{"Latitude":"17.7416753","Longitude":"-64.6854265","Name":"Eden Court"},{"Latitude":"17.7439869","Longitude":"-64.7926475","Name":"Edney Lane"},{"Latitude":"18.3630931","Longitude":"-64.9030783","Name":"Egret Court"},{"Latitude":"17.7271386","Longitude":"-64.7619976","Name":"Egret Terrace"},{"Latitude":"18.3377026","Longitude":"-64.9176088","Name":"Eighth Street"},{"Latitude":"17.6928145","Longitude":"-64.8748993","Name":"Emancipation Drive"},{"Latitude":"17.7261125","Longitude":"-64.7631294","Name":"Emerald Road"},{"Latitude":"18.3292540","Longitude":"-64.7890786","Name":"Enighed Close"},{"Latitude":"18.3281240","Longitude":"-64.7878950","Name":"Enighed Heights"},{"Latitude":"18.3287700","Longitude":"-64.7877300","Name":"Enighed Heights"},{"Latitude":"18.3295542","Longitude":"-64.7896956","Name":"Enighed Knoll"},{"Latitude":"18.3308020","Longitude":"-64.7923670","Name":"Enighed Lane"},{"Latitude":"18.3298402","Longitude":"-64.7884109","Name":"Enighed View"},{"Latitude":"17.7435809","Longitude":"-64.6837115","Name":"Esmit Gade"},{"Latitude":"18.3515310","Longitude":"-64.7196360","Name":"Est 6 Rd"},{"Latitude":"18.3493950","Longitude":"-64.7198100","Name":"Est 6 Rd"},{"Latitude":"17.7278177","Longitude":"-64.8244567","Name":"Estate Grove Place"},{"Latitude":"18.3568166","Longitude":"-64.8915522","Name":"Estate Mandahl Road"},{"Latitude":"17.7669151","Longitude":"-64.7394956","Name":"Estate St. John Road"},{"Latitude":"17.7284618","Longitude":"-64.8248254","Name":"Ethel McIntosh Memorial Drive"},{"Latitude":"17.7258283","Longitude":"-64.8218196","Name":"Evelyn Williams Way"},{"Latitude":"17.7522142","Longitude":"-64.7595139","Name":"Evening Road"},{"Latitude":"17.7262635","Longitude":"-64.7956111","Name":"Faith Street"},{"Latitude":"17.7495288","Longitude":"-64.7567320","Name":"Fancy Cross Road"},{"Latitude":"17.7469915","Longitude":"-64.7600000","Name":"Fancy Cross West"},{"Latitude":"17.7399724","Longitude":"-64.7985386","Name":"Farrely - Soto Avenue"},{"Latitude":"18.3515885","Longitude":"-64.9050004","Name":"Ficus Lane"},{"Latitude":"18.3404542","Longitude":"-64.9183172","Name":"Fifth Street"},{"Latitude":"17.7382435","Longitude":"-64.8010823","Name":"Figueroa Lane"},{"Latitude":"17.7505748","Longitude":"-64.6140913","Name":"Fiona Drive"},{"Latitude":"18.3411476","Longitude":"-64.9203151","Name":"First Street"},{"Latitude":"18.3247760","Longitude":"-64.7644050","Name":"Fish Bay Gut"},{"Latitude":"18.3237914","Longitude":"-64.7573130","Name":"Fish Bay Ln"},{"Latitude":"18.3248748","Longitude":"-64.7566815","Name":"Fish Bay Ln E"},{"Latitude":"18.3244900","Longitude":"-64.7566900","Name":"Fish Bay Ln E"},{"Latitude":"18.3222960","Longitude":"-64.7740380","Name":"Fish Bay Rd"},{"Latitude":"18.3215800","Longitude":"-64.7704100","Name":"Fish Bay Rd"},{"Latitude":"17.7430548","Longitude":"-64.7027934","Name":"Fisher Street"},{"Latitude":"17.7086507","Longitude":"-64.8822374","Name":"Fisher Street"},{"Latitude":"18.3274840","Longitude":"-64.7964105","Name":"Fishfry Dr"},{"Latitude":"18.3279020","Longitude":"-64.7945390","Name":"Fishfry Drive"},{"Latitude":"18.3451045","Longitude":"-64.8993809","Name":"Flamboyant Avenue"},{"Latitude":"17.7087031","Longitude":"-64.8098221","Name":"Flamboyant Court"},{"Latitude":"17.7413563","Longitude":"-64.6920975","Name":"Flamboyant Lane"},{"Latitude":"17.7422230","Longitude":"-64.6921003","Name":"Flamboyant Place"},{"Latitude":"17.7328693","Longitude":"-64.7670593","Name":"Flamboyant Road"},{"Latitude":"17.7407299","Longitude":"-64.6912370","Name":"Flamboyant Terrace"},{"Latitude":"18.3477566","Longitude":"-64.8805337","Name":"Floyd Road"},{"Latitude":"18.3488385","Longitude":"-64.8817888","Name":"Floyd Road"},{"Latitude":"18.3413262","Longitude":"-64.9295518","Name":"Forte Strade"},{"Latitude":"18.3435920","Longitude":"-64.7085880","Name":"Fortsberg Rd"},{"Latitude":"18.3462845","Longitude":"-64.7081932","Name":"Fortsberg Rd"},{"Latitude":"18.3428843","Longitude":"-65.0266745","Name":"Fortuna Road"},{"Latitude":"18.3390810","Longitude":"-64.9194098","Name":"Fourth Street"},{"Latitude":"17.7097916","Longitude":"-64.8098989","Name":"Frangipani Court"},{"Latitude":"18.3291400","Longitude":"-64.7972560","Name":"Frangipani Lane"},{"Latitude":"18.3295456","Longitude":"-64.7933335","Name":"Frank Street"},{"Latitude":"17.7256739","Longitude":"-64.7954130","Name":"Freedom Street"},{"Latitude":"18.3183789","Longitude":"-64.8827462","Name":"Frenchman's Bay Road"},{"Latitude":"18.3442098","Longitude":"-64.9244557","Name":"Frett/Davis Street"},{"Latitude":"17.6969469","Longitude":"-64.8668625","Name":"Friends Drive"},{"Latitude":"17.7314620","Longitude":"-64.7643406","Name":"Frigate Bird Street"},{"Latitude":"17.7503204","Longitude":"-64.6150022","Name":"Frigate Court"},{"Latitude":"18.3424591","Longitude":"-64.9357148","Name":"Gamle Gade"},{"Latitude":"18.3423615","Longitude":"-64.9375020","Name":"Gamle Nordisevei"},{"Latitude":"18.3398855","Longitude":"-64.9398154","Name":"Gasvaerks Gade"},{"Latitude":"18.3424591","Longitude":"-64.9357148","Name":"General Gade"},{"Latitude":"17.7483486","Longitude":"-64.7811149","Name":"Genip Drive"},{"Latitude":"17.7777946","Longitude":"-64.7664165","Name":"Gentle Winds Road"},{"Latitude":"18.3405300","Longitude":"-64.7640690","Name":"George Simmons Dr"},{"Latitude":"18.3424340","Longitude":"-64.7215170","Name":"Gerda Marsh Rd"},{"Latitude":"18.3272645","Longitude":"-64.7731649","Name":"Gift & Regenback Rd"},{"Latitude":"18.3388586","Longitude":"-64.7740977","Name":"Gift Hill Road"},{"Latitude":"18.3394878","Longitude":"-64.7743211","Name":"Gift Hill Road"},{"Latitude":"17.7427184","Longitude":"-64.8192091","Name":"Ginger Ridge Road"},{"Latitude":"17.7273479","Longitude":"-64.7591353","Name":"Ginger Thomas Drive"},{"Latitude":"17.7355087","Longitude":"-64.6541199","Name":"Ginger Thomas Lane"},{"Latitude":"17.7687523","Longitude":"-64.7487318","Name":"Ginger Thomas Road"},{"Latitude":"17.7696491","Longitude":"-64.7973532","Name":"Glad Hill Road"},{"Latitude":"17.7540753","Longitude":"-64.6752946","Name":"Golf View Drive"},{"Latitude":"17.6951851","Longitude":"-64.8630121","Name":"Good Hope Road"},{"Latitude":"17.7011820","Longitude":"-64.8335933","Name":"Good Shepherd Avenue"},{"Latitude":"17.7002349","Longitude":"-64.8509937","Name":"Good Wives Road"},{"Latitude":"17.7464248","Longitude":"-64.7843095","Name":"Goose Berry Lane"},{"Latitude":"18.3634289","Longitude":"-64.9071690","Name":"Granada Court"},{"Latitude":"17.7197594","Longitude":"-64.7143103","Name":"Granard Road"},{"Latitude":"18.3299296","Longitude":"-64.7969848","Name":"Grande Bay Road"},{"Latitude":"17.7791221","Longitude":"-64.7478146","Name":"Grapetree Road"},{"Latitude":"18.3172466","Longitude":"-64.7890103","Name":"Great Bay View Rd"},{"Latitude":"18.3180458","Longitude":"-64.7887165","Name":"Great Blue Waters Rd"},{"Latitude":"18.3179400","Longitude":"-64.7902800","Name":"Great Blue Waters Rd"},{"Latitude":"18.3155500","Longitude":"-64.7900300","Name":"Great Cruz Bay Rd"},{"Latitude":"18.3160200","Longitude":"-64.7893430","Name":"Great Horizon Rd"},{"Latitude":"18.3191400","Longitude":"-64.7880200","Name":"Great Landing Rd"},{"Latitude":"18.3373670","Longitude":"-64.7268670","Name":"Green Carib Ln"},{"Latitude":"17.7454030","Longitude":"-64.6984554","Name":"Green Street"},{"Latitude":"18.3276720","Longitude":"-64.7951950","Name":"Grigri Street"},{"Latitude":"18.3313640","Longitude":"-64.7834622","Name":"Grunwald Rd"},{"Latitude":"17.7488304","Longitude":"-64.7857474","Name":"Guava Berry Street"},{"Latitude":"17.7470597","Longitude":"-64.7841855","Name":"Guava Drive"},{"Latitude":"17.7521985","Longitude":"-64.7781346","Name":"Guava Street"},{"Latitude":"18.3469782","Longitude":"-64.8907836","Name":"Guavaberry Lane"},{"Latitude":"18.3464485","Longitude":"-64.8903637","Name":"Guavaberry Lane"},{"Latitude":"18.3413018","Longitude":"-64.9341138","Name":"Guttets Gade"},{"Latitude":"17.7247140","Longitude":"-64.8204716","Name":"Gweneth Francis Drive"},{"Latitude":"17.7005557","Longitude":"-64.8761481","Name":"H. E. Smith Avenue"},{"Latitude":"18.3441073","Longitude":"-64.9394922","Name":"Haabets Gade"},{"Latitude":"17.7700608","Longitude":"-64.7438477","Name":"Hamilton Drive"},{"Latitude":"17.7294950","Longitude":"-64.7598989","Name":"Hamington Drive"},{"Latitude":"17.7284398","Longitude":"-64.8873143","Name":"Hams Bluff Road"},{"Latitude":"17.7166893","Longitude":"-64.8832389","Name":"Hams Bluff Road"},{"Latitude":"18.3519399","Longitude":"-64.8856628","Name":"Harmony Drive"},{"Latitude":"18.3515527","Longitude":"-64.8841499","Name":"Harmony Ridge"},{"Latitude":"18.3247000","Longitude":"-64.7874090","Name":"Harmour Trail"},{"Latitude":"18.3414373","Longitude":"-64.7171772","Name":"Harolds Way"},{"Latitude":"18.3424340","Longitude":"-64.7149030","Name":"Harolds Way"},{"Latitude":"17.7631941","Longitude":"-64.7518835","Name":"Harper Lane"},{"Latitude":"18.3383471","Longitude":"-64.9477708","Name":"Harwood Highway"},{"Latitude":"18.3167246","Longitude":"-64.7808764","Name":"Hawk Hill"},{"Latitude":"18.3546070","Longitude":"-64.7304000","Name":"Hawks View Ln"},{"Latitude":"17.7317497","Longitude":"-64.7314873","Name":"Headquarters Street"},{"Latitude":"18.3316200","Longitude":"-64.7945000","Name":"Henry Samuel Street"},{"Latitude":"17.6885932","Longitude":"-64.8315056","Name":"Heron Court"},{"Latitude":"18.3646714","Longitude":"-64.9043389","Name":"Heron Court"},{"Latitude":"18.3277920","Longitude":"-64.7653840","Name":"Heron Rd"},{"Latitude":"17.7332450","Longitude":"-64.7570446","Name":"Hess Circle"},{"Latitude":"17.7229357","Longitude":"-64.7472102","Name":"Hess Road"},{"Latitude":"17.7490944","Longitude":"-64.6192683","Name":"Hibiscus Circle"},{"Latitude":"17.7082005","Longitude":"-64.8085390","Name":"Hibiscus Court"},{"Latitude":"18.3664838","Longitude":"-64.9181619","Name":"Hibiscus Lane"},{"Latitude":"17.7476387","Longitude":"-64.7602851","Name":"Hibiscus Road"},{"Latitude":"17.7514852","Longitude":"-64.7837020","Name":"Hibiscus Street"},{"Latitude":"17.7490285","Longitude":"-64.7588377","Name":"Highland Road"},{"Latitude":"17.7509719","Longitude":"-64.7568918","Name":"Hill Court"},{"Latitude":"18.3604259","Longitude":"-64.8994125","Name":"Hill Lane"},{"Latitude":"17.7123417","Longitude":"-64.8817834","Name":"Hill Street"},{"Latitude":"18.3295580","Longitude":"-64.7950815","Name":"Hill Street"},{"Latitude":"17.7550258","Longitude":"-64.6744624","Name":"Hill Top Lane"},{"Latitude":"17.7546827","Longitude":"-64.6744806","Name":"Hillside Circle"},{"Latitude":"18.3197228","Longitude":"-64.7578396","Name":"Hilltop Ln"},{"Latitude":"18.3207208","Longitude":"-64.7573349","Name":"Hilltop Rd"},{"Latitude":"18.3414556","Longitude":"-64.9473188","Name":"Hilton Road"},{"Latitude":"18.3428198","Longitude":"-64.9399126","Name":"Hodges Street"},{"Latitude":"18.3422790","Longitude":"-64.9278692","Name":"Hospital Gade"},{"Latitude":"18.3432044","Longitude":"-64.9241385","Name":"Hospital Ground Road"},{"Latitude":"18.3438485","Longitude":"-64.9282514","Name":"Hospital Line"},{"Latitude":"18.3436902","Longitude":"-64.9259965","Name":"Hospital Line Road"},{"Latitude":"17.7125207","Longitude":"-64.8803136","Name":"Hospital Street"},{"Latitude":"17.7457619","Longitude":"-64.6896228","Name":"Hospital Street"},{"Latitude":"17.7290702","Longitude":"-64.7626926","Name":"Hummingbird Avenue"},{"Latitude":"17.7283629","Longitude":"-64.7662110","Name":"Hummingbird Avenue"},{"Latitude":"18.3203985","Longitude":"-64.7810937","Name":"Hummingbird Way"},{"Latitude":"18.3447338","Longitude":"-64.9323889","Name":"Hyacinth Strade"},{"Latitude":"18.3226700","Longitude":"-64.7932600","Name":"Idesephus Road"},{"Latitude":"18.3178258","Longitude":"-64.7813234","Name":"Iguana Rd"},{"Latitude":"17.7099286","Longitude":"-64.8011748","Name":"Industrial Road"},{"Latitude":"18.3455827","Longitude":"-64.9365883","Name":"Inte Gade"},{"Latitude":"18.3551390","Longitude":"-64.7200130","Name":"Iron Wood Rd"},{"Latitude":"18.3679757","Longitude":"-64.9189871","Name":"Island View"},{"Latitude":"18.3278521","Longitude":"-64.7892504","Name":"Jacob's Way"},{"Latitude":"18.3271916","Longitude":"-64.7885814","Name":"Jacob's Way"},{"Latitude":"17.7396392","Longitude":"-64.7965351","Name":"James Lane"},{"Latitude":"17.6920958","Longitude":"-64.8646821","Name":"Jamsie Brewster Drive"},{"Latitude":"17.7316815","Longitude":"-64.7525990","Name":"Jazmine Drive"},{"Latitude":"18.3453307","Longitude":"-64.8984712","Name":"Jazmine Street"},{"Latitude":"17.7757254","Longitude":"-64.7435794","Name":"Jefferson Way"},{"Latitude":"18.3449726","Longitude":"-64.9366070","Name":"Jeppe Gade"},{"Latitude":"17.7482300","Longitude":"-64.7858700","Name":"Jo-Jo Lane"},{"Latitude":"18.3465133","Longitude":"-64.7575490","Name":"John Head Rd"},{"Latitude":"18.3483300","Longitude":"-64.7564500","Name":"John Head Rd"},{"Latitude":"17.6942152","Longitude":"-64.8676790","Name":"Joseph Hodge Sr Road"},{"Latitude":"17.7446394","Longitude":"-64.7975025","Name":"Joseph Road"},{"Latitude":"17.6925039","Longitude":"-64.8659288","Name":"Joseph Willard Drive"},{"Latitude":"17.7226040","Longitude":"-64.8672088","Name":"Joseph's Way"},{"Latitude":"17.7318947","Longitude":"-64.7609128","Name":"Joyce Avenue"},{"Latitude":"17.7700052","Longitude":"-64.7481132","Name":"Judith Circle"},{"Latitude":"17.7702344","Longitude":"-64.7467114","Name":"Judith Way"},{"Latitude":"18.3399117","Longitude":"-64.9665299","Name":"Julian Jackson Drive"},{"Latitude":"18.3313312","Longitude":"-64.7879329","Name":"Jurgen Rd"},{"Latitude":"17.7247565","Longitude":"-64.7941687","Name":"Justice Street"},{"Latitude":"17.7311284","Longitude":"-64.7613012","Name":"Kaira Avenue"},{"Latitude":"18.3410075","Longitude":"-64.9271702","Name":"Kanal Gade"},{"Latitude":"17.7288465","Longitude":"-64.7594489","Name":"Kathy's Circle"},{"Latitude":"17.7316573","Longitude":"-64.7572160","Name":"Kelly's Drive"},{"Latitude":"17.7366703","Longitude":"-64.6511314","Name":"Kenjo Drive"},{"Latitude":"17.7366851","Longitude":"-64.6544979","Name":"Kenjo Drive"},{"Latitude":"17.7111253","Longitude":"-64.8808742","Name":"King Cross Street"},{"Latitude":"18.3465490","Longitude":"-64.7183820","Name":"King Hill Rd"},{"Latitude":"18.3492200","Longitude":"-64.7284930","Name":"King Hill Road"},{"Latitude":"17.7424661","Longitude":"-64.7089140","Name":"King Street"},{"Latitude":"17.7227076","Longitude":"-64.8651081","Name":"King Way"},{"Latitude":"17.7430548","Longitude":"-64.7027934","Name":"King's Cross Street"},{"Latitude":"18.3416665","Longitude":"-64.9298046","Name":"Kirke Straede"},{"Latitude":"18.3207972","Longitude":"-64.7675966","Name":"Klein Bay Rd"},{"Latitude":"18.3209373","Longitude":"-64.7680887","Name":"Klein Bay Rd"},{"Latitude":"18.3423607","Longitude":"-64.9293049","Name":"Kongens Gade"},{"Latitude":"18.3312400","Longitude":"-64.7941900","Name":"Kongens Gade S"},{"Latitude":"18.3422172","Longitude":"-64.9267693","Name":"Kongens Tvaer Gade"},{"Latitude":"18.3405611","Longitude":"-64.9378472","Name":"Kronprindsens Gade"},{"Latitude":"17.7157289","Longitude":"-64.8731511","Name":"La Grande Estate Road"},{"Latitude":"17.7157407","Longitude":"-64.8731111","Name":"La Grande Gut Road"},{"Latitude":"17.7150577","Longitude":"-64.8758601","Name":"La Grande Road"},{"Latitude":"17.7150870","Longitude":"-64.8821634","Name":"Lagoon Street"},{"Latitude":"17.7592794","Longitude":"-64.6511198","Name":"Lane A"},{"Latitude":"17.7588830","Longitude":"-64.6517925","Name":"Lane B"},{"Latitude":"17.7596147","Longitude":"-64.6521844","Name":"Lane D"},{"Latitude":"17.7601529","Longitude":"-64.6544431","Name":"Lane G"},{"Latitude":"17.7610683","Longitude":"-64.6554055","Name":"Lane H"},{"Latitude":"17.7620019","Longitude":"-64.6555123","Name":"Lane L"},{"Latitude":"17.7325311","Longitude":"-64.7524440","Name":"Lantana Drive"},{"Latitude":"18.3493826","Longitude":"-64.9066483","Name":"Lemon Tree Road"},{"Latitude":"17.6943592","Longitude":"-64.8672109","Name":"Leonard Rodgers Sr Road"},{"Latitude":"18.3446728","Longitude":"-64.9372115","Name":"Lerke Gade"},{"Latitude":"17.7246550","Longitude":"-64.8186795","Name":"Leroy Miller Road"},{"Latitude":"18.3445619","Longitude":"-64.9377485","Name":"Levroi Strade"},{"Latitude":"18.3400928","Longitude":"-64.9255076","Name":"Lewis Lane"},{"Latitude":"18.3443425","Longitude":"-64.9372127","Name":"Liefde Gade"},{"Latitude":"18.3430502","Longitude":"-64.9311346","Name":"Lille Bronne Gade"},{"Latitude":"18.3409900","Longitude":"-64.9293751","Name":"Lille Forte Strade"},{"Latitude":"18.3421273","Longitude":"-64.9292796","Name":"Lille Taarne Gade"},{"Latitude":"18.3441859","Longitude":"-64.9289394","Name":"Lille Taarne Gade"},{"Latitude":"18.3392423","Longitude":"-64.8805110","Name":"Lime Street"},{"Latitude":"18.3191841","Longitude":"-64.9525742","Name":"Limestone Road"},{"Latitude":"18.3366000","Longitude":"-64.7946600","Name":"Lind Point Rd"},{"Latitude":"18.3438796","Longitude":"-64.8918099","Name":"Lloyd Street"},{"Latitude":"17.7456444","Longitude":"-64.6988605","Name":"Lobster Street"},{"Latitude":"17.7063498","Longitude":"-64.8794666","Name":"Loma's Lane"},{"Latitude":"17.7486792","Longitude":"-64.7769756","Name":"Lone Street"},{"Latitude":"17.6964747","Longitude":"-64.8683905","Name":"Lopez Lane"},{"Latitude":"17.7705998","Longitude":"-64.7482216","Name":"Lorraine Lane"},{"Latitude":"18.3401051","Longitude":"-64.9213720","Name":"Lovers Lane"},{"Latitude":"18.3254204","Longitude":"-64.7895211","Name":"Lower Fourth"},{"Latitude":"18.3267131","Longitude":"-64.7898605","Name":"Lower Third"},{"Latitude":"18.3524488","Longitude":"-64.9041996","Name":"Lower Wintberg Road"},{"Latitude":"17.7425705","Longitude":"-64.6758166","Name":"Lowry Hill Road"},{"Latitude":"17.7479336","Longitude":"-64.6166161","Name":"Mac Drive"},{"Latitude":"18.3474577","Longitude":"-64.9305035","Name":"Mafolie Road"},{"Latitude":"18.3612891","Longitude":"-64.9184079","Name":"Magen's Bay Road"},{"Latitude":"17.7416763","Longitude":"-64.6869347","Name":"Mahogany Lane"},{"Latitude":"17.7229253","Longitude":"-64.8802065","Name":"Mahogany Road"},{"Latitude":"17.7291562","Longitude":"-64.7547726","Name":"Mahogany Road"},{"Latitude":"18.3563797","Longitude":"-64.9031531","Name":"Mahogany Run North"},{"Latitude":"18.3610971","Longitude":"-64.9026627","Name":"Mahogany Run North Drive"},{"Latitude":"18.3561630","Longitude":"-64.9091050","Name":"Mahogany Run Road"},{"Latitude":"17.7345640","Longitude":"-64.7696870","Name":"Mahogany Street"},{"Latitude":"18.3181442","Longitude":"-64.9555962","Name":"Main Road"},{"Latitude":"17.6913382","Longitude":"-64.8349652","Name":"Main Street"},{"Latitude":"17.6966781","Longitude":"-64.8351846","Name":"Main Street"},{"Latitude":"18.3560410","Longitude":"-64.7204950","Name":"Majestic Mile"},{"Latitude":"17.7734707","Longitude":"-64.7401824","Name":"Malta Road"},{"Latitude":"18.3494183","Longitude":"-64.7366966","Name":"Mamey Peak Road"},{"Latitude":"18.3464311","Longitude":"-64.9346522","Name":"Manassah Hill Road"},{"Latitude":"17.7707735","Longitude":"-64.7395215","Name":"Manatee Road"},{"Latitude":"18.3103900","Longitude":"-64.7138200","Name":"Mandal Est Rd"},{"Latitude":"18.3506727","Longitude":"-64.8912265","Name":"Mandal Road"},{"Latitude":"18.3470536","Longitude":"-64.8907332","Name":"Mango Lane"},{"Latitude":"17.7509115","Longitude":"-64.7797169","Name":"Mango Tree Lane"},{"Latitude":"18.3260000","Longitude":"-64.7924900","Name":"Mangrove Lane"},{"Latitude":"17.7322322","Longitude":"-64.7438876","Name":"Manjack Drive"},{"Latitude":"17.7190045","Longitude":"-64.7015527","Name":"Many Paws Road"},{"Latitude":"18.3154100","Longitude":"-64.7879600","Name":"Maria Bluff Rd"},{"Latitude":"18.3227010","Longitude":"-64.7575840","Name":"Marina Dr"},{"Latitude":"18.3222710","Longitude":"-64.7594480","Name":"Marina Dr"},{"Latitude":"17.7329343","Longitude":"-64.7424438","Name":"Marjoram Drive"},{"Latitude":"17.7136233","Longitude":"-64.8819607","Name":"Market Street"},{"Latitude":"17.7423810","Longitude":"-64.7056323","Name":"Market Street"},{"Latitude":"17.7251199","Longitude":"-64.7573784","Name":"Marlin Street"},{"Latitude":"17.7261507","Longitude":"-64.7596273","Name":"Marlin Street"},{"Latitude":"17.7005557","Longitude":"-64.8761481","Name":"Mars Hill Road"},{"Latitude":"18.3642219","Longitude":"-64.9080004","Name":"Martinique Drive"},{"Latitude":"18.3178720","Longitude":"-64.7863120","Name":"Mary Holter Rd"},{"Latitude":"18.3190200","Longitude":"-64.7857300","Name":"Mary Holter Rd"},{"Latitude":"17.7451202","Longitude":"-64.7560235","Name":"Mary's Cross Road"},{"Latitude":"18.3514121","Longitude":"-64.9256796","Name":"Maude Proudfoot Drive"},{"Latitude":"17.7589303","Longitude":"-64.7492905","Name":"Max Lane"},{"Latitude":"17.7336463","Longitude":"-64.7864169","Name":"Mayor General Jean Augustine Romney Memorial Drive"},{"Latitude":"18.3461119","Longitude":"-64.8947301","Name":"McGregor Lane"},{"Latitude":"17.7298513","Longitude":"-64.7584945","Name":"McKenzie Drive"},{"Latitude":"18.3231296","Longitude":"-64.7913105","Name":"Melo Road"},{"Latitude":"17.7154785","Longitude":"-64.7792582","Name":"Meléndez Street"},{"Latitude":"17.7479035","Longitude":"-64.7816514","Name":"Mesple Street"},{"Latitude":"17.7744490","Longitude":"-64.7677328","Name":"Michael Avenue"},{"Latitude":"17.7551701","Longitude":"-64.6727512","Name":"Mid Valley Road"},{"Latitude":"18.3504480","Longitude":"-64.9044511","Name":"Middle Wintberg Road"},{"Latitude":"17.7404034","Longitude":"-64.7940567","Name":"Midland Road"},{"Latitude":"17.7014391","Longitude":"-64.8790553","Name":"Mill Road"},{"Latitude":"18.3479610","Longitude":"-64.7211250","Name":"Mill-Round Rd"},{"Latitude":"18.3495540","Longitude":"-64.7216820","Name":"Mill-Round Rd"},{"Latitude":"18.3503550","Longitude":"-64.7154160","Name":"Millvista Rd"},{"Latitude":"17.7331888","Longitude":"-64.7439798","Name":"Mint Drive"},{"Latitude":"17.7560262","Longitude":"-64.6153716","Name":"Miramar Road"},{"Latitude":"17.7464706","Longitude":"-64.7996229","Name":"Miriam Lane"},{"Latitude":"17.7592743","Longitude":"-64.6533186","Name":"Miss Bea Road"},{"Latitude":"17.7285714","Longitude":"-64.7650878","Name":"Mockingbird Lane"},{"Latitude":"17.7480213","Longitude":"-64.7866789","Name":"Mon Bijou Road"},{"Latitude":"17.7474569","Longitude":"-64.7555746","Name":"Mongoose Court"},{"Latitude":"18.3329806","Longitude":"-64.7918019","Name":"Mongoose Junction South"},{"Latitude":"18.3189573","Longitude":"-64.7752152","Name":"Monte Rd"},{"Latitude":"17.6969469","Longitude":"-64.8668625","Name":"Morales Drive"},{"Latitude":"17.7569597","Longitude":"-64.7623862","Name":"Morningstar Circle"},{"Latitude":"17.7090509","Longitude":"-64.8235164","Name":"Mount Pleasant Road"},{"Latitude":"17.7188513","Longitude":"-64.7785208","Name":"Mulero Street"},{"Latitude":"18.3447338","Longitude":"-64.9323889","Name":"Murphy Gade"},{"Latitude":"18.3353409","Longitude":"-64.7811476","Name":"Myra Kestine Clewic Rd"},{"Latitude":"18.3356170","Longitude":"-64.7819130","Name":"Myra Kestine Clewic Rd"},{"Latitude":"18.3314726","Longitude":"-64.7940830","Name":"N Shore Road"},{"Latitude":"18.3447625","Longitude":"-64.8956945","Name":"Nancy Street"},{"Latitude":"17.7430579","Longitude":"-64.7016664","Name":"New Street"},{"Latitude":"17.7541698","Longitude":"-64.7624815","Name":"Night Court"},{"Latitude":"18.3397372","Longitude":"-64.9162290","Name":"Ninth Street"},{"Latitude":"18.3435492","Longitude":"-64.9344765","Name":"Nordisevei Gade"},{"Latitude":"18.3415307","Longitude":"-64.9284771","Name":"Norre Gade"},{"Latitude":"18.3422410","Longitude":"-64.9368054","Name":"Norre Tvaer Gade"},{"Latitude":"18.3483080","Longitude":"-64.7371350","Name":"Norte Ciel"},{"Latitude":"17.7120397","Longitude":"-64.8508411","Name":"North Carlton Road"},{"Latitude":"18.3419838","Longitude":"-64.9255683","Name":"North Frederiksbergs Gade"},{"Latitude":"17.7519418","Longitude":"-64.7789923","Name":"North Lane"},{"Latitude":"17.7797337","Longitude":"-64.7758168","Name":"North Shore Road"},{"Latitude":"17.7456117","Longitude":"-64.7068937","Name":"North Street"},{"Latitude":"17.7450524","Longitude":"-64.7151053","Name":"Northside Road"},{"Latitude":"18.3427595","Longitude":"-64.9319818","Name":"Nye Gade"},{"Latitude":"18.3426224","Longitude":"-64.9386500","Name":"Nye Nordisevei"},{"Latitude":"18.3403734","Longitude":"-64.9369426","Name":"Nye Tvaer Gade"},{"Latitude":"18.3693348","Longitude":"-64.9201446","Name":"Ocean View"},{"Latitude":"18.3668570","Longitude":"-64.9166722","Name":"Oceanside Road"},{"Latitude":"18.3274600","Longitude":"-64.7031000","Name":"Old Big Hill Rd"},{"Latitude":"18.3447068","Longitude":"-64.9258125","Name":"Old Hospital Road"},{"Latitude":"17.7339644","Longitude":"-64.7538688","Name":"Oleander Drive"},{"Latitude":"18.3450242","Longitude":"-64.8973448","Name":"Olson Road"},{"Latitude":"17.7434565","Longitude":"-64.6882985","Name":"Orchid Lane"},{"Latitude":"17.7429711","Longitude":"-64.6825926","Name":"Orholm Gade"},{"Latitude":"18.3629149","Longitude":"-64.9033251","Name":"Osprey Court"},{"Latitude":"17.7321740","Longitude":"-64.7535691","Name":"Osprey Drive"},{"Latitude":"18.3531542","Longitude":"-64.8878864","Name":"Overlook Way"},{"Latitude":"18.3419685","Longitude":"-64.9308307","Name":"Padagogs Park Gade"},{"Latitude":"17.7197831","Longitude":"-64.7670216","Name":"Palm Avenue"},{"Latitude":"17.7129731","Longitude":"-64.7292496","Name":"Palm Drive"},{"Latitude":"17.7185385","Longitude":"-64.7665204","Name":"Palm Lane"},{"Latitude":"18.3447195","Longitude":"-64.9318513","Name":"Palm Strade"},{"Latitude":"18.3493482","Longitude":"-64.9031121","Name":"Palm Tree Lane"},{"Latitude":"18.3377125","Longitude":"-64.8830284","Name":"Palmetto Road"},{"Latitude":"17.6905921","Longitude":"-64.8264820","Name":"Palmetto Street"},{"Latitude":"17.7490910","Longitude":"-64.7836508","Name":"Papaya Street"},{"Latitude":"17.7163243","Longitude":"-64.8135359","Name":"Paradise Road"},{"Latitude":"17.6910661","Longitude":"-64.8669695","Name":"Paradiso Avenue"},{"Latitude":"17.7500771","Longitude":"-64.7781873","Name":"Parcha Lane"},{"Latitude":"18.3333090","Longitude":"-64.7929960","Name":"Park Center Road"},{"Latitude":"18.3334113","Longitude":"-64.7912209","Name":"Park Utility Road"},{"Latitude":"17.7469953","Longitude":"-64.7858724","Name":"Passion Fruit Street"},{"Latitude":"18.3318492","Longitude":"-64.7869147","Name":"Pastory Rd Exd"},{"Latitude":"17.7235861","Longitude":"-64.7937754","Name":"Peace Street"},{"Latitude":"17.7477050","Longitude":"-64.6105737","Name":"Peaceful Valley Road"},{"Latitude":"18.3219970","Longitude":"-64.7787090","Name":"Pebble Way"},{"Latitude":"17.7300624","Longitude":"-64.7672996","Name":"Pelican Drive"},{"Latitude":"18.3244800","Longitude":"-64.7668530","Name":"Pelican Rd"},{"Latitude":"17.7541072","Longitude":"-64.6140884","Name":"Pelicano Road"},{"Latitude":"18.3266921","Longitude":"-64.7885018","Name":"Penn's Gardens"},{"Latitude":"17.7400466","Longitude":"-64.7558560","Name":"Pepper Tree Lane"},{"Latitude":"17.7433047","Longitude":"-64.7536352","Name":"Pepper Tree Road"},{"Latitude":"17.7059418","Longitude":"-64.8806475","Name":"Percy Gardine Avenue"},{"Latitude":"17.7014391","Longitude":"-64.8790553","Name":"Percy Gardine Avenue"},{"Latitude":"18.3533106","Longitude":"-64.7643058","Name":"Peter Bay Rd"},{"Latitude":"17.7409842","Longitude":"-64.7082888","Name":"Peter's Farm Road"},{"Latitude":"18.3654330","Longitude":"-64.9178272","Name":"Peterborg East Road"},{"Latitude":"18.3670036","Longitude":"-64.9218039","Name":"Peterborg Road"},{"Latitude":"18.3285893","Longitude":"-64.7944449","Name":"Pickering Street"},{"Latitude":"18.3283294","Longitude":"-64.7963500","Name":"Pickering Street"},{"Latitude":"18.3474183","Longitude":"-64.9321228","Name":"Pilgrim Terrace Bypass"},{"Latitude":"17.6948587","Longitude":"-64.8640954","Name":"Pine Tree Road"},{"Latitude":"17.7423324","Longitude":"-64.8185259","Name":"Pink Cedar Way"},{"Latitude":"18.3307600","Longitude":"-64.7880500","Name":"Pocket Money Ln"},{"Latitude":"17.7513477","Longitude":"-64.7857432","Name":"Poinsetta Street"},{"Latitude":"18.3433918","Longitude":"-64.8946856","Name":"Poinsettia Lane"},{"Latitude":"18.3156418","Longitude":"-64.7827959","Name":"Pointsche Rd"},{"Latitude":"18.3422200","Longitude":"-64.9209827","Name":"Pollyberg Drive"},{"Latitude":"18.3422350","Longitude":"-64.9224565","Name":"Polyberg Circle"},{"Latitude":"17.7045270","Longitude":"-64.8464921","Name":"Pond Lane"},{"Latitude":"17.7055512","Longitude":"-64.8451545","Name":"Pond Lane"},{"Latitude":"18.3254690","Longitude":"-64.7928916","Name":"Pond Loop"},{"Latitude":"18.3258152","Longitude":"-64.7933237","Name":"Pond View"},{"Latitude":"17.7465731","Longitude":"-64.6236032","Name":"Pony Club Trail"},{"Latitude":"17.7482274","Longitude":"-64.7940477","Name":"Pool Lane"},{"Latitude":"17.7469116","Longitude":"-64.7947156","Name":"Powell - Drummond Avenue"},{"Latitude":"18.3257700","Longitude":"-64.7845100","Name":"Power Boyd Down"},{"Latitude":"18.3262600","Longitude":"-64.7858500","Name":"Power Boyd Up"},{"Latitude":"17.6947905","Longitude":"-64.8682441","Name":"Pretty Lane"},{"Latitude":"17.7140635","Longitude":"-64.8812558","Name":"Prince Street"},{"Latitude":"17.7439962","Longitude":"-64.7054737","Name":"Prince Street"},{"Latitude":"17.7255286","Longitude":"-64.8296083","Name":"Princess Quarter Road"},{"Latitude":"18.3433307","Longitude":"-64.9265272","Name":"Prindsens Gade"},{"Latitude":"18.3312054","Longitude":"-64.7952363","Name":"Prinsdens Gade"},{"Latitude":"18.3307771","Longitude":"-64.7942272","Name":"Prinsdens Gade"},{"Latitude":"18.3369617","Longitude":"-64.6705067","Name":"Privateer Rd"},{"Latitude":"18.3363767","Longitude":"-64.6690047","Name":"Privateer Rd"},{"Latitude":"17.7636804","Longitude":"-64.8274062","Name":"Prosperity"},{"Latitude":"17.7295544","Longitude":"-64.8837117","Name":"Prosperity Road"},{"Latitude":"18.3195733","Longitude":"-64.9551525","Name":"Providence Hill Road"},{"Latitude":"18.3220912","Longitude":"-64.7681454","Name":"Pt Rendevous"},{"Latitude":"17.7097742","Longitude":"-64.8814280","Name":"Queen Cross Street"},{"Latitude":"17.7277602","Longitude":"-64.7359605","Name":"Queen Mary Highway"},{"Latitude":"17.7123417","Longitude":"-64.8817834","Name":"Queen Street"},{"Latitude":"17.7333703","Longitude":"-64.7754243","Name":"Queen Street"},{"Latitude":"17.7480163","Longitude":"-64.7564349","Name":"Queen's Cross Road"},{"Latitude":"17.7466989","Longitude":"-64.7047929","Name":"Queen's Cross Street"},{"Latitude":"17.7404948","Longitude":"-64.7544950","Name":"Queen's Quarter Drive"},{"Latitude":"17.7470419","Longitude":"-64.7554567","Name":"Queen's Way South"},{"Latitude":"18.3421027","Longitude":"-64.9323746","Name":"Raadets Gade"},{"Latitude":"17.7213238","Longitude":"-64.8712090","Name":"Rainbow Drive"},{"Latitude":"17.7426381","Longitude":"-64.6880148","Name":"Rainbow Gardens Road"},{"Latitude":"17.7499772","Longitude":"-64.6161183","Name":"Rainbow Lane"},{"Latitude":"17.7524979","Longitude":"-64.7810913","Name":"Rama Lane"},{"Latitude":"17.7154785","Longitude":"-64.7792582","Name":"Ramírez Street"},{"Latitude":"17.7506782","Longitude":"-64.7398202","Name":"Rattan Road"},{"Latitude":"18.3216230","Longitude":"-64.8641718","Name":"Red Hook Road"},{"Latitude":"18.3718763","Longitude":"-64.9261185","Name":"Red Rock"},{"Latitude":"18.3220830","Longitude":"-64.7572590","Name":"Reef Bay Ln E"},{"Latitude":"18.3214800","Longitude":"-64.7569600","Name":"Reef Bay Rd"},{"Latitude":"18.3224200","Longitude":"-64.7574700","Name":"Reef Bay Rd"},{"Latitude":"18.3422410","Longitude":"-64.9368054","Name":"Regjerings Gade"},{"Latitude":"18.3280210","Longitude":"-64.7946130","Name":"Relis Street"},{"Latitude":"17.7426689","Longitude":"-64.7949939","Name":"Richards Lane"},{"Latitude":"18.3400654","Longitude":"-64.9259958","Name":"Richardson/Abbot Lane"},{"Latitude":"17.7419134","Longitude":"-64.7587611","Name":"Ridge Court"},{"Latitude":"17.7490631","Longitude":"-64.7582618","Name":"Ridge Road"},{"Latitude":"17.7490685","Longitude":"-64.8187945","Name":"River Road"},{"Latitude":"17.7290019","Longitude":"-64.8163439","Name":"River Road"},{"Latitude":"18.3270491","Longitude":"-64.7912959","Name":"Road of Regiment"},{"Latitude":"17.7759999","Longitude":"-64.7483983","Name":"Robin Circle"},{"Latitude":"17.7694984","Longitude":"-64.7470585","Name":"Robin Lane"},{"Latitude":"18.3224510","Longitude":"-64.7824400","Name":"Rock Ridge"},{"Latitude":"18.3239400","Longitude":"-64.7809000","Name":"Rock Ridge"},{"Latitude":"18.3217200","Longitude":"-64.7832200","Name":"Roman Rd"},{"Latitude":"18.3431113","Longitude":"-64.9361290","Name":"Rosen Gade"},{"Latitude":"17.6913083","Longitude":"-64.8245545","Name":"Royal Palm Drive"},{"Latitude":"18.3328227","Longitude":"-64.7815546","Name":"Rte 10"},{"Latitude":"18.3310100","Longitude":"-64.7787400","Name":"Rte 10 Alt"},{"Latitude":"18.3191100","Longitude":"-64.7032500","Name":"Rte 107"},{"Latitude":"17.7253030","Longitude":"-64.7628489","Name":"Ruby Lane"},{"Latitude":"18.3379999","Longitude":"-64.9406339","Name":"Rue de Saint Barthelemy"},{"Latitude":"17.7059192","Longitude":"-64.8185726","Name":"Rum Factory Road"},{"Latitude":"18.3272040","Longitude":"-64.7020818","Name":"S Quacco S"},{"Latitude":"17.7248614","Longitude":"-64.8306871","Name":"Sabra Drive"},{"Latitude":"18.3567704","Longitude":"-64.9416611","Name":"Saint Peter Mountain Road"},{"Latitude":"17.7167114","Longitude":"-64.7777767","Name":"Saldaña Street"},{"Latitude":"18.3423890","Longitude":"-64.7866210","Name":"Salomon Bay Rd"},{"Latitude":"18.3416832","Longitude":"-64.7885945","Name":"Salomon Bay Road"},{"Latitude":"18.3591975","Longitude":"-64.8982001","Name":"Salt Pond Road"},{"Latitude":"17.7772048","Longitude":"-64.7608701","Name":"Salt River Road"},{"Latitude":"17.7263205","Longitude":"-64.7547301","Name":"Saltfish Street"},{"Latitude":"17.7301195","Longitude":"-64.8188984","Name":"Samuel Schrader Road"},{"Latitude":"18.3446205","Longitude":"-64.8977562","Name":"Sanchez Drive"},{"Latitude":"18.3627723","Longitude":"-64.9055406","Name":"Sanderling Court"},{"Latitude":"17.7281800","Longitude":"-64.7698609","Name":"Sandpiper Lane"},{"Latitude":"17.7262281","Longitude":"-64.7627086","Name":"Saphire Street"},{"Latitude":"17.7334501","Longitude":"-64.7419859","Name":"Sasparilla Drive"},{"Latitude":"17.7686471","Longitude":"-64.7811705","Name":"Scenic Road"},{"Latitude":"17.7625600","Longitude":"-64.7960395","Name":"Scenic Road"},{"Latitude":"18.3285600","Longitude":"-64.7866100","Name":"Schmidt Close"},{"Latitude":"17.6854940","Longitude":"-64.8296143","Name":"Sea Grape Drive"},{"Latitude":"18.3487077","Longitude":"-64.7108129","Name":"Sea Grape Rd"},{"Latitude":"17.7340984","Longitude":"-64.6506251","Name":"Sea View Drive"},{"Latitude":"18.3230456","Longitude":"-64.7780036","Name":"Sea View Terrace"},{"Latitude":"18.3288100","Longitude":"-64.7972560","Name":"Seagrape Street"},{"Latitude":"17.7286588","Longitude":"-64.7642842","Name":"Seagull Lane"},{"Latitude":"17.7309544","Longitude":"-64.7562140","Name":"Sealey's Drive"},{"Latitude":"17.7567721","Longitude":"-64.6791672","Name":"Seaside Crescent Road"},{"Latitude":"18.3397837","Longitude":"-64.9203040","Name":"Second Street"},{"Latitude":"18.3281298","Longitude":"-64.7882698","Name":"Serendip Road"},{"Latitude":"17.7509548","Longitude":"-64.6305214","Name":"Seven Flags Road"},{"Latitude":"17.7561446","Longitude":"-64.6266460","Name":"Seven Flags Road"},{"Latitude":"18.3398714","Longitude":"-64.9173572","Name":"Seventh Street"},{"Latitude":"18.3249276","Longitude":"-64.7948544","Name":"Sewer Grove"},{"Latitude":"18.3297220","Longitude":"-64.7912400","Name":"Sewer Street"},{"Latitude":"18.3173567","Longitude":"-64.7773140","Name":"Shore Dr"},{"Latitude":"18.3288858","Longitude":"-64.7954801","Name":"Short St"},{"Latitude":"17.7573437","Longitude":"-64.6752741","Name":"Shoys Beach Road"},{"Latitude":"17.7507947","Longitude":"-64.6168259","Name":"Sierra Verde Road"},{"Latitude":"18.3438452","Longitude":"-64.9372560","Name":"Silke Gade"},{"Latitude":"17.7308837","Longitude":"-64.7575223","Name":"Silver Drive"},{"Latitude":"17.7239423","Longitude":"-64.7409274","Name":"Sion Valley Road"},{"Latitude":"18.3240453","Longitude":"-64.7907143","Name":"Sis Frank Down"},{"Latitude":"18.3242997","Longitude":"-64.7912882","Name":"Sis Frank Up"},{"Latitude":"18.3400293","Longitude":"-64.9178673","Name":"Sixth Street"},{"Latitude":"18.3449722","Longitude":"-64.9346933","Name":"Skov Gade"},{"Latitude":"17.7564794","Longitude":"-64.6786713","Name":"Skytop Lane"},{"Latitude":"18.3256362","Longitude":"-64.7608867","Name":"Skytop Rd"},{"Latitude":"18.3157000","Longitude":"-64.7885600","Name":"Skyview Ln"},{"Latitude":"18.3277400","Longitude":"-64.7971420","Name":"Small Pond Drive"},{"Latitude":"18.3431940","Longitude":"-64.9373478","Name":"Small Strade"},{"Latitude":"18.3267016","Longitude":"-64.8505332","Name":"Smith Bay Road"},{"Latitude":"17.7748849","Longitude":"-64.8026587","Name":"Smith Lane"},{"Latitude":"17.7439240","Longitude":"-64.7076720","Name":"Smith Street"},{"Latitude":"18.3420720","Longitude":"-64.9337503","Name":"Snegle Gade"},{"Latitude":"18.3630778","Longitude":"-64.9046876","Name":"Soro Court"},{"Latitude":"17.7484028","Longitude":"-64.7778945","Name":"Sour Sop Lane"},{"Latitude":"17.7488814","Longitude":"-64.7853060","Name":"Sour Sop Street"},{"Latitude":"18.3400928","Longitude":"-64.9255076","Name":"South Frederiksbergs Gade"},{"Latitude":"17.7464115","Longitude":"-64.7769062","Name":"South Lane"},{"Latitude":"17.7445859","Longitude":"-64.6591122","Name":"South Shore Road"},{"Latitude":"18.3209400","Longitude":"-64.7776500","Name":"South Side Road"},{"Latitude":"18.3212200","Longitude":"-64.7811000","Name":"South Side Road"},{"Latitude":"18.3258000","Longitude":"-64.7888400","Name":"Southside Road"},{"Latitude":"18.3265180","Longitude":"-64.7909960","Name":"Southside Road"},{"Latitude":"17.7548450","Longitude":"-64.6685016","Name":"Spicewood Road"},{"Latitude":"18.3232999","Longitude":"-64.7895914","Name":"Sprauve Drive"},{"Latitude":"17.7055143","Longitude":"-64.8825170","Name":"Square Deal Way"},{"Latitude":"17.7437195","Longitude":"-64.8019251","Name":"Squlaboro Road"},{"Latitude":"18.3293023","Longitude":"-64.7924663","Name":"St Ursula's Crescent"},{"Latitude":"17.7267310","Longitude":"-64.7634700","Name":"St. Ann's Road"},{"Latitude":"17.7162380","Longitude":"-64.8284237","Name":"St. George Road"},{"Latitude":"18.3273000","Longitude":"-64.7913000","Name":"Starfish Alley"},{"Latitude":"18.3273303","Longitude":"-64.7911382","Name":"Starfish Connection"},{"Latitude":"18.3279431","Longitude":"-64.7909225","Name":"Starfish Way"},{"Latitude":"17.7488100","Longitude":"-64.7864900","Name":"Starfruit Street"},{"Latitude":"18.3533590","Longitude":"-64.7169080","Name":"Stone House Rd"},{"Latitude":"18.3527960","Longitude":"-64.7161790","Name":"Stone House Rd"},{"Latitude":"18.3396721","Longitude":"-64.9357071","Name":"Stoners' Alley"},{"Latitude":"18.3438164","Longitude":"-64.9317923","Name":"Store Gronne Gade"},{"Latitude":"18.3421086","Longitude":"-64.9345017","Name":"Store Strade"},{"Latitude":"18.3421078","Longitude":"-64.9305286","Name":"Store Taarne Gade"},{"Latitude":"18.3417927","Longitude":"-64.9335787","Name":"Store Tvaer Gade"},{"Latitude":"18.3402696","Longitude":"-64.9347416","Name":"Strand Gade"},{"Latitude":"17.7463100","Longitude":"-64.7037786","Name":"Strand Lane"},{"Latitude":"17.7121493","Longitude":"-64.8833635","Name":"Strand Street"},{"Latitude":"18.3293852","Longitude":"-64.7985143","Name":"Strande Gade"},{"Latitude":"18.3300350","Longitude":"-64.7980400","Name":"Strande Gade"},{"Latitude":"17.7299785","Longitude":"-64.7601891","Name":"Strawberry Hill Drive"},{"Latitude":"17.7319041","Longitude":"-64.7593788","Name":"Strawberry Hill Drive"},{"Latitude":"18.3347559","Longitude":"-64.9631069","Name":"Sub Base Road"},{"Latitude":"18.3369364","Longitude":"-64.9573861","Name":"Sub Base Road"},{"Latitude":"17.7481407","Longitude":"-64.7854492","Name":"Sugar Apple Court"},{"Latitude":"17.7498057","Longitude":"-64.7762214","Name":"Sugar Apple Lane"},{"Latitude":"17.7472716","Longitude":"-64.7625933","Name":"Sugar Bird Drive"},{"Latitude":"17.6960826","Longitude":"-64.8422889","Name":"Sugar Cane Drive"},{"Latitude":"18.3443522","Longitude":"-64.8896507","Name":"Sugarapple Road"},{"Latitude":"17.7021944","Longitude":"-64.8835711","Name":"Sugarhill Road"},{"Latitude":"17.7330981","Longitude":"-64.6649911","Name":"Sundog Lane"},{"Latitude":"18.3689827","Longitude":"-64.9216692","Name":"Sunny Ridge"},{"Latitude":"18.3406726","Longitude":"-64.9479839","Name":"Sunrise cove"},{"Latitude":"17.7224376","Longitude":"-64.8715346","Name":"Sunset Circle"},{"Latitude":"17.7469472","Longitude":"-64.7612707","Name":"Sunset Court"},{"Latitude":"17.6917145","Longitude":"-64.8291133","Name":"Sunset Drive"},{"Latitude":"17.7312386","Longitude":"-64.6497907","Name":"Sunset Drive"},{"Latitude":"18.3185624","Longitude":"-64.7873699","Name":"Sunset Rd"},{"Latitude":"17.7329583","Longitude":"-64.7665740","Name":"Sunset Road"},{"Latitude":"17.7329960","Longitude":"-64.7452198","Name":"Sweet Scent Drive"},{"Latitude":"18.3676568","Longitude":"-64.9215437","Name":"Sydney's Fancy"},{"Latitude":"17.7220151","Longitude":"-64.8296592","Name":"Tacoma Road"},{"Latitude":"17.7327306","Longitude":"-64.6501169","Name":"Tamarind Drive"},{"Latitude":"18.3174890","Longitude":"-64.7787050","Name":"Tamarind Rd"},{"Latitude":"17.7469520","Longitude":"-64.7831760","Name":"Tamarind Street"},{"Latitude":"18.3474927","Longitude":"-64.8904654","Name":"Tamarino Circle"},{"Latitude":"17.7334117","Longitude":"-64.7526555","Name":"Tan Tan Drive"},{"Latitude":"17.7516923","Longitude":"-64.7798263","Name":"Tan Tan Street"},{"Latitude":"18.3467035","Longitude":"-64.8916698","Name":"Tanya Court"},{"Latitude":"17.7517061","Longitude":"-64.6109331","Name":"Teagues Bay Road"},{"Latitude":"18.3372092","Longitude":"-64.9166347","Name":"Tenth Street"},{"Latitude":"17.7258295","Longitude":"-64.7940952","Name":"The Casper Holstein Drive"},{"Latitude":"17.7049391","Longitude":"-64.8789492","Name":"The Oval Road"},{"Latitude":"18.3484774","Longitude":"-64.9449286","Name":"Theodore Boshulte Drive"},{"Latitude":"17.7313210","Longitude":"-64.7614529","Name":"Theresa Circle"},{"Latitude":"18.3408256","Longitude":"-64.9193331","Name":"Third Street"},{"Latitude":"17.7312175","Longitude":"-64.7686890","Name":"Tibet Street"},{"Latitude":"17.7347113","Longitude":"-64.7700773","Name":"Tibet Street"},{"Latitude":"17.7445737","Longitude":"-64.6535190","Name":"Tipperary Road"},{"Latitude":"17.7279950","Longitude":"-64.7640261","Name":"Titan Avenue"},{"Latitude":"18.3280284","Longitude":"-64.7982802","Name":"Tobacco Road"},{"Latitude":"18.3634589","Longitude":"-64.9015091","Name":"Tobago Drive"},{"Latitude":"18.3410706","Longitude":"-64.9307219","Name":"Tolbod Gade"},{"Latitude":"18.3412262","Longitude":"-64.9298947","Name":"Tolbod Pladsen East"},{"Latitude":"18.3409589","Longitude":"-64.9300846","Name":"Tolbod Pladsen West"},{"Latitude":"18.3431427","Longitude":"-64.9283578","Name":"Torvet Gade"},{"Latitude":"17.6879522","Longitude":"-64.8759506","Name":"Tranberg Road"},{"Latitude":"18.3211700","Longitude":"-64.7790000","Name":"Travler Trl"},{"Latitude":"18.3457962","Longitude":"-64.8976980","Name":"Triumph Road"},{"Latitude":"18.3405181","Longitude":"-64.9323732","Name":"Trompeter Gade"},{"Latitude":"17.7277207","Longitude":"-64.7682266","Name":"Tropic Brid Street"},{"Latitude":"17.7393719","Longitude":"-64.6898807","Name":"Tulipan Drive"},{"Latitude":"17.7396440","Longitude":"-64.6882185","Name":"Tulipan Lane"},{"Latitude":"17.7391874","Longitude":"-64.6888804","Name":"Tulipan Parkside"},{"Latitude":"17.7389473","Longitude":"-64.6901161","Name":"Tulipan Place"},{"Latitude":"17.7389431","Longitude":"-64.6895660","Name":"Tulipan Way"},{"Latitude":"18.3285546","Longitude":"-64.8826979","Name":"Turpentine Run Road"},{"Latitude":"18.3422493","Longitude":"-64.9333398","Name":"Tvaerbjerge Gade"},{"Latitude":"17.7038602","Longitude":"-64.8830595","Name":"Two Brothers Road"},{"Latitude":"17.7189573","Longitude":"-64.8306057","Name":"Two Friends Road"},{"Latitude":"17.7052244","Longitude":"-64.8569232","Name":"Two Williams Road"},{"Latitude":"17.7250837","Longitude":"-64.7952147","Name":"Unity Street"},{"Latitude":"18.3272440","Longitude":"-64.7893170","Name":"Upper Third"},{"Latitude":"18.3501302","Longitude":"-64.9029061","Name":"Upper Wintberg Road"},{"Latitude":"18.3464290","Longitude":"-64.7102790","Name":"Usher Key"},{"Latitude":"18.3284989","Longitude":"-64.7913501","Name":"Utility Court"},{"Latitude":"18.3288311","Longitude":"-64.7910711","Name":"Utility Park North"},{"Latitude":"18.3283270","Longitude":"-64.7911372","Name":"Utility Park South"},{"Latitude":"18.3482060","Longitude":"-64.9150176","Name":"Valdemar A. Hill Senior Drive"},{"Latitude":"17.7553834","Longitude":"-64.7601859","Name":"Valley Lane"},{"Latitude":"17.7204926","Longitude":"-64.8704789","Name":"Valley Road"},{"Latitude":"17.7559686","Longitude":"-64.6707510","Name":"Valley View Lane"},{"Latitude":"18.3407927","Longitude":"-64.9301577","Name":"Vendor's Road"},{"Latitude":"18.3302500","Longitude":"-64.7948600","Name":"Vester Gade"},{"Latitude":"18.3402239","Longitude":"-64.9299287","Name":"Veterans Drive"},{"Latitude":"17.6986740","Longitude":"-64.8875196","Name":"Veterans Shore Drive"},{"Latitude":"17.7288465","Longitude":"-64.7594489","Name":"Victor's Drive"},{"Latitude":"17.7241805","Longitude":"-64.7939751","Name":"Victory Street"},{"Latitude":"17.7304257","Longitude":"-64.7560423","Name":"Viewers Circle"},{"Latitude":"17.7537047","Longitude":"-64.7626880","Name":"Virgin Terrace"},{"Latitude":"17.7443365","Longitude":"-64.6829754","Name":"Von Scholten Gade"},{"Latitude":"17.7282460","Longitude":"-64.7565628","Name":"Wahoo Drive"},{"Latitude":"17.7373881","Longitude":"-64.6557463","Name":"Washington Lane"},{"Latitude":"17.7446338","Longitude":"-64.7086066","Name":"Watergut Street"},{"Latitude":"18.3239991","Longitude":"-64.7944706","Name":"Waterklip Road"},{"Latitude":"17.7036589","Longitude":"-64.8785135","Name":"Wells Way"},{"Latitude":"18.3537525","Longitude":"-64.8864943","Name":"West Harmony Drive"},{"Latitude":"18.3276800","Longitude":"-64.7932790","Name":"West Indian Company Dock Street"},{"Latitude":"17.7529802","Longitude":"-64.6735931","Name":"West Lane"},{"Latitude":"17.7409265","Longitude":"-64.7585741","Name":"West Ruby Road"},{"Latitude":"17.7630855","Longitude":"-64.7471347","Name":"West St. John Road"},{"Latitude":"17.7469162","Longitude":"-64.7109789","Name":"West Street"},{"Latitude":"17.7549617","Longitude":"-64.6713061","Name":"West Valley Road"},{"Latitude":"18.3347577","Longitude":"-64.9010890","Name":"Weymouth Rhymer Highway"},{"Latitude":"18.3287130","Longitude":"-64.7927940","Name":"Wharf Bypass"},{"Latitude":"17.6969891","Longitude":"-64.8573433","Name":"Whim Road"},{"Latitude":"17.7324595","Longitude":"-64.7421325","Name":"Wild Thyme Street"},{"Latitude":"18.3419261","Longitude":"-64.9327621","Name":"Wimmelskaft Gade"},{"Latitude":"17.7504653","Longitude":"-64.7764376","Name":"Windsor Lane"},{"Latitude":"18.3536984","Longitude":"-64.9026057","Name":"Wintberg Road"},{"Latitude":"17.7323704","Longitude":"-64.7434429","Name":"Worm Grass Drive"},{"Latitude":"17.7311965","Longitude":"-64.7568813","Name":"Wrinkle Way"},{"Latitude":"18.3658403","Longitude":"-64.9167114","Name":"Yellow Bird Road"},{"Latitude":"17.7469027","Longitude":"-64.6203182","Name":"Yellow Cliff Trail"},{"Latitude":"18.3274000","Longitude":"-64.7631300","Name":"Z Rd"},{"Latitude":"18.3272074","Longitude":"-64.7016087","Name":"Zimmer Ln"},{"Latitude":"18.3383516","Longitude":"-64.9242563","Name":"de Beltjen Road"},{"Latitude":"18.3513030","Longitude":"-64.7216810","Name":"la la Land Rd"}]