[{"Latitude":"24.0309009","Longitude":"-13.5581702","Name":"ASD-UMD"},{"Latitude":"27.1376320","Longitude":"-13.1846410","Name":"Anenue Al Forssane"},{"Latitude":"27.1414476","Longitude":"-13.1910570","Name":"Anenue Jamal Eddine Al Afghani"},{"Latitude":"27.1551260","Longitude":"-13.2009834","Name":"Avenue Abderahmane Ennaser"},{"Latitude":"23.6902626","Longitude":"-15.9400789","Name":"Avenue Abderrahim Bouaâbid"},{"Latitude":"27.1543610","Longitude":"-13.1887271","Name":"Avenue Abou Baker Seddik"},{"Latitude":"27.1392227","Longitude":"-13.1997173","Name":"Avenue Abou Elalae"},{"Latitude":"27.1535794","Longitude":"-13.2084657","Name":"Avenue Afghanistane"},{"Latitude":"27.1467210","Longitude":"-13.2074273","Name":"Avenue Al Azhar"},{"Latitude":"27.1378016","Longitude":"-13.1876077","Name":"Avenue Al Forssane"},{"Latitude":"23.6871333","Longitude":"-15.9456173","Name":"Avenue Al Mourabitine"},{"Latitude":"27.1395775","Longitude":"-13.1866890","Name":"Avenue Alkadar"},{"Latitude":"27.1495046","Longitude":"-13.2089336","Name":"Avenue Bait Al Makdis"},{"Latitude":"27.1398358","Longitude":"-13.1902631","Name":"Avenue Chakib Arsalan"},{"Latitude":"27.1403661","Longitude":"-13.1995855","Name":"Avenue Charif Al Idrissi"},{"Latitude":"27.1400082","Longitude":"-13.1996268","Name":"Avenue Charif Erradi"},{"Latitude":"27.1451524","Longitude":"-13.2051251","Name":"Avenue Egypte"},{"Latitude":"27.1409025","Longitude":"-13.1889401","Name":"Avenue El Laakad"},{"Latitude":"27.1498728","Longitude":"-13.2099545","Name":"Avenue Forces Auxilliaires"},{"Latitude":"27.1625203","Longitude":"-13.2060733","Name":"Avenue Hassan II شارع الحسن الثاني"},{"Latitude":"27.1390464","Longitude":"-13.1868955","Name":"Avenue Ibn Badis"},{"Latitude":"27.1372008","Longitude":"-13.1987644","Name":"Avenue Ibn Sina شارع ابن سينا"},{"Latitude":"27.1380246","Longitude":"-13.1964115","Name":"Avenue Ibnou Hazm"},{"Latitude":"23.7009543","Longitude":"-15.9298160","Name":"Avenue Imlili"},{"Latitude":"27.1396102","Longitude":"-13.1996726","Name":"Avenue Jabal Tariq"},{"Latitude":"27.1430411","Longitude":"-13.1910506","Name":"Avenue Kacem Amine"},{"Latitude":"27.1388608","Longitude":"-13.1997590","Name":"Avenue Melilia شارع ملياية"},{"Latitude":"27.1596494","Longitude":"-13.2056871","Name":"Avenue Mohamed V شارع الحسن الثاني"},{"Latitude":"27.1392017","Longitude":"-13.1877679","Name":"Avenue Mohammed Al Hiba"},{"Latitude":"27.1564075","Longitude":"-13.2042674","Name":"Avenue Molay Ismail شارع مولاي اسماعيل"},{"Latitude":"27.1546147","Longitude":"-13.2081828","Name":"Avenue Moulay Youssef شارع مولاي يوسف"},{"Latitude":"27.1504978","Longitude":"-13.2009213","Name":"Avenue Oum Arrabie"},{"Latitude":"27.1385973","Longitude":"-13.1997893","Name":"Avenue Sebta"},{"Latitude":"27.1537475","Longitude":"-13.1997581","Name":"Avenue Sif Dawla"},{"Latitude":"27.1443703","Longitude":"-13.2007967","Name":"Avenue Somalie"},{"Latitude":"27.1499623","Longitude":"-13.2109107","Name":"Avenue Tayarane"},{"Latitude":"27.1383270","Longitude":"-13.1998204","Name":"Avenue Tchad"},{"Latitude":"23.6949477","Longitude":"-15.9349380","Name":"Avenue Tinghir"},{"Latitude":"27.1632353","Longitude":"-13.2154264","Name":"Boulevard 20 Août شارع 20 غشت"},{"Latitude":"27.1380824","Longitude":"-13.1945755","Name":"Boulevard 23 Mars"},{"Latitude":"27.1519696","Longitude":"-13.2007625","Name":"Boulevard 24 Novembre 1975"},{"Latitude":"27.1642289","Longitude":"-13.2068378","Name":"Boulevard 28 Fevrier"},{"Latitude":"23.6989768","Longitude":"-15.9308797","Name":"Boulevard 4 Mars شارع 4 مارس"},{"Latitude":"27.1442870","Longitude":"-13.1835289","Name":"Boulevard Abd El Moumen Al Mouwahhid"},{"Latitude":"23.7104398","Longitude":"-15.9240853","Name":"Boulevard Abdellah Ben El Farrah شارع عبد ﷲ بن الفراح"},{"Latitude":"23.6949072","Longitude":"-15.9391236","Name":"Boulevard Abdellah Chefchaouan"},{"Latitude":"27.1318031","Longitude":"-13.1991854","Name":"Boulevard Abou Firas Al hamadani"},{"Latitude":"27.1361952","Longitude":"-13.2018290","Name":"Boulevard Abou Hanbal"},{"Latitude":"27.1330910","Longitude":"-13.2005682","Name":"Boulevard Abou Hanifa"},{"Latitude":"27.1537284","Longitude":"-13.1976458","Name":"Boulevard Abou Inane"},{"Latitude":"27.1523172","Longitude":"-13.2084477","Name":"Boulevard Abou Jihad"},{"Latitude":"27.1454141","Longitude":"-13.1952121","Name":"Boulevard Achaouia شارع الشاوية"},{"Latitude":"27.1352276","Longitude":"-13.1929894","Name":"Boulevard Achariqua"},{"Latitude":"23.7088761","Longitude":"-15.9247364","Name":"Boulevard Ahl Ismail Mohamed Salek"},{"Latitude":"23.6903581","Longitude":"-15.9400032","Name":"Boulevard Ahmed Ben Chekroun شارع أحمد بن شقرون"},{"Latitude":"23.6909694","Longitude":"-15.9365775","Name":"Boulevard Ahmed Errifai شارع أحمد الرفاعي"},{"Latitude":"23.7317448","Longitude":"-15.9190109","Name":"Boulevard Ajmiaa شارع الجمعية"},{"Latitude":"27.1384486","Longitude":"-13.1843150","Name":"Boulevard Al Baat"},{"Latitude":"27.1340953","Longitude":"-13.1941544","Name":"Boulevard Al Foujayra"},{"Latitude":"27.1421923","Longitude":"-13.1899385","Name":"Boulevard Al Guiza"},{"Latitude":"27.1327849","Longitude":"-13.2008499","Name":"Boulevard Al Haramayne"},{"Latitude":"27.1480591","Longitude":"-13.2080645","Name":"Boulevard Al Hijaz"},{"Latitude":"27.1439331","Longitude":"-13.2024192","Name":"Boulevard Al Hilal Al Khacib"},{"Latitude":"27.1312170","Longitude":"-13.1875460","Name":"Boulevard Al Hizam Al Kabir"},{"Latitude":"27.1343955","Longitude":"-13.2011772","Name":"Boulevard Al Imara"},{"Latitude":"27.1546600","Longitude":"-13.2016456","Name":"Boulevard Al Kayrawane"},{"Latitude":"27.1332929","Longitude":"-13.2022602","Name":"Boulevard Al Khaouarizmi"},{"Latitude":"27.1314880","Longitude":"-13.1984063","Name":"Boulevard Al Kinidi"},{"Latitude":"27.1476759","Longitude":"-13.1904227","Name":"Boulevard Al Maghreb Al Arabi"},{"Latitude":"23.6965496","Longitude":"-15.9354108","Name":"Boulevard Al Masjid"},{"Latitude":"27.1368668","Longitude":"-13.1888904","Name":"Boulevard Al Moatamid Ben Abbad"},{"Latitude":"23.7007045","Longitude":"-15.9306569","Name":"Boulevard Al Moukaouama شارع ا؛مقاومة"},{"Latitude":"23.7292891","Longitude":"-15.9182287","Name":"Boulevard Al Oualaa"},{"Latitude":"27.1365204","Longitude":"-13.1867782","Name":"Boulevard Al Ouma"},{"Latitude":"27.1479766","Longitude":"-13.1914440","Name":"Boulevard Al Qods"},{"Latitude":"27.1367682","Longitude":"-13.1992399","Name":"Boulevard Al Samai"},{"Latitude":"27.1355364","Longitude":"-13.2010140","Name":"Boulevard Al Wahda Al Arabia"},{"Latitude":"23.7025969","Longitude":"-15.9282955","Name":"Boulevard Al Walaa"},{"Latitude":"27.1332580","Longitude":"-13.1860037","Name":"Boulevard Ali Bnou Abi Taleb"},{"Latitude":"23.6992841","Longitude":"-15.9356475","Name":"Boulevard Ali Oueld El Ben"},{"Latitude":"23.7021463","Longitude":"-15.9276265","Name":"Boulevard Allal Ben Abdelleh شارع علال بن عبد ﷲ"},{"Latitude":"23.7361606","Longitude":"-15.9172784","Name":"Boulevard Arjagma شارع ارجكمة"},{"Latitude":"27.1499623","Longitude":"-13.2109107","Name":"Boulevard Arrajae"},{"Latitude":"27.1589084","Longitude":"-13.2165936","Name":"Boulevard Asalek Belaid"},{"Latitude":"23.6959303","Longitude":"-15.9380526","Name":"Boulevard Bahia Aini"},{"Latitude":"27.1597532","Longitude":"-13.2176484","Name":"Boulevard Ben Chikh Al Wali"},{"Latitude":"27.1444378","Longitude":"-13.1993365","Name":"Boulevard Boukraa شارع بوكراع"},{"Latitude":"27.1435073","Longitude":"-13.1925374","Name":"Boulevard Boursaid شارع بور سعيد"},{"Latitude":"22.0526235","Longitude":"-16.7506944","Name":"Boulevard Casablanca شارع الدار البيضاء‎"},{"Latitude":"27.1497758","Longitude":"-13.2087552","Name":"Boulevard Cham"},{"Latitude":"27.1436639","Longitude":"-13.2031336","Name":"Boulevard Dar Assalam"},{"Latitude":"27.1513359","Longitude":"-13.1873998","Name":"Boulevard Deux Mars"},{"Latitude":"27.1352586","Longitude":"-13.1925530","Name":"Boulevard Doubai"},{"Latitude":"23.6990339","Longitude":"-15.9331101","Name":"Boulevard El Achariate شارع العشاريات"},{"Latitude":"23.6961035","Longitude":"-15.9339835","Name":"Boulevard El Argoube"},{"Latitude":"23.6976690","Longitude":"-15.9390470","Name":"Boulevard El Hassan Bengellon"},{"Latitude":"23.7284532","Longitude":"-15.9201901","Name":"Boulevard Esbita شارع السبيطة"},{"Latitude":"23.7301576","Longitude":"-15.9209466","Name":"Boulevard Essmamit شارع السماميط"},{"Latitude":"23.7055296","Longitude":"-15.9253129","Name":"Boulevard Faj شارع الفج"},{"Latitude":"23.7276205","Longitude":"-15.9204358","Name":"Boulevard Fasak شارع فصك"},{"Latitude":"23.6876930","Longitude":"-15.9380870","Name":"Boulevard Habouha Ben Soudani شارع حبوها بن السوداني"},{"Latitude":"27.1547765","Longitude":"-13.2064023","Name":"Boulevard Haj Baba Ahmed"},{"Latitude":"27.1368252","Longitude":"-13.1870675","Name":"Boulevard Hammou Zayani"},{"Latitude":"23.6900416","Longitude":"-15.9424724","Name":"Boulevard Hassan Ben Jaloun شارع حسن بن جلون"},{"Latitude":"23.7013200","Longitude":"-15.9286847","Name":"Boulevard Hassan II شارع الحسن الثاني"},{"Latitude":"27.1600087","Longitude":"-13.2147101","Name":"Boulevard Ibn Battouta شارع ابن بطوطة"},{"Latitude":"27.1425450","Longitude":"-13.1921929","Name":"Boulevard Ibnou Al Qayyim شارع إبن القيم"},{"Latitude":"27.1411767","Longitude":"-13.1886992","Name":"Boulevard Ibrahim Al Mazini"},{"Latitude":"23.6934351","Longitude":"-15.9356249","Name":"Boulevard Idriss I شارع ادريس الاول"},{"Latitude":"23.6881095","Longitude":"-15.9404987","Name":"Boulevard Idriss Lamhamed"},{"Latitude":"23.6993183","Longitude":"-15.9303713","Name":"Boulevard Imlili شارع إمليلي"},{"Latitude":"27.1582748","Longitude":"-13.2217361","Name":"Boulevard Khalid Ibn Al Walid شارع خالد ابن الوليد"},{"Latitude":"23.6929930","Longitude":"-15.9371208","Name":"Boulevard Lasarga شارع لاسركا"},{"Latitude":"27.1543549","Longitude":"-13.2006794","Name":"Boulevard Mansour Addahbi"},{"Latitude":"22.0574701","Longitude":"-16.7533135","Name":"Boulevard Marrakech"},{"Latitude":"27.1433899","Longitude":"-13.1927684","Name":"Boulevard Mezouar شارع مزوار"},{"Latitude":"27.1611606","Longitude":"-13.2130105","Name":"Boulevard Mohamed Al Khallouqi"},{"Latitude":"23.7010947","Longitude":"-15.9289859","Name":"Boulevard Mohamed Hassan El Ouzan شارع محمد حسن الوزاني"},{"Latitude":"23.7125370","Longitude":"-15.9241793","Name":"Boulevard Mohamed Salem Ben Abdellah Bahia"},{"Latitude":"23.6910062","Longitude":"-15.9361571","Name":"Boulevard Mohamed V شارع محمد الخامس"},{"Latitude":"27.1523323","Longitude":"-13.1953740","Name":"Boulevard Mohamed Zarqtoni"},{"Latitude":"23.6899714","Longitude":"-15.9470400","Name":"Boulevard Mohammed Bahnini"},{"Latitude":"22.0557294","Longitude":"-16.7498929","Name":"Boulevard Mohammed Fadel Essamlali شارع محمد فاضل السملالي"},{"Latitude":"23.6903959","Longitude":"-15.9469577","Name":"Boulevard Mohammed Fadel Semlali"},{"Latitude":"23.7115954","Longitude":"-15.9213814","Name":"Boulevard Mohammed Salem Ben Abdellah Bahia"},{"Latitude":"23.7113789","Longitude":"-15.9215400","Name":"Boulevard Mohammed V"},{"Latitude":"23.6870073","Longitude":"-15.9448847","Name":"Boulevard Mouahites شارع الموحدين"},{"Latitude":"27.1575001","Longitude":"-13.1992491","Name":"Boulevard Moulay Abdellah"},{"Latitude":"27.1424798","Longitude":"-13.1984125","Name":"Boulevard Moulay Ali Cherif"},{"Latitude":"27.1509506","Longitude":"-13.2064005","Name":"Boulevard Moulay Hassan I"},{"Latitude":"23.7026889","Longitude":"-15.9265619","Name":"Boulevard Moulay Ismail شارع مولاي إسماعيل"},{"Latitude":"27.1571120","Longitude":"-13.2112217","Name":"Boulevard Moulay Youssef"},{"Latitude":"22.0545472","Longitude":"-16.7524562","Name":"Boulevard Nekjire شارع نكجير"},{"Latitude":"27.1359699","Longitude":"-13.1834022","Name":"Boulevard Omar Ben Yasser"},{"Latitude":"27.1555537","Longitude":"-13.2029113","Name":"Boulevard Omar Ibn Al Kattab"},{"Latitude":"22.0544944","Longitude":"-16.7496463","Name":"Boulevard Oued Archane شارع واد ارشان"},{"Latitude":"22.0552250","Longitude":"-16.7481496","Name":"Boulevard Oued El Janna شارع واد الجنة"},{"Latitude":"23.7003621","Longitude":"-15.9311062","Name":"Boulevard Oulad Dlim شارع أولاد الدليم"},{"Latitude":"27.1497037","Longitude":"-13.2096618","Name":"Boulevard Oum Al Qora"},{"Latitude":"27.1367624","Longitude":"-13.1931062","Name":"Boulevard Ras Al Khaima"},{"Latitude":"27.1640816","Longitude":"-13.2132288","Name":"Boulevard Razi"},{"Latitude":"23.6887424","Longitude":"-15.9464467","Name":"Boulevard Saadiennes شارع السعديين"},{"Latitude":"23.7356947","Longitude":"-15.9151702","Name":"Boulevard Salah Edin Al Ayoubi"},{"Latitude":"23.6977569","Longitude":"-15.9319046","Name":"Boulevard Sid Ahmed Laroussi شارع سيد احمد لعروسي"},{"Latitude":"27.1619571","Longitude":"-13.2124557","Name":"Boulevard Sidi Boya"},{"Latitude":"27.1434764","Longitude":"-13.2039059","Name":"Boulevard Sinae"},{"Latitude":"27.1408743","Longitude":"-13.1971644","Name":"Boulevard Skikima شارع السكيكيمة"},{"Latitude":"27.1445970","Longitude":"-13.2013312","Name":"Boulevard Somalie"},{"Latitude":"27.1454666","Longitude":"-13.2057444","Name":"Boulevard Soudan"},{"Latitude":"27.1368191","Longitude":"-13.1962530","Name":"Boulevard Tabarani"},{"Latitude":"27.1433631","Longitude":"-13.1920559","Name":"Boulevard Taha Houceine شارع طه حسين"},{"Latitude":"27.1449594","Longitude":"-13.2060549","Name":"Boulevard Tarablous"},{"Latitude":"23.6893053","Longitude":"-15.9498947","Name":"Boulevard Tarik Ibn Zayad شارع طارق بن زياد"},{"Latitude":"22.0538468","Longitude":"-16.7504731","Name":"Boulevard Tichla شارع تيشلا"},{"Latitude":"23.7328381","Longitude":"-15.9185288","Name":"Boulevard Tmaya شارع تماية"},{"Latitude":"27.1536431","Longitude":"-13.1994208","Name":"Boulevard Yacoub El Mansour"},{"Latitude":"27.1485077","Longitude":"-13.2096474","Name":"Boulevard Yatrib"},{"Latitude":"27.1565100","Longitude":"-13.2062605","Name":"Boulevard Youssef Ibn Tachafine شارع يوسف بن تاشفين"},{"Latitude":"27.1585492","Longitude":"-13.2074327","Name":"Boulevard de la Mecque"},{"Latitude":"23.7036791","Longitude":"-15.9290212","Name":"Boulevard des F.A.R."},{"Latitude":"27.1385721","Longitude":"-13.1943259","Name":"Boulevard du Niget"},{"Latitude":"27.2028331","Longitude":"-9.6339954","Name":"MAB F17 SMA-EUN"},{"Latitude":"27.1354057","Longitude":"-13.1981167","Name":"Rond Point El Houda"},{"Latitude":"27.3373838","Longitude":"-11.6969928","Name":"Route Nationale 14 / الطريق الوطنية 14"},{"Latitude":"26.7326723","Longitude":"-11.7016204","Name":"Route Nationale 17 / الطريق الوطنية 17"},{"Latitude":"26.7423048","Longitude":"-11.6652184","Name":"Route Nationale 17B / الطريق الوطنية 17 ب"},{"Latitude":"25.0630683","Longitude":"-12.1407911","Name":"Route Nationale 17C / الطريق الوطنية 17 ت"},{"Latitude":"21.3377904","Longitude":"-13.0690957","Name":"Route Nationale 17F / الطريق الوطنية 17 ح"},{"Latitude":"23.7014795","Longitude":"-15.9287294","Name":"Route Nationale 1B"},{"Latitude":"22.2473699","Longitude":"-13.3371355","Name":"Route Nationale 3 / الطريق الوطنية 3"},{"Latitude":"23.6899943","Longitude":"-15.9471978","Name":"Route du Port"},{"Latitude":"27.1494880","Longitude":"-13.1975748","Name":"Rue 1"},{"Latitude":"27.1464249","Longitude":"-13.2092339","Name":"Rue 10"},{"Latitude":"27.1509289","Longitude":"-13.2088642","Name":"Rue 11"},{"Latitude":"27.1632547","Longitude":"-13.2135037","Name":"Rue 12"},{"Latitude":"27.1600503","Longitude":"-13.2127111","Name":"Rue 13"},{"Latitude":"27.1390495","Longitude":"-13.1939044","Name":"Rue 14"},{"Latitude":"27.1352652","Longitude":"-13.1881369","Name":"Rue 15"},{"Latitude":"27.1545456","Longitude":"-13.2059083","Name":"Rue 16"},{"Latitude":"27.1349934","Longitude":"-13.2003864","Name":"Rue 17"},{"Latitude":"27.1477639","Longitude":"-13.2066534","Name":"Rue 18"},{"Latitude":"27.1588750","Longitude":"-13.2173695","Name":"Rue 19"},{"Latitude":"27.1375086","Longitude":"-13.1882644","Name":"Rue 2"},{"Latitude":"27.1571928","Longitude":"-13.2061734","Name":"Rue 20"},{"Latitude":"27.1567457","Longitude":"-13.2049761","Name":"Rue 21"},{"Latitude":"27.1394036","Longitude":"-13.1924330","Name":"Rue 22"},{"Latitude":"27.1586745","Longitude":"-13.2163174","Name":"Rue 23"},{"Latitude":"27.1380799","Longitude":"-13.1928891","Name":"Rue 24"},{"Latitude":"27.1381381","Longitude":"-13.1924296","Name":"Rue 25"},{"Latitude":"27.1371537","Longitude":"-13.1917579","Name":"Rue 26"},{"Latitude":"27.1372777","Longitude":"-13.1913447","Name":"Rue 27"},{"Latitude":"27.1373994","Longitude":"-13.1909511","Name":"Rue 28"},{"Latitude":"27.1375068","Longitude":"-13.1906231","Name":"Rue 29"},{"Latitude":"27.1537520","Longitude":"-13.2068883","Name":"Rue 3"},{"Latitude":"27.1545948","Longitude":"-13.2001966","Name":"Rue 30"},{"Latitude":"27.1635700","Longitude":"-13.2125192","Name":"Rue 32"},{"Latitude":"27.1378732","Longitude":"-13.1951503","Name":"Rue 33"},{"Latitude":"27.1378501","Longitude":"-13.2021478","Name":"Rue 35"},{"Latitude":"27.1377953","Longitude":"-13.2017744","Name":"Rue 36"},{"Latitude":"27.1373752","Longitude":"-13.2018249","Name":"Rue 37"},{"Latitude":"27.1419452","Longitude":"-13.1896046","Name":"Rue 38"},{"Latitude":"27.1384836","Longitude":"-13.1960091","Name":"Rue 39"},{"Latitude":"23.7337827","Longitude":"-15.9185302","Name":"Rue 4"},{"Latitude":"23.7291396","Longitude":"-15.9199283","Name":"Rue 40"},{"Latitude":"27.1522201","Longitude":"-13.2019763","Name":"Rue 42"},{"Latitude":"27.1513120","Longitude":"-13.2007471","Name":"Rue 43"},{"Latitude":"27.1509719","Longitude":"-13.2010636","Name":"Rue 44"},{"Latitude":"27.1517995","Longitude":"-13.2010127","Name":"Rue 45"},{"Latitude":"23.7341276","Longitude":"-15.9196602","Name":"Rue 46"},{"Latitude":"27.1376826","Longitude":"-13.1993328","Name":"Rue 5"},{"Latitude":"27.1373752","Longitude":"-13.2018249","Name":"Rue 6"},{"Latitude":"27.1341628","Longitude":"-13.2000229","Name":"Rue 7"},{"Latitude":"27.1429583","Longitude":"-13.1954943","Name":"Rue 8"},{"Latitude":"27.1541273","Longitude":"-13.2070193","Name":"Rue 9"},{"Latitude":"23.7328973","Longitude":"-15.9162001","Name":"Rue 95"},{"Latitude":"23.7388725","Longitude":"-15.9139605","Name":"Rue 96"},{"Latitude":"27.1438805","Longitude":"-13.1938221","Name":"Rue Abdelakrim El Khattabi"},{"Latitude":"27.1455035","Longitude":"-13.1943349","Name":"Rue Abdelkrim El khattabi"},{"Latitude":"27.1635483","Longitude":"-13.2158013","Name":"Rue Abdellah Ibnou Yassine"},{"Latitude":"27.1642184","Longitude":"-13.2152375","Name":"Rue Abdesslam Ben Mchich"},{"Latitude":"27.1431344","Longitude":"-13.1962514","Name":"Rue Abou Al Kacem Azayani"},{"Latitude":"27.1564859","Longitude":"-13.2032845","Name":"Rue Agadir زنقة أكادير"},{"Latitude":"23.6993183","Longitude":"-15.9303713","Name":"Rue Aghwinit زنقة اغوينيت"},{"Latitude":"27.1536234","Longitude":"-13.2041690","Name":"Rue Ahmed Hammadi"},{"Latitude":"27.1470235","Longitude":"-13.2078750","Name":"Rue Ain Touba"},{"Latitude":"27.1343906","Longitude":"-13.1879845","Name":"Rue Al Aghrad"},{"Latitude":"27.1378178","Longitude":"-13.1886469","Name":"Rue Al Alae"},{"Latitude":"27.1365204","Longitude":"-13.1867782","Name":"Rue Al Bahja"},{"Latitude":"27.1445211","Longitude":"-13.1950907","Name":"Rue Al Fachtali"},{"Latitude":"27.1362011","Longitude":"-13.1872644","Name":"Rue Al Farah"},{"Latitude":"27.1333950","Longitude":"-13.1936578","Name":"Rue Al Hana"},{"Latitude":"27.1363542","Longitude":"-13.1933964","Name":"Rue Al Hilal"},{"Latitude":"27.1483009","Longitude":"-13.2086298","Name":"Rue Al Jama"},{"Latitude":"27.1333950","Longitude":"-13.1936578","Name":"Rue Al Jazira"},{"Latitude":"27.1462299","Longitude":"-13.2056942","Name":"Rue Al Jihad"},{"Latitude":"27.1357121","Longitude":"-13.1930263","Name":"Rue Al Khayma"},{"Latitude":"27.1549313","Longitude":"-13.1992163","Name":"Rue Al Louh"},{"Latitude":"27.1656550","Longitude":"-13.2103639","Name":"Rue Alahmari زنقة الأحمري"},{"Latitude":"27.1466855","Longitude":"-13.1980683","Name":"Rue Alkalaa"},{"Latitude":"23.6940418","Longitude":"-15.9367126","Name":"Rue Almahbas زنقة المبس"},{"Latitude":"27.1566269","Longitude":"-13.2032023","Name":"Rue Amgala"},{"Latitude":"27.1341236","Longitude":"-13.1937365","Name":"Rue Arridwane"},{"Latitude":"27.1360349","Longitude":"-13.1933656","Name":"Rue Arrimal"},{"Latitude":"27.1354818","Longitude":"-13.1877974","Name":"Rue Arromane زنقة الرمان"},{"Latitude":"27.1499805","Longitude":"-13.2007554","Name":"Rue Assila"},{"Latitude":"27.1414329","Longitude":"-13.1988353","Name":"Rue Azemmour"},{"Latitude":"27.1563099","Longitude":"-13.2033857","Name":"Rue Azrou زنقة أزرو"},{"Latitude":"23.6943341","Longitude":"-15.9362500","Name":"Rue Azzak زنقة الزاك"},{"Latitude":"27.1547765","Longitude":"-13.2064023","Name":"Rue Bagdad زنقة بغداد"},{"Latitude":"27.1634672","Longitude":"-13.2151441","Name":"Rue Ben Arabi"},{"Latitude":"27.1456719","Longitude":"-13.1978262","Name":"Rue Ben Smim"},{"Latitude":"27.1470308","Longitude":"-13.1979893","Name":"Rue Berchid"},{"Latitude":"27.1561540","Longitude":"-13.2038065","Name":"Rue Berkane زنقة بركان"},{"Latitude":"27.1420248","Longitude":"-13.2010021","Name":"Rue Bir Jdid"},{"Latitude":"27.1475172","Longitude":"-13.1954812","Name":"Rue Boudnibe"},{"Latitude":"27.1337203","Longitude":"-13.2027192","Name":"Rue Boulanoire"},{"Latitude":"27.1473348","Longitude":"-13.1971783","Name":"Rue Boulemane زنقة بولمان"},{"Latitude":"27.1555537","Longitude":"-13.2029113","Name":"Rue Casablanca زنقة الدار البيضاء"},{"Latitude":"27.1560183","Longitude":"-13.2018663","Name":"Rue Chaouia"},{"Latitude":"27.1538258","Longitude":"-13.2021381","Name":"Rue Chefchaouen زنقة شفشاون"},{"Latitude":"27.1463507","Longitude":"-13.1973068","Name":"Rue Chiadma"},{"Latitude":"27.1554641","Longitude":"-13.2042293","Name":"Rue Daoura"},{"Latitude":"23.6898967","Longitude":"-15.9375311","Name":"Rue Eddaoura زنقة الدورة"},{"Latitude":"27.1555673","Longitude":"-13.2041636","Name":"Rue El Hagounia"},{"Latitude":"27.1555088","Longitude":"-13.2024061","Name":"Rue El Jadida"},{"Latitude":"27.1644228","Longitude":"-13.2098693","Name":"Rue Ennabet زنقة النبط"},{"Latitude":"27.1489827","Longitude":"-13.1998806","Name":"Rue Errachidia زنقة الراشدية"},{"Latitude":"23.7080205","Longitude":"-15.9254355","Name":"Rue Fares زنقة فارس"},{"Latitude":"27.1330509","Longitude":"-13.1827609","Name":"Rue Flala"},{"Latitude":"27.1557057","Longitude":"-13.2020541","Name":"Rue Fés"},{"Latitude":"23.6927385","Longitude":"-15.9374107","Name":"Rue Gargar"},{"Latitude":"27.1380888","Longitude":"-13.2010705","Name":"Rue Garger"},{"Latitude":"27.1636061","Longitude":"-13.2162510","Name":"Rue Hassan Ibnou tabit"},{"Latitude":"27.1407026","Longitude":"-13.1988116","Name":"Rue Hassan Ouazzani"},{"Latitude":"27.1650815","Longitude":"-13.2102596","Name":"Rue Hounain زنقة حنين"},{"Latitude":"27.1424619","Longitude":"-13.1957248","Name":"Rue Ibn Al Abar"},{"Latitude":"27.1441808","Longitude":"-13.1962565","Name":"Rue Ibn Doja"},{"Latitude":"27.1344523","Longitude":"-13.2017307","Name":"Rue Ibn Tofail زنقة ابن طفيل"},{"Latitude":"27.1635215","Longitude":"-13.2155848","Name":"Rue Ibn Toumert"},{"Latitude":"27.1454535","Longitude":"-13.1948253","Name":"Rue Ibnou Hayous"},{"Latitude":"27.1643047","Longitude":"-13.2159049","Name":"Rue Ibnou Rochd"},{"Latitude":"23.6956632","Longitude":"-15.9382292","Name":"Rue Ibrahim Oueld Bih"},{"Latitude":"27.1545587","Longitude":"-13.2028839","Name":"Rue Ifrane زنقة إفران"},{"Latitude":"27.1612112","Longitude":"-13.2133417","Name":"Rue Imam Jazouli"},{"Latitude":"27.1346528","Longitude":"-13.1842006","Name":"Rue Izrikiyene"},{"Latitude":"27.1631739","Longitude":"-13.2163812","Name":"Rue Jaber"},{"Latitude":"27.1548531","Longitude":"-13.2033307","Name":"Rue Jdiria"},{"Latitude":"27.1458676","Longitude":"-13.1987470","Name":"Rue Khmisset"},{"Latitude":"27.1495542","Longitude":"-13.2004260","Name":"Rue Khnifra زنقة خنيفرة"},{"Latitude":"27.1658324","Longitude":"-13.2097569","Name":"Rue Knidelf زنقة كنيدلف"},{"Latitude":"27.1338548","Longitude":"-13.2018116","Name":"Rue Lahmada"},{"Latitude":"27.1350754","Longitude":"-13.2024159","Name":"Rue Largoube"},{"Latitude":"27.1317480","Longitude":"-13.1954290","Name":"Rue Larousyene"},{"Latitude":"27.1366720","Longitude":"-13.2012083","Name":"Rue Majd"},{"Latitude":"23.6984027","Longitude":"-15.9316985","Name":"Rue Mansour Ali Jabar زنقة منصور علي جابر"},{"Latitude":"27.1559104","Longitude":"-13.2039524","Name":"Rue Marrakech زنقة مراكش"},{"Latitude":"27.1553206","Longitude":"-13.2030475","Name":"Rue Meknes زنقة مكناس"},{"Latitude":"27.1558207","Longitude":"-13.2027552","Name":"Rue Midelt زنقة ميدلت"},{"Latitude":"27.1355388","Longitude":"-13.1804569","Name":"Rue Mirane"},{"Latitude":"27.1641096","Longitude":"-13.2143037","Name":"Rue Mohamed Abbou"},{"Latitude":"27.1641442","Longitude":"-13.2145558","Name":"Rue Mokhtar Soussi زنقة المختار السوسي"},{"Latitude":"27.1601935","Longitude":"-13.2159358","Name":"Rue Moulay Driss"},{"Latitude":"27.1640786","Longitude":"-13.2140704","Name":"Rue Mouslim"},{"Latitude":"27.1641705","Longitude":"-13.2148026","Name":"Rue Moussa Ibn Noussair زنقة موسى ابن نصير"},{"Latitude":"23.6996053","Longitude":"-15.9297450","Name":"Rue Nasr زنقة النصر"},{"Latitude":"23.7356961","Longitude":"-15.9170288","Name":"Rue No. 1"},{"Latitude":"23.7300166","Longitude":"-15.9209184","Name":"Rue No. 18"},{"Latitude":"23.6900955","Longitude":"-15.9443601","Name":"Rue No. 3"},{"Latitude":"23.6897509","Longitude":"-15.9489571","Name":"Rue No. 58"},{"Latitude":"23.6893254","Longitude":"-15.9449054","Name":"Rue No. 7"},{"Latitude":"23.7342796","Longitude":"-15.9174877","Name":"Rue No. 8"},{"Latitude":"23.7339253","Longitude":"-15.9173306","Name":"Rue No. 9"},{"Latitude":"27.1424425","Longitude":"-13.2013723","Name":"Rue Nouadibou"},{"Latitude":"27.1378153","Longitude":"-13.1963520","Name":"Rue Noujoud"},{"Latitude":"27.1544754","Longitude":"-13.1988797","Name":"Rue N° 31"},{"Latitude":"27.1538078","Longitude":"-13.1987298","Name":"Rue N° 33"},{"Latitude":"27.1643644","Longitude":"-13.2094777","Name":"Rue Ouadi Daraa زنقة وادي درعة"},{"Latitude":"27.1493287","Longitude":"-13.2011331","Name":"Rue Ouarzazate"},{"Latitude":"23.6942560","Longitude":"-15.9338347","Name":"Rue Oued Ahbari زنقة واد أحباري"},{"Latitude":"27.1327006","Longitude":"-13.1877726","Name":"Rue Oued Ahmed"},{"Latitude":"27.1332485","Longitude":"-13.1875651","Name":"Rue Oued Amserdad"},{"Latitude":"27.1447241","Longitude":"-13.1993317","Name":"Rue Oued Baht زنقة واد بهت"},{"Latitude":"27.1344467","Longitude":"-13.1845984","Name":"Rue Oued Benb"},{"Latitude":"23.6893838","Longitude":"-15.9382390","Name":"Rue Oued Essaouira زنقة وادي الصويرة"},{"Latitude":"27.1340177","Longitude":"-13.1881767","Name":"Rue Oued Kamal"},{"Latitude":"23.7084524","Longitude":"-15.9243808","Name":"Rue Oued Laabid"},{"Latitude":"27.1641293","Longitude":"-13.2108946","Name":"Rue Oued Loukouss زنقة وادي لوكوس"},{"Latitude":"27.1644718","Longitude":"-13.2101335","Name":"Rue Oued Nafiss زنقة وادي نفيس"},{"Latitude":"23.6895142","Longitude":"-15.9389016","Name":"Rue Oued Nfis زنقة وادي نفيس"},{"Latitude":"27.1348294","Longitude":"-13.1853682","Name":"Rue Oued Oum Dreigua"},{"Latitude":"23.6893308","Longitude":"-15.9406965","Name":"Rue Oued Ragrag"},{"Latitude":"23.6901645","Longitude":"-15.9405359","Name":"Rue Oued Sakia El Hamra زنقة وادي الساقية الحمراء"},{"Latitude":"23.6887231","Longitude":"-15.9416173","Name":"Rue Oued Tansift"},{"Latitude":"27.1391266","Longitude":"-13.1935515","Name":"Rue Qayed Al Najem"},{"Latitude":"27.1358073","Longitude":"-13.1857590","Name":"Rue Rif"},{"Latitude":"27.1491426","Longitude":"-13.2012410","Name":"Rue Rissani زنقة الريصاني"},{"Latitude":"27.1650815","Longitude":"-13.2102596","Name":"Rue Sabou زنقة سبو"},{"Latitude":"27.1561393","Longitude":"-13.2025673","Name":"Rue Safi"},{"Latitude":"27.1309336","Longitude":"-13.1967178","Name":"Rue Sakan"},{"Latitude":"27.1562866","Longitude":"-13.2067220","Name":"Rue Sanaa"},{"Latitude":"27.1411350","Longitude":"-13.1994969","Name":"Rue Sidi Boujida"},{"Latitude":"27.1345171","Longitude":"-13.1933557","Name":"Rue Smara"},{"Latitude":"27.1354514","Longitude":"-13.1810814","Name":"Rue Souihat"},{"Latitude":"27.1440344","Longitude":"-13.1998579","Name":"Rue Sousse"},{"Latitude":"23.7093083","Longitude":"-15.9245386","Name":"Rue Tafoudart"},{"Latitude":"27.1474050","Longitude":"-13.1999692","Name":"Rue Tafrawte"},{"Latitude":"27.1640004","Longitude":"-13.2164491","Name":"Rue Taha زنقة طه"},{"Latitude":"27.1355840","Longitude":"-13.1871862","Name":"Rue Tahrir"},{"Latitude":"27.1444378","Longitude":"-13.1993365","Name":"Rue Tamanar"},{"Latitude":"27.1553655","Longitude":"-13.2012169","Name":"Rue Tanger زنقة طنجة"},{"Latitude":"27.1544156","Longitude":"-13.2029834","Name":"Rue Tantan"},{"Latitude":"23.6998311","Longitude":"-15.9309096","Name":"Rue Taourta زنقة تاورطة"},{"Latitude":"27.1548714","Longitude":"-13.2026932","Name":"Rue Taroudant"},{"Latitude":"27.1546600","Longitude":"-13.2016456","Name":"Rue Taza"},{"Latitude":"27.1430961","Longitude":"-13.1901146","Name":"Rue Taïf زنقة الطائف"},{"Latitude":"27.1359499","Longitude":"-13.1892230","Name":"Rue Tensift زنقة تانسيفت"},{"Latitude":"27.1551219","Longitude":"-13.2013649","Name":"Rue Tetouan"},{"Latitude":"27.1552743","Longitude":"-13.2022485","Name":"Rue Tifariti"},{"Latitude":"27.1416540","Longitude":"-13.1935532","Name":"Rue Tiflet زنقة تيفلت"},{"Latitude":"27.1401276","Longitude":"-13.2008032","Name":"Rue Tisli"},{"Latitude":"27.1547235","Longitude":"-13.2027817","Name":"Rue Tiznit"},{"Latitude":"27.1345290","Longitude":"-13.2024769","Name":"Rue Touma"},{"Latitude":"27.1544653","Longitude":"-13.2057411","Name":"Rue Tunis"},{"Latitude":"27.1433838","Longitude":"-13.1973953","Name":"Rue Walili"},{"Latitude":"27.1457510","Longitude":"-13.2089090","Name":"Rue Warkzize"},{"Latitude":"27.1437302","Longitude":"-13.1982952","Name":"Rue Zaouiat Cheikh"},{"Latitude":"27.1600503","Longitude":"-13.2127111","Name":"Rue Zerktoni"},{"Latitude":"23.7339726","Longitude":"-15.9191523","Name":"Rue № 12"},{"Latitude":"23.7286486","Longitude":"-15.9195311","Name":"Rue № 28 زنقة 28"},{"Latitude":"23.7284532","Longitude":"-15.9201901","Name":"Rue № 29 زنقة 29"},{"Latitude":"23.7349942","Longitude":"-15.9165909","Name":"Rue № 3 زنقة 3"},{"Latitude":"23.7281921","Longitude":"-15.9202897","Name":"Rue № 30 زنقة 30"},{"Latitude":"23.7350978","Longitude":"-15.9168978","Name":"Rue № 4 زنقة 4"},{"Latitude":"23.7350978","Longitude":"-15.9168978","Name":"Rue № 6 زنقة 6"},{"Latitude":"21.0696837","Longitude":"-17.0299029","Name":"الطريق الإسباني القديم"},{"Latitude":"26.7440451","Longitude":"-11.6546112","Name":"الطريق الإقليمي 1200"},{"Latitude":"21.6207299","Longitude":"-16.4751959","Name":"الطريق الإقليمي رقم 1103"},{"Latitude":"24.1150421","Longitude":"-13.3696747","Name":"الطريق الإقليمي رقم 1105"},{"Latitude":"21.3535291","Longitude":"-16.8553662","Name":"الطريق الاسباني القديم"},{"Latitude":"21.3121709","Longitude":"-13.0567733","Name":"الطريق الوطني رقم 1"},{"Latitude":"26.5367716","Longitude":"-12.3914060","Name":"الطريق الوطنية 14"},{"Latitude":"26.1877068","Longitude":"-11.7897195","Name":"الطريق الوطنية 17 ب"},{"Latitude":"21.3345753","Longitude":"-16.9483626","Name":"الطريق الوطنية رقم 1"},{"Latitude":"26.7390774","Longitude":"-11.6708638","Name":"زنقة الرماني"},{"Latitude":"26.7343887","Longitude":"-11.6764770","Name":"زنقة الشيخ الحارثي"},{"Latitude":"26.7444568","Longitude":"-11.6701168","Name":"زنقة تنجداد"},{"Latitude":"26.7362566","Longitude":"-11.6725364","Name":"زنقة خنيفرة"},{"Latitude":"26.7342377","Longitude":"-11.6763937","Name":"زنقة سيد الزين"},{"Latitude":"27.1507226","Longitude":"-13.1948092","Name":"شارع 20 غشت،"},{"Latitude":"27.1640830","Longitude":"-13.2170728","Name":"شارع ابن بطوطة"},{"Latitude":"20.9456366","Longitude":"-17.0342508","Name":"شارع البحرية"},{"Latitude":"20.9498925","Longitude":"-17.0347685","Name":"شارع الرئيسية دبي"},{"Latitude":"23.7005509","Longitude":"-15.9455663","Name":"شارع الطاح"},{"Latitude":"23.7434576","Longitude":"-15.9131840","Name":"شارع الولاء"},{"Latitude":"23.7001349","Longitude":"-15.9379924","Name":"شارع حسن بن جلون"},{"Latitude":"27.1574445","Longitude":"-13.2117833","Name":"شارع خالد ابن الوليد"},{"Latitude":"20.9430901","Longitude":"-17.0348783","Name":"شارع دبي"},{"Latitude":"26.7402341","Longitude":"-11.6775381","Name":"شارع سيدي أحمد لعروصي"},{"Latitude":"20.9392789","Longitude":"-17.0326659","Name":"شارع شاطئ الراحة"},{"Latitude":"23.6951927","Longitude":"-15.9373696","Name":"شارع شيخ محمد ولد بكار"},{"Latitude":"23.7026807","Longitude":"-15.9342369","Name":"شارع علي ولد البن"},{"Latitude":"26.7389581","Longitude":"-11.6739119","Name":"شارع محمد الخامس"},{"Latitude":"23.6999952","Longitude":"-15.9293692","Name":"شارع محمد حسن الوزاني"},{"Latitude":"23.7124462","Longitude":"-15.9242079","Name":"شارع محمد سالم بن عبد الله باهيا"},{"Latitude":"21.3641640","Longitude":"-16.9605942","Name":"ط و ١"},{"Latitude":"21.3087559","Longitude":"-16.2189157","Name":"طريق بو انوار - شوم القديم"}]