[{"Latitude":"46.8406145","Longitude":"29.4650788","Name":"1-й Братский переулок"},{"Latitude":"47.7631399","Longitude":"28.9951422","Name":"1-й Виноградный переулок"},{"Latitude":"46.8342752","Longitude":"29.5942980","Name":"1-й Водопроводный переулок"},{"Latitude":"46.7837315","Longitude":"29.4775553","Name":"1-й Измаильский переулок"},{"Latitude":"46.7959476","Longitude":"29.4891778","Name":"1-й Индустриальный переулок"},{"Latitude":"46.8449957","Longitude":"29.5872384","Name":"1-й Карьерный переулок"},{"Latitude":"47.7535780","Longitude":"29.0155920","Name":"1-й Кишинёвский переулок"},{"Latitude":"46.9737393","Longitude":"29.5318721","Name":"1-й Комсомольский переулок"},{"Latitude":"46.8451773","Longitude":"29.5938729","Name":"1-й Пионерский переулок"},{"Latitude":"46.8111198","Longitude":"29.5596188","Name":"1-й Садовый переулок"},{"Latitude":"47.7562605","Longitude":"29.0103415","Name":"1-й Степной переулок"},{"Latitude":"46.8452030","Longitude":"29.5836067","Name":"1-й Тракторный переулок"},{"Latitude":"47.9277410","Longitude":"28.9834887","Name":"1-й переулок Артюхова"},{"Latitude":"47.7771101","Longitude":"28.9886505","Name":"1-й переулок Ворошилова"},{"Latitude":"46.6126254","Longitude":"29.9369884","Name":"1-й переулок Горького"},{"Latitude":"47.2513422","Longitude":"29.1673047","Name":"1-й переулок Димитрова"},{"Latitude":"47.7572727","Longitude":"28.9938953","Name":"1-й переулок Кирова"},{"Latitude":"46.8457489","Longitude":"29.5954855","Name":"1-й переулок Крупской"},{"Latitude":"46.8510027","Longitude":"29.4819512","Name":"1-й переулок Кутузова"},{"Latitude":"47.1525624","Longitude":"29.3034512","Name":"1-й переулок Лермонтова"},{"Latitude":"46.8406823","Longitude":"29.6177109","Name":"1-й переулок Луначарского"},{"Latitude":"47.6684541","Longitude":"29.0037041","Name":"1-й переулок Мелиораторов"},{"Latitude":"47.1327716","Longitude":"29.3153826","Name":"1-й переулок Мира"},{"Latitude":"47.7572137","Longitude":"28.9951341","Name":"1-й переулок Мицкевича"},{"Latitude":"47.7597335","Longitude":"29.0079640","Name":"1-й переулок Мичурина"},{"Latitude":"47.7598554","Longitude":"29.0199787","Name":"1-й переулок Олега Кошевого"},{"Latitude":"46.8397742","Longitude":"29.4674340","Name":"1-й переулок Петровского"},{"Latitude":"47.7514093","Longitude":"28.9990640","Name":"1-й переулок Пушкина"},{"Latitude":"47.1303322","Longitude":"29.3106919","Name":"1-й переулок Свободы"},{"Latitude":"46.5829138","Longitude":"29.9265186","Name":"1-й переулок Сергея Лазо"},{"Latitude":"47.7682483","Longitude":"28.9944752","Name":"1-й переулок Титова"},{"Latitude":"47.7566348","Longitude":"29.0219827","Name":"1-я Загородная улица"},{"Latitude":"46.8404399","Longitude":"29.5953546","Name":"2-й Бородинский переулок"},{"Latitude":"46.8400273","Longitude":"29.4676933","Name":"2-й Братский переулок"},{"Latitude":"47.7622651","Longitude":"28.9929978","Name":"2-й Виноградный переулок"},{"Latitude":"46.8336995","Longitude":"29.5929565","Name":"2-й Водопроводный переулок"},{"Latitude":"47.7196139","Longitude":"28.9714965","Name":"2-й Днестровский переулок"},{"Latitude":"46.7831750","Longitude":"29.4773497","Name":"2-й Измаильский переулок"},{"Latitude":"46.8458345","Longitude":"29.5811144","Name":"2-й Карьерный переулок"},{"Latitude":"47.7531042","Longitude":"29.0202182","Name":"2-й Кишинёвский переулок"},{"Latitude":"47.2480118","Longitude":"29.1718351","Name":"2-й Молдавский переулок"},{"Latitude":"46.8454403","Longitude":"29.5950714","Name":"2-й Пионерский переулок"},{"Latitude":"46.8120451","Longitude":"29.5575645","Name":"2-й Садовый переулок"},{"Latitude":"47.7570632","Longitude":"29.0116915","Name":"2-й Степной переулок"},{"Latitude":"46.8462179","Longitude":"29.5798631","Name":"2-й Тракторный переулок"},{"Latitude":"47.1532034","Longitude":"29.3041480","Name":"2-й перереулок Лермонтова"},{"Latitude":"47.1469557","Longitude":"29.3060232","Name":"2-й переулок 9 Января"},{"Latitude":"46.6119383","Longitude":"29.9390715","Name":"2-й переулок Горького"},{"Latitude":"47.2520386","Longitude":"29.1678554","Name":"2-й переулок Димитрова"},{"Latitude":"48.0333702","Longitude":"28.7049410","Name":"2-й переулок Кирова"},{"Latitude":"46.8439039","Longitude":"29.5931550","Name":"2-й переулок Крупской"},{"Latitude":"46.8504508","Longitude":"29.4826907","Name":"2-й переулок Кутузова"},{"Latitude":"47.1552854","Longitude":"29.3051531","Name":"2-й переулок Лермонтова"},{"Latitude":"46.8302179","Longitude":"29.6180345","Name":"2-й переулок Луначарского"},{"Latitude":"47.6692275","Longitude":"29.0022206","Name":"2-й переулок Мелиораторов"},{"Latitude":"47.1354360","Longitude":"29.3201958","Name":"2-й переулок Мира"},{"Latitude":"47.7599843","Longitude":"29.0087133","Name":"2-й переулок Мичурина"},{"Latitude":"47.7577955","Longitude":"29.0215595","Name":"2-й переулок Олега Кошевого"},{"Latitude":"46.8393247","Longitude":"29.4683200","Name":"2-й переулок Петровского"},{"Latitude":"47.7513336","Longitude":"28.9956518","Name":"2-й переулок Пушкина"},{"Latitude":"47.1302752","Longitude":"29.3114201","Name":"2-й переулок Свободы"},{"Latitude":"46.5802324","Longitude":"29.9267414","Name":"2-й переулок Сергея Лазо"},{"Latitude":"47.7689772","Longitude":"28.9944888","Name":"2-й переулок Титова"},{"Latitude":"47.2550139","Longitude":"29.1567488","Name":"2-я Заводская улица"},{"Latitude":"47.7563251","Longitude":"29.0396186","Name":"2-я Загородная улица"},{"Latitude":"47.2487060","Longitude":"29.1760758","Name":"2-я улица Суворова"},{"Latitude":"46.7908813","Longitude":"29.4928439","Name":"3-й Индустриальный переулок"},{"Latitude":"47.2464878","Longitude":"29.1733334","Name":"3-й Молдавский переулок"},{"Latitude":"46.8135491","Longitude":"29.5548161","Name":"3-й Садовый переулок"},{"Latitude":"47.7568431","Longitude":"29.0132689","Name":"3-й Степной переулок"},{"Latitude":"47.7591830","Longitude":"29.0216323","Name":"3-й переулок Бородина"},{"Latitude":"47.7589792","Longitude":"28.9972013","Name":"3-й переулок Кирова"},{"Latitude":"47.6698449","Longitude":"29.0036529","Name":"3-й переулок Мелиораторов"},{"Latitude":"47.1355534","Longitude":"29.3213480","Name":"3-й переулок Мира"},{"Latitude":"47.7603595","Longitude":"29.0094777","Name":"3-й переулок Мичурина"},{"Latitude":"47.7482160","Longitude":"28.9926808","Name":"3-й переулок Пушкина"},{"Latitude":"46.8291337","Longitude":"29.4898872","Name":"4-й Береговой переулок"},{"Latitude":"47.7220191","Longitude":"29.0769828","Name":"4-й Степной переулок"},{"Latitude":"47.7579064","Longitude":"28.9962034","Name":"4-й переулок Кирова"},{"Latitude":"47.7505533","Longitude":"28.9945929","Name":"4-й переулок Пушкина"},{"Latitude":"46.6361934","Longitude":"29.9289344","Name":"5 очередь проходная"},{"Latitude":"47.7520675","Longitude":"29.0289273","Name":"5-й Степной переулок"},{"Latitude":"47.7581264","Longitude":"28.9929521","Name":"5-й переулок Кирова"},{"Latitude":"47.7474693","Longitude":"28.9917118","Name":"5-й переулок Пушкина"},{"Latitude":"47.7485299","Longitude":"28.9894850","Name":"6-й переулок Пушкина"},{"Latitude":"47.0246104","Longitude":"28.9770539","Name":"A"},{"Latitude":"46.5150190","Longitude":"29.4543645","Name":"Alava-Săiți"},{"Latitude":"46.6997062","Longitude":"28.6625314","Name":"Albina-Fetița-R3"},{"Latitude":"47.5716541","Longitude":"27.6291823","Name":"Albinețul Vechi-Albinețul Nou"},{"Latitude":"47.5453821","Longitude":"27.6194928","Name":"Albinețul Vechi-Cuzmenii Vechi"},{"Latitude":"45.9554505","Longitude":"28.4792407","Name":"Albota de Sus-Hagichioi"},{"Latitude":"47.8684959","Longitude":"28.8985490","Name":"Alcedar-Boșernița"},{"Latitude":"46.8490267","Longitude":"28.6050430","Name":"Aleia dragostei"},{"Latitude":"47.9558718","Longitude":"28.3061725","Name":"Alexeevca-Dumitreni"},{"Latitude":"47.2478922","Longitude":"27.9244366","Name":"Alexeevca-Florițoaia Veche"},{"Latitude":"47.7596208","Longitude":"28.0835825","Name":"Alexăndreni-Sîngereii Noi"},{"Latitude":"46.8313920","Longitude":"29.2214145","Name":"Anenii Noi-Căușeni"},{"Latitude":"46.4704487","Longitude":"29.8288035","Name":"Antonești-Carahasani"},{"Latitude":"47.0260395","Longitude":"28.9972973","Name":"B"},{"Latitude":"47.3803851","Longitude":"28.4738684","Name":"Bahu-R21"},{"Latitude":"46.0152213","Longitude":"28.4145770","Name":"Baimaclia-Taraclia de Salcie"},{"Latitude":"48.2241780","Longitude":"27.0286130","Name":"Balasinești-Corjeuți"},{"Latitude":"47.7177685","Longitude":"27.3527056","Name":"Balatina-Lipovăț"},{"Latitude":"46.2369448","Longitude":"28.9457913","Name":"Basarabeasca-Ceadîr-Lunga-R29"},{"Latitude":"46.3565458","Longitude":"28.8190071","Name":"Basarabeasca-M3"},{"Latitude":"48.1108694","Longitude":"28.0883930","Name":"Baxani-Schineni"},{"Latitude":"48.2258708","Longitude":"26.9403252","Name":"Beleavinți-Balasinești-Pererita"},{"Latitude":"46.7218246","Longitude":"29.4805151","Name":"Bender-Chircăiești-R26"},{"Latitude":"46.7869490","Longitude":"29.5078366","Name":"Bender-Copanca"},{"Latitude":"46.6859887","Longitude":"29.4580000","Name":"Bender-Căușeni"},{"Latitude":"46.6076439","Longitude":"29.3142343","Name":"Bender-Căușeni-Cimișlia"},{"Latitude":"46.8535046","Longitude":"29.2752558","Name":"Beriozchi-Hîrbovățul Nou"},{"Latitude":"46.0958230","Longitude":"28.8665812","Name":"Beșghioz-R36"},{"Latitude":"47.5837626","Longitude":"28.0136784","Name":"Bilicenii Vechi-M5"},{"Latitude":"46.4414702","Longitude":"28.3279197","Name":"Biserica Filipeni Drumul"},{"Latitude":"46.2178396","Longitude":"28.4290160","Name":"Bobocica-G132"},{"Latitude":"47.4857473","Longitude":"28.0210373","Name":"Bocani-Coșcodeni"},{"Latitude":"47.4476880","Longitude":"27.9892221","Name":"Boghenii Noi-Măgurele"},{"Latitude":"47.4150328","Longitude":"28.1530010","Name":"Boghenii Noi-Năpădeni"},{"Latitude":"47.1233910","Longitude":"28.0533943","Name":"Boldurești-Valea-Trestieni"},{"Latitude":"47.0012959","Longitude":"28.3361961","Name":"Bolțun-Pașcani"},{"Latitude":"46.3239734","Longitude":"28.5663763","Name":"Borogani-Congazcicul de Jos"},{"Latitude":"46.9262335","Longitude":"29.1603525","Name":"Botnăreștii Noi-Botnărești-Salcia"},{"Latitude":"47.7750741","Longitude":"28.9771217","Name":"Boșernița-Rezina"},{"Latitude":"47.2973062","Longitude":"28.3639125","Name":"Bravicea-Călărași"},{"Latitude":"47.5358256","Longitude":"28.1937162","Name":"Brejeni-Cîșla"},{"Latitude":"48.2857933","Longitude":"27.0790677","Name":"Briceni-Corjeuți"},{"Latitude":"48.3519521","Longitude":"26.9228005","Name":"Briceni-Cotiujeni"},{"Latitude":"48.3543172","Longitude":"27.1935805","Name":"Briceni-Ocnița"},{"Latitude":"48.0300958","Longitude":"27.1758042","Name":"Brînzeni-Cuconeștii Noi"},{"Latitude":"48.1542450","Longitude":"27.2899254","Name":"Brînzeni-M5"},{"Latitude":"47.2212427","Longitude":"29.1088363","Name":"Brănești-Criuleni"},{"Latitude":"47.3186090","Longitude":"28.9253318","Name":"Brănești-Furceni"},{"Latitude":"48.0702582","Longitude":"27.3677756","Name":"Brătușeni-Zăbriceni"},{"Latitude":"47.9854492","Longitude":"27.3685498","Name":"Brătușeni-Zăicani"},{"Latitude":"47.2259329","Longitude":"28.5051817","Name":"Bucovăț-Gălești-Zubrești"},{"Latitude":"47.1786961","Longitude":"28.4641976","Name":"Bucovăț-Nisporeni"},{"Latitude":"45.9628551","Longitude":"28.3473224","Name":"Bucuria-R32"},{"Latitude":"47.0597882","Longitude":"29.0200600","Name":"Budești-Bălțata"},{"Latitude":"47.4406146","Longitude":"28.3952739","Name":"Budăi-Crăsnășeni-Bahu"},{"Latitude":"47.4113115","Longitude":"28.3572689","Name":"Budăi-M5"},{"Latitude":"46.9290159","Longitude":"28.2577457","Name":"Bujor-M1"},{"Latitude":"46.8883601","Longitude":"29.2708256","Name":"Bulboaca-Chirca-Merenii Noi-Floreni"},{"Latitude":"46.8801839","Longitude":"29.3057442","Name":"Bulboaca-R2"},{"Latitude":"47.7456746","Longitude":"28.9603627","Name":"Bulevardul Alexei Șciusev"},{"Latitude":"47.2045786","Longitude":"29.1549581","Name":"Bulevardul Biruinței"},{"Latitude":"47.0136233","Longitude":"28.8526152","Name":"Bulevardul Constantin Negruzzi"},{"Latitude":"46.9861835","Longitude":"28.8668929","Name":"Bulevardul Cuza-Vodă"},{"Latitude":"47.0024692","Longitude":"28.8598638","Name":"Bulevardul Decebal"},{"Latitude":"47.0167420","Longitude":"28.8542342","Name":"Bulevardul Dimitrie Cantemir"},{"Latitude":"47.0284650","Longitude":"28.8383434","Name":"Bulevardul Grigore Vieru"},{"Latitude":"48.0344263","Longitude":"27.8192504","Name":"Bulevardul Independenței"},{"Latitude":"47.0098320","Longitude":"28.8603366","Name":"Bulevardul Iuri Gagarin"},{"Latitude":"47.7497891","Longitude":"28.9662277","Name":"Bulevardul Mihai Eminescu"},{"Latitude":"46.5208320","Longitude":"28.7832508","Name":"Bulevardul Mihai Viteazul"},{"Latitude":"47.0366901","Longitude":"28.8898442","Name":"Bulevardul Mircea cel Bătrân"},{"Latitude":"47.0511422","Longitude":"28.8902386","Name":"Bulevardul Mircea cel Bătrîn"},{"Latitude":"47.1256746","Longitude":"28.8890692","Name":"Bulevardul Moldova"},{"Latitude":"47.0590327","Longitude":"28.8668895","Name":"Bulevardul Moscova"},{"Latitude":"48.0333122","Longitude":"27.7999445","Name":"Bulevardul Nicolae Testemițanu"},{"Latitude":"47.1471294","Longitude":"28.5966113","Name":"Bulevardul Păcii"},{"Latitude":"47.0451249","Longitude":"28.8492626","Name":"Bulevardul Renaşterii Naţionale"},{"Latitude":"47.0387621","Longitude":"28.8533621","Name":"Bulevardul Renașterii Naționale"},{"Latitude":"46.9780129","Longitude":"28.8450630","Name":"Bulevardul Traian"},{"Latitude":"48.2173741","Longitude":"27.2572675","Name":"Bulevardul Unirii"},{"Latitude":"47.8919401","Longitude":"28.2828637","Name":"Bulevardul Victoriei"},{"Latitude":"47.0368146","Longitude":"28.8141019","Name":"Bulevardul Ștefan cel Mare și Sfânt"},{"Latitude":"46.5234490","Longitude":"28.7824109","Name":"Bulevardul Ștefan cel Mare și Sfînt"},{"Latitude":"47.2982574","Longitude":"28.9901915","Name":"Butuceni-Morovaia-G69"},{"Latitude":"46.7500848","Longitude":"28.6472595","Name":"Buțeni-Fîrlădeni-Bozieni"},{"Latitude":"46.8000349","Longitude":"28.7402637","Name":"Buțeni-Molești"},{"Latitude":"48.3950093","Longitude":"27.5841664","Name":"Bîrnova-Gîrbova"},{"Latitude":"46.9340632","Longitude":"28.9026594","Name":"Băcioi-Sîngera"},{"Latitude":"48.1760320","Longitude":"28.0589305","Name":"Bădiceni-Baxani"},{"Latitude":"48.0791465","Longitude":"27.1580438","Name":"Bădragii Vechi-Brînzeni"},{"Latitude":"46.4591142","Longitude":"28.4808565","Name":"Băiuș-Hîrtop"},{"Latitude":"48.2834739","Longitude":"27.1992842","Name":"Bălcăuți-Colicăuți"},{"Latitude":"48.3119840","Longitude":"27.2242717","Name":"Bălcăuți-Mărcăuți"},{"Latitude":"47.0170191","Longitude":"29.0246893","Name":"Bălțata-Maximovca"},{"Latitude":"47.6942618","Longitude":"27.9006569","Name":"Bălți-Comarovca"},{"Latitude":"47.8126545","Longitude":"28.0494235","Name":"Bălți-Florești"},{"Latitude":"47.5432577","Longitude":"28.3629008","Name":"Bănești-Telenești"},{"Latitude":"47.0168489","Longitude":"28.0650506","Name":"Bărboieni-Nemțeni"},{"Latitude":"47.0207316","Longitude":"28.9959070","Name":"C"},{"Latitude":"45.9167949","Longitude":"28.1230534","Name":"Cahul - frontiera cu România"},{"Latitude":"46.0258530","Longitude":"28.1687915","Name":"Cahul-Cantemir"},{"Latitude":"45.9000971","Longitude":"28.1798403","Name":"Cahul-Frontiera cu România"},{"Latitude":"45.8725354","Longitude":"28.1844913","Name":"Cahul-Giurgiulești"},{"Latitude":"45.9360306","Longitude":"28.6283583","Name":"Cahul-Taraclia"},{"Latitude":"45.8726155","Longitude":"28.2744548","Name":"Cahul-Vulcăneşti"},{"Latitude":"47.6972933","Longitude":"27.3912869","Name":"Cajba-Balatina"},{"Latitude":"48.1491238","Longitude":"28.2736436","Name":"Calea Bălțului"},{"Latitude":"47.1346026","Longitude":"28.7087816","Name":"Calea Chișinăului"},{"Latitude":"45.8983266","Longitude":"28.1973178","Name":"Calea Republicii"},{"Latitude":"47.1335255","Longitude":"28.7131293","Name":"Calea Roșcani"},{"Latitude":"47.7822167","Longitude":"27.4366211","Name":"Camenca-G25"},{"Latitude":"47.2796155","Longitude":"28.6891167","Name":"Camencea-Teleșeu"},{"Latitude":"46.3100204","Longitude":"28.5937247","Name":"Cantemir-Comrat"},{"Latitude":"46.3319174","Longitude":"28.2275095","Name":"Cantemir-Leova"},{"Latitude":"46.3954063","Longitude":"28.9117719","Name":"Carabetovca-R3"},{"Latitude":"47.5598166","Longitude":"27.8208858","Name":"Catranîc-Ișcălău-G63"},{"Latitude":"47.6099725","Longitude":"27.7836703","Name":"Catranîc-R16"},{"Latitude":"47.7477717","Longitude":"28.4083110","Name":"Cașunca-Prodănești"},{"Latitude":"46.0987562","Longitude":"28.6620365","Name":"Ceadîr-Lunga-Congaz"},{"Latitude":"45.9776999","Longitude":"28.7693834","Name":"Ceadîr-Lunga-Taraclia"},{"Latitude":"46.0105455","Longitude":"28.8559320","Name":"Ceadîr-Lunga-frontiera cu Uraina"},{"Latitude":"46.4540752","Longitude":"28.6277293","Name":"Cenac-Bugeac"},{"Latitude":"47.1100539","Longitude":"28.0304021","Name":"Centrala est"},{"Latitude":"48.3121017","Longitude":"27.5874599","Name":"Cernoleuca-Climăuți"},{"Latitude":"47.9258363","Longitude":"27.9837249","Name":"Chetrosu-Moara de Piatră"},{"Latitude":"46.8879589","Longitude":"29.0391723","Name":"Chetrosu-Puhoi"},{"Latitude":"48.0741351","Longitude":"27.8923285","Name":"Chetrosu-Șuri-Drochia"},{"Latitude":"46.0504530","Longitude":"28.5573402","Name":"Chioselia Rusă-M3"},{"Latitude":"47.5219395","Longitude":"28.8093590","Name":"Chiperceni-R20"},{"Latitude":"47.5521437","Longitude":"28.8578562","Name":"Chiperceni-Voroteț-Andreevca"},{"Latitude":"47.5701314","Longitude":"28.0224806","Name":"Chișcăreni-Ciuciuieni-Dumbrăvița"},{"Latitude":"47.5451148","Longitude":"27.9235342","Name":"Chișcăreni-Tăura Veche-Tăura Nouă"},{"Latitude":"46.8884112","Longitude":"29.2033049","Name":"Chișinău-Anenii Noi"},{"Latitude":"46.8902765","Longitude":"29.1996065","Name":"Chișinău-Bender"},{"Latitude":"47.7827587","Longitude":"27.2650972","Name":"Chișinău-Braniște"},{"Latitude":"46.9673222","Longitude":"28.9354732","Name":"Chișinău-Bubuieci-Bîc"},{"Latitude":"47.0631363","Longitude":"28.9704169","Name":"Chișinău-Budești-M5"},{"Latitude":"46.9409661","Longitude":"28.8261335","Name":"Chișinău-Codru-Piatra Albă"},{"Latitude":"47.0393572","Longitude":"28.9251609","Name":"Chișinău-Colonița-Maximovca"},{"Latitude":"47.1400641","Longitude":"28.8378283","Name":"Chișinău-Orhei"},{"Latitude":"48.0908605","Longitude":"28.3393403","Name":"Chișinău-Soroca"},{"Latitude":"47.0384063","Longitude":"28.9041559","Name":"Chișinău-Vadul lui Vodă"},{"Latitude":"46.0827400","Longitude":"28.7152492","Name":"Ciadîr-Lunga-Congaz"},{"Latitude":"46.3902143","Longitude":"28.9127749","Name":"Cimişlia-Basarabeasca"},{"Latitude":"46.9767442","Longitude":"29.0778263","Name":"Cimișeni-Mereni"},{"Latitude":"46.3944287","Longitude":"28.7086629","Name":"Cimișlia-Comrat"},{"Latitude":"46.4492141","Longitude":"28.4766726","Name":"Cimișlia-Iargara"},{"Latitude":"46.3102685","Longitude":"28.8312181","Name":"Cioc-Maidan-Avdarma"},{"Latitude":"46.4719268","Longitude":"28.6597111","Name":"Ciucur-Mingir-Cenac"},{"Latitude":"47.6559608","Longitude":"27.7731459","Name":"Ciuluc-Hiliuți-Răuțelul Nou"},{"Latitude":"45.7903684","Longitude":"28.5661137","Name":"Ciumai-Mirnoe-frontiera cu Ucraina"},{"Latitude":"45.5440547","Longitude":"28.3819348","Name":"Cișmichioi-Etulia"},{"Latitude":"48.3526959","Longitude":"27.6322453","Name":"Climăuți-G8"},{"Latitude":"47.4814548","Longitude":"28.5450543","Name":"Clișova-Sărătenii Noi"},{"Latitude":"48.4302258","Longitude":"27.3592458","Name":"Clocuşna – frontiera cu Ucraina"},{"Latitude":"48.4252186","Longitude":"27.3240440","Name":"Clocușna-frontiera cu Ucraina"},{"Latitude":"48.4365390","Longitude":"27.3195180","Name":"Cloucușna - Frontiera cu Ucraina"},{"Latitude":"47.8121364","Longitude":"27.3536058","Name":"Cobani-Camenca-G24"},{"Latitude":"47.7705761","Longitude":"27.3421781","Name":"Cobani-Hîjdeni"},{"Latitude":"46.3374746","Longitude":"28.4037080","Name":"Cociulia-Capaclia"},{"Latitude":"47.2820428","Longitude":"28.5907142","Name":"Codreanca-Onești"},{"Latitude":"47.7082246","Longitude":"28.4996092","Name":"Codrul Nou-Soroca"},{"Latitude":"46.2903250","Longitude":"28.2336626","Name":"Comrat-Cantemir"},{"Latitude":"46.3331576","Longitude":"28.4507856","Name":"Comrat-Cantemir-R34"},{"Latitude":"46.1639219","Longitude":"28.7851253","Name":"Comrat-Ceadîr-Lunga"},{"Latitude":"46.1327513","Longitude":"28.5034616","Name":"Congaz-Dimitrova"},{"Latitude":"46.6779977","Longitude":"29.5752989","Name":"Copanca-Plop Știubei"},{"Latitude":"45.8070670","Longitude":"28.6655870","Name":"Copceac-Cairaclia"},{"Latitude":"48.3296808","Longitude":"27.2872829","Name":"Corestăuți-Hincăuți"},{"Latitude":"48.1944098","Longitude":"27.0815887","Name":"Corjeuți-Fetești"},{"Latitude":"48.1937393","Longitude":"27.0014267","Name":"Corjeuți-Tețcani"},{"Latitude":"48.2100682","Longitude":"27.0820801","Name":"Corjeuți-Tîrnova"},{"Latitude":"47.4237978","Longitude":"28.0136319","Name":"Cornești-Boghenii Noi"},{"Latitude":"46.0518429","Longitude":"28.7142519","Name":"Corten-Baurci"},{"Latitude":"46.8185824","Longitude":"28.7664937","Name":"Costești-Molești"},{"Latitude":"47.8586231","Longitude":"27.2973071","Name":"Costești-Petrușeni"},{"Latitude":"46.8156112","Longitude":"28.9064458","Name":"Costești-Țipala"},{"Latitude":"48.3533506","Longitude":"26.8492156","Name":"Coteala-Larga"},{"Latitude":"48.3649930","Longitude":"26.8870442","Name":"Cotiujeni-Larga"},{"Latitude":"46.5979017","Longitude":"28.4291427","Name":"Covurlui-Vozneseni"},{"Latitude":"47.4882364","Longitude":"28.0606326","Name":"Coșcodeni-M5"},{"Latitude":"46.1245393","Longitude":"28.3963980","Name":"Coștangalia-G132"},{"Latitude":"47.5289839","Longitude":"28.7461890","Name":"Crihana-Sirota"},{"Latitude":"47.2238075","Longitude":"29.0388874","Name":"Cruglic-G72"},{"Latitude":"47.9422599","Longitude":"28.0897397","Name":"Cubolta-Frumușica"},{"Latitude":"47.8496187","Longitude":"28.0412257","Name":"Cubolta-R13"},{"Latitude":"47.9355739","Longitude":"27.2094378","Name":"Cuconeștii Noi-Duruitoarea Nouă"},{"Latitude":"47.6591102","Longitude":"27.3706686","Name":"Cuhnești-Bisericani"},{"Latitude":"48.0135360","Longitude":"28.6896971","Name":"Cunicea-Camenca"},{"Latitude":"48.1239210","Longitude":"27.3706677","Name":"Cupcini-M5"},{"Latitude":"48.1294858","Longitude":"27.4051502","Name":"Cupcini-Parcova"},{"Latitude":"46.1139948","Longitude":"28.4845443","Name":"Cîietu-Chioselia Rusă"},{"Latitude":"46.1528823","Longitude":"28.3385640","Name":"Cîșla-Suhat-Baimaclia"},{"Latitude":"46.6151391","Longitude":"29.2306643","Name":"Căinari - Sălcuța"},{"Latitude":"46.6580950","Longitude":"28.9795057","Name":"Căinari-Chircăieștii Noi"},{"Latitude":"47.5883787","Longitude":"27.5614700","Name":"Călinești-Fălești"},{"Latitude":"47.5151568","Longitude":"27.5562757","Name":"Călinești-Pruteni"},{"Latitude":"47.5584419","Longitude":"27.4804770","Name":"Călinești-r. Prut"},{"Latitude":"47.2212959","Longitude":"28.2672722","Name":"Călărași-Pîrjolteni"},{"Latitude":"47.1103585","Longitude":"28.5101120","Name":"Căpriana-M1"},{"Latitude":"46.6931756","Longitude":"28.3362539","Name":"Cărpineni-Mingir"},{"Latitude":"46.5993658","Longitude":"29.2475558","Name":"Căușeni-Cimișlia"},{"Latitude":"47.0206413","Longitude":"28.9939594","Name":"D"},{"Latitude":"46.8220770","Longitude":"28.9743394","Name":"Dacia"},{"Latitude":"47.8294066","Longitude":"27.5218112","Name":"Danu-Nicolaevca"},{"Latitude":"47.0259420","Longitude":"29.2911420","Name":"Delacău-Bulboaca"},{"Latitude":"47.1097280","Longitude":"29.2467821","Name":"Delacău-Cimișeni"},{"Latitude":"47.3523577","Longitude":"28.2220169","Name":"Dereneu-G83"},{"Latitude":"46.1794564","Longitude":"28.4485069","Name":"Dimitrova-G131"},{"Latitude":"47.8091668","Longitude":"27.9303753","Name":"Dobrogea Nouă-R6"},{"Latitude":"47.7753109","Longitude":"28.6091671","Name":"Dobrușa-Ignăței"},{"Latitude":"47.7897781","Longitude":"28.5742897","Name":"Dobrușa-Zahorna"},{"Latitude":"46.1243138","Longitude":"28.3421691","Name":"Doina-Coștangalia"},{"Latitude":"48.0770082","Longitude":"27.8380523","Name":"Dondușeni-Drochia"},{"Latitude":"48.2253256","Longitude":"27.5815956","Name":"Dondușeni-Scăieni-Tîrnova"},{"Latitude":"48.2495850","Longitude":"27.6535206","Name":"Dondușeni-Sudarca"},{"Latitude":"48.1943977","Longitude":"27.6565192","Name":"Dondușeni-Țaul-Tîrnova"},{"Latitude":"47.9526454","Longitude":"27.5143718","Name":"Drochia-Costești"},{"Latitude":"47.8943947","Longitude":"27.8270143","Name":"Drochia-Pelinia"},{"Latitude":"47.4329398","Longitude":"28.0732961","Name":"Drujba-Hîrcești"},{"Latitude":"47.3138815","Longitude":"28.9368376","Name":"Drum de acces la 'Epoca de Piatră' și 'Pivnițele Brănești'"},{"Latitude":"46.3252165","Longitude":"28.5190978","Name":"Drum de acces spre satul Dudulești"},{"Latitude":"46.9950143","Longitude":"28.9065072","Name":"Drum de acces spre satul Humulești"},{"Latitude":"47.6207732","Longitude":"28.1720572","Name":"Drum temporar de ocolire"},{"Latitude":"47.1120281","Longitude":"28.0294208","Name":"Drumul 001"},{"Latitude":"46.9052739","Longitude":"29.1814670","Name":"Drumul de acces prin satul Albinița"},{"Latitude":"47.4714371","Longitude":"28.1812458","Name":"Drumul de acces spre Cucioaia"},{"Latitude":"45.4732354","Longitude":"28.1933052","Name":"Drumul de acces spre Portul Giurgiulești"},{"Latitude":"45.5355608","Longitude":"28.3461293","Name":"Drumul de acces spre frontiera cu Ucraina"},{"Latitude":"47.0319130","Longitude":"29.3476223","Name":"Drumul de acces spre monumentul \"Capul de pod Șerpeni\""},{"Latitude":"46.6369567","Longitude":"29.3741090","Name":"Drumul de acces spre orașul Căușeni"},{"Latitude":"48.0200146","Longitude":"27.8196628","Name":"Drumul de acces spre orașul Drochia"},{"Latitude":"48.4006945","Longitude":"27.5862300","Name":"Drumul de acces spre orașul Frunză"},{"Latitude":"46.8420299","Longitude":"28.6155996","Name":"Drumul de acces spre orașul Hîncești"},{"Latitude":"48.4189461","Longitude":"27.4581727","Name":"Drumul de acces spre orașul Ocnița"},{"Latitude":"45.6895080","Longitude":"28.4263354","Name":"Drumul de acces spre orașul Vulcănești"},{"Latitude":"46.2334902","Longitude":"28.2247806","Name":"Drumul de acces spre satul Alexandrovca"},{"Latitude":"48.1505448","Longitude":"27.2742327","Name":"Drumul de acces spre satul Alexăndreni"},{"Latitude":"48.0808215","Longitude":"27.7065673","Name":"Drumul de acces spre satul Antoneuca"},{"Latitude":"47.7896019","Longitude":"28.2081043","Name":"Drumul de acces spre satul Antonovca"},{"Latitude":"46.5880737","Longitude":"28.5921677","Name":"Drumul de acces spre satul Artimonovca"},{"Latitude":"46.8025124","Longitude":"29.1957596","Name":"Drumul de acces spre satul Batîc"},{"Latitude":"46.9830605","Longitude":"28.4625400","Name":"Drumul de acces spre satul Bobeica"},{"Latitude":"47.4672583","Longitude":"28.0528147","Name":"Drumul de acces spre satul Bobletici"},{"Latitude":"47.4193891","Longitude":"28.0252148","Name":"Drumul de acces spre satul Boghenii Vechi"},{"Latitude":"46.9759102","Longitude":"28.3510639","Name":"Drumul de acces spre satul Boghiceni"},{"Latitude":"47.4139360","Longitude":"28.8535078","Name":"Drumul de acces spre satul Bolohan"},{"Latitude":"46.0499389","Longitude":"28.5440191","Name":"Drumul de acces spre satul Borceag"},{"Latitude":"48.2783064","Longitude":"27.7284126","Name":"Drumul de acces spre satul Boroseni"},{"Latitude":"47.9887524","Longitude":"27.4700883","Name":"Drumul de acces spre satul Borosenii Noi"},{"Latitude":"46.7369905","Longitude":"28.4853007","Name":"Drumul de acces spre satul Brătianovca"},{"Latitude":"46.8131910","Longitude":"28.9663169","Name":"Drumul de acces spre satul Budăi"},{"Latitude":"48.0546016","Longitude":"28.1144375","Name":"Drumul de acces spre satul Bulbocii Noi"},{"Latitude":"47.4210167","Longitude":"27.7214242","Name":"Drumul de acces spre satul Bulhac"},{"Latitude":"47.1491259","Longitude":"27.8375447","Name":"Drumul de acces spre satul Buzduganii de Sus"},{"Latitude":"48.1052954","Longitude":"27.1485691","Name":"Drumul de acces spre satul Buzdugeni"},{"Latitude":"48.0392916","Longitude":"27.1061307","Name":"Drumul de acces spre satul Bădragii Vechi"},{"Latitude":"47.8608288","Longitude":"28.2451882","Name":"Drumul de acces spre satul Băhrinești"},{"Latitude":"46.8581678","Longitude":"28.3934568","Name":"Drumul de acces spre satul Bălceana"},{"Latitude":"47.2001101","Longitude":"28.0646759","Name":"Drumul de acces spre satul Bălănești"},{"Latitude":"47.0508581","Longitude":"29.0440186","Name":"Drumul de acces spre satul Bălțata"},{"Latitude":"46.8260359","Longitude":"28.9619158","Name":"Drumul de acces spre satul Bălțați"},{"Latitude":"46.3438074","Longitude":"28.4032806","Name":"Drumul de acces spre satul Capaclia"},{"Latitude":"46.4817099","Longitude":"28.9705871","Name":"Drumul de acces spre satul Carabiber"},{"Latitude":"48.1286683","Longitude":"27.5482837","Name":"Drumul de acces spre satul Caraiman"},{"Latitude":"45.8706971","Longitude":"28.4394112","Name":"Drumul de acces spre satul Carbalia"},{"Latitude":"47.7577353","Longitude":"28.6170760","Name":"Drumul de acces spre satul Chipeșca"},{"Latitude":"48.2551086","Longitude":"27.1647995","Name":"Drumul de acces spre satul Chirilovca"},{"Latitude":"46.7667945","Longitude":"28.8433060","Name":"Drumul de acces spre satul Cigîrleni"},{"Latitude":"46.6006732","Longitude":"29.7179854","Name":"Drumul de acces spre satul Cioburciu"},{"Latitude":"47.5646176","Longitude":"28.1903550","Name":"Drumul de acces spre satul Ciofu"},{"Latitude":"47.0238586","Longitude":"28.4185639","Name":"Drumul de acces spre satul Ciuciuleni"},{"Latitude":"46.4405992","Longitude":"28.7536737","Name":"Drumul de acces spre satul Ciucur-Mingir"},{"Latitude":"48.2764888","Longitude":"27.3339028","Name":"Drumul de acces spre satul Clișcăuți"},{"Latitude":"46.4528594","Longitude":"29.5637454","Name":"Drumul de acces spre satul Copceac"},{"Latitude":"48.2138674","Longitude":"27.0438642","Name":"Drumul de acces spre satul Corjeuți"},{"Latitude":"47.0992254","Longitude":"29.1641075","Name":"Drumul de acces spre satul Corjova"},{"Latitude":"46.9893962","Longitude":"28.3454889","Name":"Drumul de acces spre satul Cornești"},{"Latitude":"47.4003699","Longitude":"28.1730659","Name":"Drumul de acces spre satul Cornova"},{"Latitude":"48.0147076","Longitude":"27.1546096","Name":"Drumul de acces spre satul Corpaci"},{"Latitude":"46.8717941","Longitude":"28.1982286","Name":"Drumul de acces spre satul Costești"},{"Latitude":"45.9324153","Longitude":"28.2465341","Name":"Drumul de acces spre satul Cotihana"},{"Latitude":"47.8445365","Longitude":"27.9557505","Name":"Drumul de acces spre satul Cotovca"},{"Latitude":"46.1419436","Longitude":"28.5114937","Name":"Drumul de acces spre satul Cotovscoe"},{"Latitude":"46.8736388","Longitude":"28.1311213","Name":"Drumul de acces spre satul Cotul Morii"},{"Latitude":"47.9327649","Longitude":"28.4547914","Name":"Drumul de acces spre satul Coșernița"},{"Latitude":"46.8682554","Longitude":"29.1376322","Name":"Drumul de acces spre satul Crețoaia"},{"Latitude":"46.2228472","Longitude":"28.3364800","Name":"Drumul de acces spre satul Crăciun"},{"Latitude":"47.9897265","Longitude":"27.2047332","Name":"Drumul de acces spre satul Cuconeștii Noi"},{"Latitude":"46.5113582","Longitude":"28.3436883","Name":"Drumul de acces spre satul Cupcui"},{"Latitude":"47.8972276","Longitude":"28.7133032","Name":"Drumul de acces spre satul Cușmirca"},{"Latitude":"47.1613470","Longitude":"27.9945366","Name":"Drumul de acces spre satul Cîrnești"},{"Latitude":"46.7115637","Longitude":"28.4712480","Name":"Drumul de acces spre satul Cărpineanca"},{"Latitude":"47.6178763","Longitude":"28.4728082","Name":"Drumul de acces spre satul Căzănești"},{"Latitude":"47.8272987","Longitude":"27.9428230","Name":"Drumul de acces spre satul Dobrogea Nouă"},{"Latitude":"47.5506374","Longitude":"27.8101869","Name":"Drumul de acces spre satul Doltu"},{"Latitude":"46.9385548","Longitude":"28.2242615","Name":"Drumul de acces spre satul Drojdieni"},{"Latitude":"47.9600938","Longitude":"27.3025263","Name":"Drumul de acces spre satul Druța"},{"Latitude":"47.0424635","Longitude":"28.4199998","Name":"Drumul de acces spre satul Drăgușenii Noi"},{"Latitude":"47.1221173","Longitude":"29.1942567","Name":"Drumul de acces spre satul Dubăsarii Vechi"},{"Latitude":"47.9184699","Longitude":"27.2044304","Name":"Drumul de acces spre satul Dumeni"},{"Latitude":"47.8669858","Longitude":"27.2986789","Name":"Drumul de acces spre satul Dămășcani"},{"Latitude":"48.2155565","Longitude":"27.9908372","Name":"Drumul de acces spre satul Dărcăuții Noi"},{"Latitude":"48.1472437","Longitude":"27.6455591","Name":"Drumul de acces spre satul Elenovca"},{"Latitude":"46.2174766","Longitude":"28.4194343","Name":"Drumul de acces spre satul Enichioi"},{"Latitude":"46.5847446","Longitude":"29.5157294","Name":"Drumul de acces spre satul Ermoclia"},{"Latitude":"47.6114471","Longitude":"28.2385434","Name":"Drumul de acces spre satul Evghenievca"},{"Latitude":"46.4554438","Longitude":"28.3255484","Name":"Drumul de acces spre satul Filipeni"},{"Latitude":"47.3409846","Longitude":"27.6648021","Name":"Drumul de acces spre satul Floreni"},{"Latitude":"47.1712775","Longitude":"27.9208453","Name":"Drumul de acces spre satul Florițoaia Nouă"},{"Latitude":"47.1946205","Longitude":"27.8942740","Name":"Drumul de acces spre satul Florițoaia Veche"},{"Latitude":"47.6832697","Longitude":"28.5552113","Name":"Drumul de acces spre satul Flutura"},{"Latitude":"46.9085648","Longitude":"28.8847913","Name":"Drumul de acces spre satul Frumușica"},{"Latitude":"47.7842114","Longitude":"28.1959096","Name":"Drumul de acces spre satul Frunzești"},{"Latitude":"47.6465634","Longitude":"28.2588030","Name":"Drumul de acces spre satul Gavrilovca"},{"Latitude":"47.4604550","Longitude":"28.5212621","Name":"Drumul de acces spre satul Ghermănești"},{"Latitude":"47.4875350","Longitude":"28.1995146","Name":"Drumul de acces spre satul Ghiliceni"},{"Latitude":"47.6912752","Longitude":"28.8152490","Name":"Drumul de acces spre satul Gordinești"},{"Latitude":"48.1642683","Longitude":"27.2292060","Name":"Drumul de acces spre satul Gordineștii Noi"},{"Latitude":"47.7993195","Longitude":"28.0605094","Name":"Drumul de acces spre satul Grigorești"},{"Latitude":"47.1840067","Longitude":"27.9059871","Name":"Drumul de acces spre satul Grozasca"},{"Latitude":"47.7147374","Longitude":"28.2831687","Name":"Drumul de acces spre satul Gura-Oituz"},{"Latitude":"47.8718217","Longitude":"27.3333393","Name":"Drumul de acces spre satul Gălășeni"},{"Latitude":"46.8338623","Longitude":"28.8478958","Name":"Drumul de acces spre satul Găureni"},{"Latitude":"46.8300139","Longitude":"28.7553675","Name":"Drumul de acces spre satul Hansca"},{"Latitude":"46.3019613","Longitude":"28.3989724","Name":"Drumul de acces spre satul Haragîș"},{"Latitude":"47.7828698","Longitude":"28.0673304","Name":"Drumul de acces spre satul Heciul Nou"},{"Latitude":"47.8059793","Longitude":"28.1032501","Name":"Drumul de acces spre satul Heciul Vechi"},{"Latitude":"47.4095114","Longitude":"28.2867341","Name":"Drumul de acces spre satul Hirova"},{"Latitude":"47.5573221","Longitude":"27.7620201","Name":"Drumul de acces spre satul Hitrești"},{"Latitude":"48.2920292","Longitude":"26.8743282","Name":"Drumul de acces spre satul Hlina"},{"Latitude":"48.2553925","Longitude":"27.2811982","Name":"Drumul de acces spre satul Hlinaia Mică"},{"Latitude":"47.3115299","Longitude":"29.0636295","Name":"Drumul de acces spre satul Holercani"},{"Latitude":"47.0311901","Longitude":"28.5110219","Name":"Drumul de acces spre satul Horodca"},{"Latitude":"47.2128921","Longitude":"28.2488180","Name":"Drumul de acces spre satul Horodiște"},{"Latitude":"48.1414868","Longitude":"28.2258395","Name":"Drumul de acces spre satul Hristici"},{"Latitude":"46.9847691","Longitude":"29.0172785","Name":"Drumul de acces spre satul Humulești"},{"Latitude":"47.4850134","Longitude":"27.7090467","Name":"Drumul de acces spre satul Hîrtop"},{"Latitude":"46.1366968","Longitude":"28.3034422","Name":"Drumul de acces spre satul Iasnaia Poleana"},{"Latitude":"46.2660430","Longitude":"28.2299623","Name":"Drumul de acces spre satul Iepureni"},{"Latitude":"47.5881114","Longitude":"28.0900781","Name":"Drumul de acces spre satul Iezărenii Noi"},{"Latitude":"48.1621799","Longitude":"27.8780074","Name":"Drumul de acces spre satul Iliciovca"},{"Latitude":"47.4543081","Longitude":"28.7266040","Name":"Drumul de acces spre satul Inculeț"},{"Latitude":"45.7533849","Longitude":"28.4902983","Name":"Drumul de acces spre satul Iujnoe"},{"Latitude":"47.6624248","Longitude":"27.8954056","Name":"Drumul de acces spre satul Ivanovca"},{"Latitude":"46.7508536","Longitude":"28.6942075","Name":"Drumul de acces spre satul Ivanovca Nouă"},{"Latitude":"47.4260891","Longitude":"27.9960884","Name":"Drumul de acces spre satul Izvoreni"},{"Latitude":"46.0719426","Longitude":"28.2300467","Name":"Drumul de acces spre satul Larga Veche"},{"Latitude":"47.8853436","Longitude":"27.9267293","Name":"Drumul de acces spre satul Lazo"},{"Latitude":"47.4849443","Longitude":"28.4428227","Name":"Drumul de acces spre satul Leușeni"},{"Latitude":"47.2702916","Longitude":"27.9108051","Name":"Drumul de acces spre satul Lidovca"},{"Latitude":"47.7275078","Longitude":"27.6000947","Name":"Drumul de acces spre satul Limbenii Noi"},{"Latitude":"46.2276581","Longitude":"28.3175237","Name":"Drumul de acces spre satul Lingura"},{"Latitude":"47.8054330","Longitude":"28.8705601","Name":"Drumul de acces spre satul Lipceni"},{"Latitude":"45.9885081","Longitude":"28.3408946","Name":"Drumul de acces spre satul Lucești"},{"Latitude":"46.6686410","Longitude":"28.6559886","Name":"Drumul de acces spre satul Mereni"},{"Latitude":"47.8235644","Longitude":"28.2463652","Name":"Drumul de acces spre satul Mihailovca"},{"Latitude":"47.4966951","Longitude":"28.3390396","Name":"Drumul de acces spre satul Mihălașa"},{"Latitude":"48.3220904","Longitude":"27.4310046","Name":"Drumul de acces spre satul Mihălășeni"},{"Latitude":"47.3808392","Longitude":"29.0916430","Name":"Drumul de acces spre satul Molovata"},{"Latitude":"47.4041868","Longitude":"28.0651932","Name":"Drumul de acces spre satul Mînzătești"},{"Latitude":"48.1451715","Longitude":"27.9770222","Name":"Drumul de acces spre satul Măcăreuca"},{"Latitude":"48.2170048","Longitude":"27.9574981","Name":"Drumul de acces spre satul Mălcăuți"},{"Latitude":"47.0761725","Longitude":"29.1281288","Name":"Drumul de acces spre satul Mălăiești"},{"Latitude":"47.8771868","Longitude":"28.2374850","Name":"Drumul de acces spre satul Mărculești"},{"Latitude":"48.3053634","Longitude":"27.2258454","Name":"Drumul de acces spre satul Mărcăuții Noi"},{"Latitude":"47.7244654","Longitude":"28.4115852","Name":"Drumul de acces spre satul Mărinești"},{"Latitude":"47.3543794","Longitude":"29.0499238","Name":"Drumul de acces spre satul Mаrcăuți"},{"Latitude":"47.1778105","Longitude":"28.6253755","Name":"Drumul de acces spre satul Negrești"},{"Latitude":"46.9024999","Longitude":"28.1270147","Name":"Drumul de acces spre satul Nemțeni"},{"Latitude":"47.2789228","Longitude":"28.3317413","Name":"Drumul de acces spre satul Nișcani"},{"Latitude":"47.2424067","Longitude":"28.2603876","Name":"Drumul de acces spre satul Novaci"},{"Latitude":"45.8956573","Longitude":"28.6008301","Name":"Drumul de acces spre satul Novosiolovca"},{"Latitude":"47.4049680","Longitude":"28.1560257","Name":"Drumul de acces spre satul Năpădeni"},{"Latitude":"48.0117761","Longitude":"27.6699769","Name":"Drumul de acces spre satul Ochiul Alb"},{"Latitude":"47.4771513","Longitude":"28.7245929","Name":"Drumul de acces spre satul Ocnița-Răzeși"},{"Latitude":"47.4571062","Longitude":"28.7262927","Name":"Drumul de acces spre satul Ocnița-Țărani"},{"Latitude":"48.3343622","Longitude":"27.6806273","Name":"Drumul de acces spre satul Octeabriscoe"},{"Latitude":"47.0075190","Longitude":"28.2020104","Name":"Drumul de acces spre satul Odaia"},{"Latitude":"46.6662607","Longitude":"28.4565155","Name":"Drumul de acces spre satul Orac"},{"Latitude":"47.3796024","Longitude":"29.1132211","Name":"Drumul de acces spre satul Oxentea"},{"Latitude":"48.0737888","Longitude":"28.2821988","Name":"Drumul de acces spre satul Parcani"},{"Latitude":"48.3754356","Longitude":"26.8663764","Name":"Drumul de acces spre satul Pavlovca"},{"Latitude":"46.9983574","Longitude":"28.3717740","Name":"Drumul de acces spre satul Pereni"},{"Latitude":"47.6457865","Longitude":"27.9597947","Name":"Drumul de acces spre satul Pervomaisc"},{"Latitude":"47.7473695","Longitude":"27.5770978","Name":"Drumul de acces spre satul Petrunea"},{"Latitude":"46.7468442","Longitude":"29.1028962","Name":"Drumul de acces spre satul Picus"},{"Latitude":"47.6979836","Longitude":"28.4836808","Name":"Drumul de acces spre satul Pistruienii Noi"},{"Latitude":"47.2349853","Longitude":"28.4210462","Name":"Drumul de acces spre satul Pitușca"},{"Latitude":"47.9755414","Longitude":"27.3282104","Name":"Drumul de acces spre satul Pociumbăuți"},{"Latitude":"47.2808320","Longitude":"28.6799759","Name":"Drumul de acces spre satul Pocșești"},{"Latitude":"47.8699945","Longitude":"28.8626700","Name":"Drumul de acces spre satul Poiana"},{"Latitude":"48.0807612","Longitude":"28.0336421","Name":"Drumul de acces spre satul Popeștii de Jos"},{"Latitude":"46.6486139","Longitude":"28.5916850","Name":"Drumul de acces spre satul Prisaca"},{"Latitude":"47.7934623","Longitude":"28.9242192","Name":"Drumul de acces spre satul Păpăuți"},{"Latitude":"47.2628324","Longitude":"28.3681764","Name":"Drumul de acces spre satul Păulești"},{"Latitude":"46.9776506","Longitude":"28.4139590","Name":"Drumul de acces spre satul Pășcani"},{"Latitude":"47.2090590","Longitude":"28.6008102","Name":"Drumul de acces spre satul Recea"},{"Latitude":"47.5313935","Longitude":"27.6067436","Name":"Drumul de acces spre satul Rediul de Sus"},{"Latitude":"48.2509744","Longitude":"27.2930203","Name":"Drumul de acces spre satul Rotunda"},{"Latitude":"47.6222347","Longitude":"28.7631586","Name":"Drumul de acces spre satul Roșcanii de Sus"},{"Latitude":"47.8386112","Longitude":"28.3937564","Name":"Drumul de acces spre satul Roșietici"},{"Latitude":"46.9286921","Longitude":"28.6316864","Name":"Drumul de acces spre satul Ruseștii Vechi"},{"Latitude":"48.3094647","Longitude":"27.3319199","Name":"Drumul de acces spre satul Rîngaci"},{"Latitude":"47.2471114","Longitude":"28.8421097","Name":"Drumul de acces spre satul Rîșcova"},{"Latitude":"47.9567384","Longitude":"28.2551987","Name":"Drumul de acces spre satul Rădulenii Noi"},{"Latitude":"47.9807413","Longitude":"28.2636418","Name":"Drumul de acces spre satul Rădulenii Vechi"},{"Latitude":"46.7645467","Longitude":"28.9018857","Name":"Drumul de acces spre satul Răzeni"},{"Latitude":"47.6458774","Longitude":"28.3635992","Name":"Drumul de acces spre satul Răzălăi"},{"Latitude":"47.1835970","Longitude":"28.6126066","Name":"Drumul de acces spre satul Saca"},{"Latitude":"46.6111443","Longitude":"28.9073095","Name":"Drumul de acces spre satul Satul Nou"},{"Latitude":"46.7255314","Longitude":"28.7892428","Name":"Drumul de acces spre satul Schinoșica"},{"Latitude":"47.0037715","Longitude":"28.3424795","Name":"Drumul de acces spre satul Secăreni"},{"Latitude":"46.6619412","Longitude":"28.3147738","Name":"Drumul de acces spre satul Semionovca"},{"Latitude":"47.4113022","Longitude":"28.0472235","Name":"Drumul de acces spre satul Sinești"},{"Latitude":"46.5051209","Longitude":"29.7388516","Name":"Drumul de acces spre satul Slobozia"},{"Latitude":"47.5725492","Longitude":"28.0228016","Name":"Drumul de acces spre satul Slobozia-Chișcăreni"},{"Latitude":"48.0350789","Longitude":"28.4198530","Name":"Drumul de acces spre satul Slobozia-Cremene"},{"Latitude":"47.9242088","Longitude":"28.8180130","Name":"Drumul de acces spre satul Socola"},{"Latitude":"46.0448810","Longitude":"28.4136942","Name":"Drumul de acces spre satul Spicoasa"},{"Latitude":"47.2372473","Longitude":"28.8222194","Name":"Drumul de acces spre satul Stețcani"},{"Latitude":"48.0535098","Longitude":"27.3618148","Name":"Drumul de acces spre satul Stolniceni"},{"Latitude":"46.6439449","Longitude":"28.8591046","Name":"Drumul de acces spre satul Suric"},{"Latitude":"47.2493032","Longitude":"27.9664521","Name":"Drumul de acces spre satul Săghieni"},{"Latitude":"46.8745276","Longitude":"28.1657871","Name":"Drumul de acces spre satul Sărăteni"},{"Latitude":"47.5054936","Longitude":"28.4939129","Name":"Drumul de acces spre satul Sărătenii Noi"},{"Latitude":"47.3293123","Longitude":"28.5799096","Name":"Drumul de acces spre satul Tabăra"},{"Latitude":"47.8706136","Longitude":"28.9554496","Name":"Drumul de acces spre satul Tarasova"},{"Latitude":"47.2765313","Longitude":"28.7100942","Name":"Drumul de acces spre satul Teleșeu"},{"Latitude":"47.2420730","Longitude":"28.1251408","Name":"Drumul de acces spre satul Temeleuți"},{"Latitude":"46.3853853","Longitude":"28.3709680","Name":"Drumul de acces spre satul Tigheci"},{"Latitude":"46.5693316","Longitude":"28.2554195","Name":"Drumul de acces spre satul Tochile-Răducani"},{"Latitude":"46.5785246","Longitude":"28.3300583","Name":"Drumul de acces spre satul Tomai"},{"Latitude":"47.6500028","Longitude":"27.3347937","Name":"Drumul de acces spre satul Tomeștii Vechi"},{"Latitude":"48.3567596","Longitude":"27.1804849","Name":"Drumul de acces spre satul Trebisăuți"},{"Latitude":"45.9443636","Longitude":"28.3516746","Name":"Drumul de acces spre satul Trifeștii Noi"},{"Latitude":"47.2455836","Longitude":"28.3162356","Name":"Drumul de acces spre satul Tuzara"},{"Latitude":"48.0299404","Longitude":"28.5274681","Name":"Drumul de acces spre satul Tîrgul Vertiujeni"},{"Latitude":"47.4688844","Longitude":"27.5781861","Name":"Drumul de acces spre satul Valea Rusului"},{"Latitude":"48.3102235","Longitude":"27.2905154","Name":"Drumul de acces spre satul Vancicăuți"},{"Latitude":"48.0958676","Longitude":"28.1924000","Name":"Drumul de acces spre satul Vanțina"},{"Latitude":"47.3679861","Longitude":"29.3066310","Name":"Drumul de acces spre satul Vasilievca"},{"Latitude":"47.5284775","Longitude":"28.4653457","Name":"Drumul de acces spre satul Verejeni"},{"Latitude":"47.9970367","Longitude":"28.5179709","Name":"Drumul de acces spre satul Vertiujeni"},{"Latitude":"46.1743049","Longitude":"28.2887417","Name":"Drumul de acces spre satul Victorovca"},{"Latitude":"47.6296777","Longitude":"27.4298359","Name":"Drumul de acces spre satul Viișoara"},{"Latitude":"47.1793977","Longitude":"28.1012405","Name":"Drumul de acces spre satul Vînători"},{"Latitude":"47.4310231","Longitude":"29.0660128","Name":"Drumul de acces spre satul Vîșcăuți"},{"Latitude":"47.5308920","Longitude":"28.1967349","Name":"Drumul de acces spre satul Zgărdești"},{"Latitude":"46.4635589","Longitude":"29.3026471","Name":"Drumul de acces spre satul Zviozdocica"},{"Latitude":"47.5243781","Longitude":"28.5053754","Name":"Drumul de acces spre satul Zăicani"},{"Latitude":"48.0479553","Longitude":"28.5431030","Name":"Drumul de acces spre satul Zăluceni"},{"Latitude":"47.4017299","Longitude":"27.8680404","Name":"Drumul de acces spre satul Zăzulenii Vechi"},{"Latitude":"47.1309078","Longitude":"27.9218597","Name":"Drumul de acces spre satul Șicovăț"},{"Latitude":"47.8383548","Longitude":"28.8078167","Name":"Drumul de acces spre satul Șipca"},{"Latitude":"46.9311796","Longitude":"28.4542519","Name":"Drumul de acces spre satul Șipoteni"},{"Latitude":"46.7181697","Longitude":"29.3579702","Name":"Drumul de acces spre satul Ștefănești"},{"Latitude":"48.0248653","Longitude":"27.5216242","Name":"Drumul de acces spre satul Știubeieni"},{"Latitude":"47.7212792","Longitude":"27.8980637","Name":"Drumul de acces spre satul Țapoc"},{"Latitude":"48.1183265","Longitude":"28.2318217","Name":"Drumul de acces spre satul Țepilova"},{"Latitude":"47.2835264","Longitude":"28.5591262","Name":"Drumul de acces spre satul Țigănești"},{"Latitude":"47.5926813","Longitude":"28.9752903","Name":"Drumul de acces spre satul Țipova"},{"Latitude":"46.2071726","Longitude":"28.4705505","Name":"Drumul de acces spre satul Țolica"},{"Latitude":"47.8513537","Longitude":"28.3922392","Name":"Drumul de acces spre satul Țîra"},{"Latitude":"47.5951475","Longitude":"27.8003809","Name":"Drumul de acces spre stația Catranîc"},{"Latitude":"46.1753693","Longitude":"28.8770699","Name":"Drumul de acces spre stația Joltai"},{"Latitude":"45.9207846","Longitude":"28.1947612","Name":"Drumul de centură a mun. Cahul"},{"Latitude":"47.7877837","Longitude":"27.8861775","Name":"Drumul de ocolire a municipiului Bălți"},{"Latitude":"46.2837839","Longitude":"28.2097287","Name":"Drumul de ocolire a orașul Cantemir"},{"Latitude":"47.2153136","Longitude":"29.1478351","Name":"Drumul de ocolire a orașului Criuleni"},{"Latitude":"46.6686871","Longitude":"29.4665445","Name":"Drumul de ocolire a orașului Căușeni"},{"Latitude":"47.7925678","Longitude":"27.5022144","Name":"Drumul de ocolire a orașului Glodeni"},{"Latitude":"47.2771315","Longitude":"27.9384048","Name":"Drumul de ocolire a satul Alexeevca"},{"Latitude":"47.2260374","Longitude":"28.9925495","Name":"Drumul de ocolire a satului Izbiște"},{"Latitude":"48.0452616","Longitude":"27.2570513","Name":"Drumul de ocolire a satului Terebna"},{"Latitude":"46.4462448","Longitude":"29.3128368","Name":"Drumul de pază a frontierei de Stat"},{"Latitude":"47.1375943","Longitude":"28.0595219","Name":"Drumul spre Biserica"},{"Latitude":"47.1172849","Longitude":"28.0258900","Name":"Drumul spre Chilisoaia"},{"Latitude":"47.1236300","Longitude":"28.0502351","Name":"Drumul spre Chilișoaia"},{"Latitude":"47.1393781","Longitude":"28.0632369","Name":"Drumul spre Cimitir"},{"Latitude":"48.2590161","Longitude":"27.6145801","Name":"Drumul spre Vile"},{"Latitude":"47.1123133","Longitude":"28.0313253","Name":"Drumul spre centru"},{"Latitude":"47.1370685","Longitude":"28.0617052","Name":"Drumul-G94"},{"Latitude":"47.0625529","Longitude":"28.7240117","Name":"Dumbrava - Trușeni"},{"Latitude":"47.8755668","Longitude":"27.2542573","Name":"Duruitoarea-Duruitoarea Nouă"},{"Latitude":"47.7225113","Longitude":"27.4368654","Name":"Dușmani-Cajba"},{"Latitude":"47.7150652","Longitude":"27.4728287","Name":"Dușmani-Moara Domnească"},{"Latitude":"48.3164388","Longitude":"27.5196910","Name":"Dîngeni-Cernoleuca"},{"Latitude":"46.9566950","Longitude":"28.7256842","Name":"Dănceni-R3"},{"Latitude":"48.1924561","Longitude":"27.9847735","Name":"Dărcăuți-Cotova"},{"Latitude":"47.0176832","Longitude":"28.9896498","Name":"E"},{"Latitude":"46.5361419","Longitude":"29.5478409","Name":"Ermoclia-Alava"},{"Latitude":"45.4897941","Longitude":"28.4389705","Name":"Etulia-frontiera cu Ucraina"},{"Latitude":"47.0196745","Longitude":"29.0306500","Name":"F"},{"Latitude":"46.2486580","Longitude":"28.7994206","Name":"Ferapontievca - Chiriet-Lunga"},{"Latitude":"46.2091840","Longitude":"28.9371788","Name":"Ferapontievca-Chiriet-Lunga"},{"Latitude":"47.8015941","Longitude":"28.3274890","Name":"Florești-Nicolaevca"},{"Latitude":"47.8998534","Longitude":"28.3557858","Name":"Florești-R14"},{"Latitude":"47.2036298","Longitude":"27.8629874","Name":"Florițoaia Veche-Ungheni"},{"Latitude":"48.3722608","Longitude":"27.0556947","Name":"Frontiera cu Ucraina-Briceni"},{"Latitude":"48.3805692","Longitude":"27.0925344","Name":"Frontiera cu Ucraina-Grimăncăuți"},{"Latitude":"47.4711707","Longitude":"27.7355218","Name":"Frumușica-Scumpia-stația Scumpia"},{"Latitude":"47.7438570","Longitude":"27.8967549","Name":"Fundacul Alexandru Babinski"},{"Latitude":"47.7781917","Longitude":"27.9391907","Name":"Fundacul Alexandru Popov"},{"Latitude":"47.7583687","Longitude":"27.8989062","Name":"Fundacul Anton Cehov"},{"Latitude":"47.7499619","Longitude":"27.9495670","Name":"Fundacul August Bebel"},{"Latitude":"47.7621348","Longitude":"27.9071544","Name":"Fundacul Burebista"},{"Latitude":"47.7855449","Longitude":"27.9340293","Name":"Fundacul Căpriana"},{"Latitude":"48.1685678","Longitude":"28.2690142","Name":"Fundacul Grădinarilor"},{"Latitude":"47.7683868","Longitude":"27.9085368","Name":"Fundacul Igor Vieru"},{"Latitude":"47.7796735","Longitude":"27.9315138","Name":"Fundacul Petru Zadnipru"},{"Latitude":"47.7590640","Longitude":"27.9001588","Name":"Fundacul Polina Osipenco"},{"Latitude":"47.7343955","Longitude":"27.8572497","Name":"Fundacul Serghei Karasiov"},{"Latitude":"47.7731979","Longitude":"27.9296802","Name":"Fundacul Sorocа"},{"Latitude":"47.7468426","Longitude":"27.8954023","Name":"Fundacul Vladimir Komarov"},{"Latitude":"48.1515607","Longitude":"28.2966671","Name":"Fundacul Școlarului"},{"Latitude":"46.6471808","Longitude":"29.4325893","Name":"Fundacul Ștefan cel Mare și Sfînt"},{"Latitude":"47.7494819","Longitude":"27.7109510","Name":"Fundurii Vechi-Sturzovca"},{"Latitude":"48.0819056","Longitude":"27.7185390","Name":"Fîntînița-Țarigrad"},{"Latitude":"46.7140003","Longitude":"29.4381739","Name":"Fîrlădenii Noi-Ursoaia"},{"Latitude":"47.5569235","Longitude":"27.7989320","Name":"Fălești-Bocani"},{"Latitude":"47.6059700","Longitude":"27.6315764","Name":"Fălești-Pînzărenii Noi-Năvîrneț"},{"Latitude":"47.3932051","Longitude":"27.8170563","Name":"Fălești-Pîrlița"},{"Latitude":"47.0140316","Longitude":"28.9964593","Name":"G"},{"Latitude":"48.3241248","Longitude":"27.4752288","Name":"G10 - Drum de acces spre Colegiul Agroindustrial \"Gheorghe Răducan\""},{"Latitude":"46.5900648","Longitude":"28.3778739","Name":"G100-Covurlui"},{"Latitude":"46.5434608","Longitude":"28.4898353","Name":"G102-Beștemac-Pitești"},{"Latitude":"46.8199814","Longitude":"29.1071340","Name":"G106-G112"},{"Latitude":"46.8095766","Longitude":"29.0506901","Name":"G106-Văratic-G106.1"},{"Latitude":"47.0794968","Longitude":"29.3231656","Name":"G109-drumul de acces spre satul Puhăceni"},{"Latitude":"47.0037081","Longitude":"29.2921344","Name":"G109-drumul de acces spre satul Speia"},{"Latitude":"46.9582649","Longitude":"29.2942943","Name":"G109-drumul de acces spre satul Telița"},{"Latitude":"47.0237565","Longitude":"29.3242944","Name":"G109-drumul de acces spre satul Șerpeni"},{"Latitude":"46.6796846","Longitude":"29.0490213","Name":"G110-Căinari-Sălcuța-R26"},{"Latitude":"46.7628627","Longitude":"29.3096948","Name":"G110-Fîrlădenii Noi"},{"Latitude":"46.7799844","Longitude":"29.3312477","Name":"G110-drumul de acces spre satul Fîrlădeni"},{"Latitude":"46.6603601","Longitude":"29.1349387","Name":"G118-Coșcalia-Plop-Baccealia-R30"},{"Latitude":"48.2065211","Longitude":"28.0661396","Name":"G12-drumul de acces spre satul Bădiceni"},{"Latitude":"46.6906974","Longitude":"28.8100965","Name":"G122-Sagaidac-Valea Perjei"},{"Latitude":"46.4769112","Longitude":"28.6418625","Name":"G125-Cenac"},{"Latitude":"46.4823951","Longitude":"28.6325755","Name":"G125-drumul de acces spre satul Cenac"},{"Latitude":"46.5005464","Longitude":"28.6982525","Name":"G125-drumul de acces spre satul Dimitrovca"},{"Latitude":"48.2148420","Longitude":"28.0447408","Name":"G12–Bădiceni"},{"Latitude":"46.2515725","Longitude":"28.2238705","Name":"G132-Taraclia-Plopi"},{"Latitude":"45.8872822","Longitude":"28.6440241","Name":"G140-drumul de acces spre orașul Taraclia"},{"Latitude":"48.1251151","Longitude":"27.1135929","Name":"G15-Burlănești-Viișoara"},{"Latitude":"48.1095340","Longitude":"27.6825721","Name":"G17-Fîntînița"},{"Latitude":"48.1358168","Longitude":"27.1870030","Name":"G21-Zăbriceni-Volodeni-Gordinești"},{"Latitude":"47.9755798","Longitude":"27.3676890","Name":"G22-Zăicani"},{"Latitude":"47.9206773","Longitude":"27.4890396","Name":"G26-Sturzeni"},{"Latitude":"47.8986867","Longitude":"27.5233666","Name":"G26-drumul de acces spre satul Malinovscoe"},{"Latitude":"48.0096645","Longitude":"27.8849319","Name":"G27-Baroncea-Baroncea Nouă"},{"Latitude":"47.8946622","Longitude":"28.0073670","Name":"G27-Moara de Piatră"},{"Latitude":"47.9600429","Longitude":"27.9548197","Name":"G27-drumul de acces spre satul Dominteni"},{"Latitude":"48.0138704","Longitude":"27.9365484","Name":"G27-drumul de acces spre satul Gribova"},{"Latitude":"47.9140866","Longitude":"27.9903485","Name":"G27-drumul de acces spre satul Hăsnășenii Mari"},{"Latitude":"47.9462091","Longitude":"27.9561046","Name":"G27-drumul de acces spre satul Petreni"},{"Latitude":"47.9627181","Longitude":"27.9692323","Name":"G27-drumul de acces spre satul Popeștii Noi"},{"Latitude":"47.8097701","Longitude":"28.0885955","Name":"G29-Alexăndreni-Țiplești"},{"Latitude":"47.7446886","Longitude":"28.1327453","Name":"G29-Rădoaia-G30"},{"Latitude":"48.1410774","Longitude":"26.9929840","Name":"G3-Bogdănești-Grimești"},{"Latitude":"48.0996500","Longitude":"27.1462113","Name":"G3-Burlănești"},{"Latitude":"48.0842330","Longitude":"27.2351131","Name":"G3-Zăbriceni"},{"Latitude":"48.0063370","Longitude":"28.1045263","Name":"G33-drumul de acces spre satul Floriceni"},{"Latitude":"48.0821921","Longitude":"28.2102571","Name":"G35-Pîrlița"},{"Latitude":"48.0572723","Longitude":"28.1702169","Name":"G35-Regina Maria-Bulboci"},{"Latitude":"48.0903583","Longitude":"28.5370463","Name":"G38-Nimereuca-Cerlina"},{"Latitude":"47.9605840","Longitude":"28.7961862","Name":"G40-Vadul-Rașcov-Climăuții de Jos-Cot"},{"Latitude":"47.8224864","Longitude":"28.8593883","Name":"G41-Mateuți-Boșernița"},{"Latitude":"47.6378701","Longitude":"28.8876935","Name":"G43-Mincenii de Jos-Mincenii de Sus"},{"Latitude":"47.5542494","Longitude":"29.0205613","Name":"G43-drumul de acces spre satul Nistreni"},{"Latitude":"47.4930301","Longitude":"28.9924555","Name":"G44-Bulăiești-Mîrzești"},{"Latitude":"47.8101589","Longitude":"28.3810127","Name":"G50-Cașunca"},{"Latitude":"47.7393351","Longitude":"28.3057165","Name":"G50-drumul de acces spre satul Ion Vodă"},{"Latitude":"47.7536234","Longitude":"28.2779734","Name":"G50-drumul de acces spre satul Valea Rădoaiei"},{"Latitude":"47.5522622","Longitude":"27.6307399","Name":"G58-Albinețul Vechi"},{"Latitude":"47.5647563","Longitude":"27.4823961","Name":"G58-Călinești"},{"Latitude":"47.8119838","Longitude":"27.2655158","Name":"G58-drumul de acces spre satul Braniște"},{"Latitude":"47.7643307","Longitude":"27.3047714","Name":"G60-Cobani"},{"Latitude":"47.4103720","Longitude":"27.5859445","Name":"G60-Taxobeni"},{"Latitude":"47.4655691","Longitude":"28.4552298","Name":"G66-Văsieni"},{"Latitude":"47.4409012","Longitude":"28.9261694","Name":"G68-Berezlogi-Hîjdieni"},{"Latitude":"47.3597635","Longitude":"28.9153107","Name":"G68-Piatra-Jeloboc"},{"Latitude":"47.2764877","Longitude":"29.1126485","Name":"G68-Ustia–zona de odihnă din Holercani"},{"Latitude":"47.3120214","Longitude":"28.9555662","Name":"G72-Brănești-Complexul istorico-cultural „Orheiul Vechi”"},{"Latitude":"47.2624869","Longitude":"29.0538532","Name":"G72-Jevreni-Răculești"},{"Latitude":"47.3076677","Longitude":"28.9811144","Name":"G73-drumul de acces spre satul Trebujeni"},{"Latitude":"47.8767353","Longitude":"29.1918352","Name":"G76-Броштяны-Граница с Украиной"},{"Latitude":"47.2145583","Longitude":"28.6741267","Name":"G81-Rădeni-Drăgușeni"},{"Latitude":"47.3371990","Longitude":"28.3119852","Name":"G83-Hîrbovăț"},{"Latitude":"47.3935433","Longitude":"28.3139483","Name":"G85-drumul de acces spre satul Hoginești"},{"Latitude":"47.4312671","Longitude":"28.1025891","Name":"G88 - Condrătești - Curtoaia"},{"Latitude":"47.4137920","Longitude":"28.1091475","Name":"G88-Condrătești-Curtoaia"},{"Latitude":"47.3964312","Longitude":"28.2292237","Name":"G88-Dereneu"},{"Latitude":"47.2638469","Longitude":"27.9311532","Name":"G89-Alexeevca"},{"Latitude":"48.3412128","Longitude":"27.4602826","Name":"G9-Dîngeni"},{"Latitude":"48.2622093","Longitude":"27.4234140","Name":"G9-drumul de acces spre satul Rujnița"},{"Latitude":"47.2549667","Longitude":"28.1436193","Name":"G95-Peticeni-Vălcineț"},{"Latitude":"47.1654982","Longitude":"28.3250928","Name":"G95-Pîrjolteni-R25"},{"Latitude":"47.1949072","Longitude":"28.3493153","Name":"G95-Sadova"},{"Latitude":"46.6879327","Longitude":"29.0523724","Name":"Gangura-Căinari"},{"Latitude":"46.7317404","Longitude":"29.0430491","Name":"Gangura-Homuteanovca"},{"Latitude":"46.7522638","Longitude":"28.9396534","Name":"Gangura-Răzeni"},{"Latitude":"48.1627479","Longitude":"27.4320761","Name":"Gașpar-Cupcini"},{"Latitude":"46.8010481","Longitude":"29.1970594","Name":"Geamăna-Nicolaevca"},{"Latitude":"47.4921029","Longitude":"28.1820370","Name":"Ghiliceni-M5"},{"Latitude":"47.8496090","Longitude":"28.3777409","Name":"Ghindești-Cenușa-G50"},{"Latitude":"47.6014686","Longitude":"27.8427406","Name":"Glinjeni-Catranîc"},{"Latitude":"47.7577944","Longitude":"27.5023940","Name":"Glodeni-Dușmani"},{"Latitude":"47.6274053","Longitude":"27.7302247","Name":"Glodeni-Egorovca"},{"Latitude":"47.1335883","Longitude":"28.9282654","Name":"Goian-Criuleni"},{"Latitude":"47.1452238","Longitude":"28.8965706","Name":"Goian-Făurești"},{"Latitude":"48.1728234","Longitude":"27.2785753","Name":"Gordinești-Edineț"},{"Latitude":"46.6172466","Longitude":"28.8017808","Name":"Gradiște-Coștangalia"},{"Latitude":"47.2386624","Longitude":"28.6106343","Name":"Greblești-Recea"},{"Latitude":"47.6042988","Longitude":"28.2036770","Name":"Grigorăuca-Petropavlovca"},{"Latitude":"48.2104586","Longitude":"28.0777785","Name":"Grigorăuca-R14"},{"Latitude":"48.3747712","Longitude":"27.0937247","Name":"Grimăncăuți-Briceni"},{"Latitude":"48.2853069","Longitude":"27.4322244","Name":"Grinăuți-Raia-stația Rediul Mare"},{"Latitude":"46.8128007","Longitude":"28.5873038","Name":"Gura Cotului"},{"Latitude":"48.3773887","Longitude":"27.6989356","Name":"Gîrbova-Sauca"},{"Latitude":"46.7893192","Longitude":"29.4011383","Name":"Gîsca-Fîrlădeni"},{"Latitude":"46.7543281","Longitude":"29.2238091","Name":"Gîsca-Zolotievcа"},{"Latitude":"47.7462637","Longitude":"28.5845684","Name":"Găuzeni-Prodănești"},{"Latitude":"48.2710207","Longitude":"27.3679904","Name":"Hincăuți-Bîrlădeni"},{"Latitude":"48.2400765","Longitude":"27.2818634","Name":"Hincăuți-Hlinaia"},{"Latitude":"48.3366977","Longitude":"26.8602902","Name":"Hlina-Coteala"},{"Latitude":"48.2062170","Longitude":"27.2630234","Name":"Hlinaia-M5"},{"Latitude":"47.5980445","Longitude":"28.9479715","Name":"Horodiște-Lalova"},{"Latitude":"48.2768814","Longitude":"27.7869729","Name":"Horodiște-Sudarca"},{"Latitude":"48.2710082","Longitude":"27.8382128","Name":"Horodiște-Teleșeuca"},{"Latitude":"45.9948917","Longitude":"28.3471340","Name":"Huluboaia-Bucuria"},{"Latitude":"47.7781212","Longitude":"27.4817124","Name":"Hîjdeni-Glodeni"},{"Latitude":"47.7624894","Longitude":"27.4615164","Name":"Hîjdieni-Cajba"},{"Latitude":"46.6109187","Longitude":"28.4664345","Name":"Hîncești-Leova"},{"Latitude":"46.8782804","Longitude":"28.4230030","Name":"Hîncești-Lăpușna"},{"Latitude":"46.8765248","Longitude":"28.3976120","Name":"Hîncești-Lăpușna-M1"},{"Latitude":"47.3555233","Longitude":"28.2863497","Name":"Hîrbovăț-Onișcani"},{"Latitude":"47.9324327","Longitude":"28.4480333","Name":"Hîrtop-Cernița"},{"Latitude":"45.8932964","Longitude":"28.4909160","Name":"Hîrtop-Salcia"},{"Latitude":"47.2241247","Longitude":"28.9837439","Name":"Hîrtopul Mare-Cruglic"},{"Latitude":"47.2384961","Longitude":"28.9297435","Name":"Hîrtopul Mic-Zăicana-Hrușova"},{"Latitude":"47.8393878","Longitude":"27.9283384","Name":"Hăsnășenii Noi-Dobrogea Nouă"},{"Latitude":"47.8801614","Longitude":"27.8361793","Name":"Hăsnășenii Noi-Pelinia"},{"Latitude":"47.0157126","Longitude":"28.9967183","Name":"I"},{"Latitude":"47.0154412","Longitude":"28.9966720","Name":"I4"},{"Latitude":"46.9140640","Longitude":"28.8695016","Name":"Ialoveni-Băcioi"},{"Latitude":"46.8895017","Longitude":"28.7681463","Name":"Ialoveni-Costești"},{"Latitude":"46.4241159","Longitude":"28.4386664","Name":"Iargara-Borogani"},{"Latitude":"46.4846298","Longitude":"28.3824861","Name":"Iargara-Sărata Nouă"},{"Latitude":"47.6551967","Longitude":"28.6408102","Name":"Ignăței-Scorțeni"},{"Latitude":"47.6208633","Longitude":"27.6834306","Name":"Ilenuța-Pînzărenii Noi"},{"Latitude":"46.4799417","Longitude":"28.9509762","Name":"Ivanovca-Carabetovca"},{"Latitude":"46.8668456","Longitude":"28.1999987","Name":"Ivanovca-Cățeleni-Heleșteni"},{"Latitude":"47.8466338","Longitude":"28.1547917","Name":"Ivanovca-Gura Căinarului-Putinești"},{"Latitude":"47.5511506","Longitude":"28.9279284","Name":"Izvoare-Chiperceni"},{"Latitude":"47.4094971","Longitude":"27.7102180","Name":"Izvoare-Stolniceni"},{"Latitude":"47.8927676","Longitude":"28.7502578","Name":"Japca-Șestaci"},{"Latitude":"46.5106361","Longitude":"28.6313017","Name":"Javgur-G125"},{"Latitude":"46.1251503","Longitude":"28.8698868","Name":"Joltai-Beșghioz"},{"Latitude":"47.0179687","Longitude":"28.9952147","Name":"L"},{"Latitude":"47.7234395","Longitude":"27.8247840","Name":"L239-drumul de acces spre stația Răuțel"},{"Latitude":"47.1772425","Longitude":"29.2062976","Name":"L363-Hîrtop-Doroțcaia"},{"Latitude":"47.2271205","Longitude":"29.3649530","Name":"L363-Гыртоп-Дороцкое"},{"Latitude":"47.0630985","Longitude":"28.9273243","Name":"L455-Cheltuitori-Tohatin"},{"Latitude":"46.5567448","Longitude":"29.5536277","Name":"L569-Feștelița-Marianca de Jos"},{"Latitude":"46.5938457","Longitude":"29.6659939","Name":"L585-Cioburciu"},{"Latitude":"47.8985890","Longitude":"29.0136156","Name":"L674-Большой Молокиш-Вадатурково"},{"Latitude":"47.5518019","Longitude":"28.9590130","Name":"Lalova-Izvoare"},{"Latitude":"48.4030557","Longitude":"26.8481531","Name":"Larga-Frontiera cu Ucraina"},{"Latitude":"48.3733435","Longitude":"26.8539793","Name":"Larga-G1"},{"Latitude":"48.3616597","Longitude":"26.7882819","Name":"Larga-Medveja-frontiera cu Ucraina"},{"Latitude":"46.5377845","Longitude":"28.4440422","Name":"Leova-Hîncești"},{"Latitude":"46.5969487","Longitude":"28.2735390","Name":"Leușeni-Leova"},{"Latitude":"47.7389863","Longitude":"27.9135028","Name":"Linia I"},{"Latitude":"47.7400428","Longitude":"27.9118703","Name":"Linia II"},{"Latitude":"47.7390796","Longitude":"27.9116827","Name":"Linia III"},{"Latitude":"47.7380232","Longitude":"27.9115678","Name":"Linia IV"},{"Latitude":"48.2405217","Longitude":"26.9673163","Name":"Lipcani-Balasinești"},{"Latitude":"48.2112070","Longitude":"26.9185941","Name":"Lipcani-Bădragii Vechi"},{"Latitude":"48.2554720","Longitude":"26.8016291","Name":"Lipcani-frontiera cu România"},{"Latitude":"48.2619919","Longitude":"26.8043935","Name":"Lipcani-frontiera cu Ucraina"},{"Latitude":"46.7172284","Longitude":"28.7566273","Name":"Lipoveni-Munteni"},{"Latitude":"47.5178141","Longitude":"29.0083815","Name":"Lopatna-Izvoare"},{"Latitude":"48.1752361","Longitude":"27.1362046","Name":"Lopatnic-Gordinești"},{"Latitude":"47.1051210","Longitude":"28.3802784","Name":"Lozova-Stolniceni"},{"Latitude":"47.3401700","Longitude":"28.7647104","Name":"Lucăășeuca"},{"Latitude":"47.3423170","Longitude":"28.7637479","Name":"Lucășeuca"},{"Latitude":"47.4430004","Longitude":"27.6079399","Name":"Lucăсeni-R16"},{"Latitude":"47.8486437","Longitude":"28.2285099","Name":"Lunga-Valea Norocului"},{"Latitude":"47.8383437","Longitude":"27.5309337","Name":"Lupăria-Glodeni"},{"Latitude":"46.8588374","Longitude":"28.2483899","Name":"Lăpușna-M1"},{"Latitude":"46.8774280","Longitude":"28.4168924","Name":"Lăpușna-R33"},{"Latitude":"46.9566319","Longitude":"28.4949880","Name":"Lăpușna-Stolniceni"},{"Latitude":"47.0311435","Longitude":"28.2886837","Name":"M1-Bolțun"},{"Latitude":"47.0295693","Longitude":"28.6255396","Name":"M1-Condrița-G70"},{"Latitude":"46.8252106","Longitude":"28.1971806","Name":"M1-Leușeni"},{"Latitude":"46.9669579","Longitude":"28.5945882","Name":"M1-Văsieni"},{"Latitude":"47.1023744","Longitude":"28.2964012","Name":"M1-drumul de acces spre satul Bursuc"},{"Latitude":"46.8207879","Longitude":"28.1941057","Name":"M1-drumul de acces spre satul Cotul Morii"},{"Latitude":"47.0542057","Longitude":"28.2817623","Name":"M1-drumul de acces spre satul Cristești"},{"Latitude":"47.2002591","Longitude":"29.0147076","Name":"M1-drumul de acces spre satul Cruglic"},{"Latitude":"47.0784788","Longitude":"28.7696099","Name":"M1-drumul de acces spre satul Ghidighici"},{"Latitude":"47.0745337","Longitude":"28.2663389","Name":"M1-drumul de acces spre satul Iurceni"},{"Latitude":"46.8212267","Longitude":"28.1990003","Name":"M1-drumul de acces spre satul Leușeni"},{"Latitude":"47.1226345","Longitude":"28.3944502","Name":"M1-drumul de acces spre satul Lozova"},{"Latitude":"46.9688351","Longitude":"28.2596159","Name":"M1-drumul de acces spre satul Mirești"},{"Latitude":"47.0234617","Longitude":"28.7177857","Name":"M1-drumul de acces spre satul Trușeni"},{"Latitude":"45.6978710","Longitude":"28.4985652","Name":"M3 – drumul de acces spre frontiera cu Ucraina"},{"Latitude":"45.5628614","Longitude":"28.3375462","Name":"M3-Cișmichioi"},{"Latitude":"45.7524348","Longitude":"28.1854194","Name":"M3-Vulcănești-Vadul lui Isac"},{"Latitude":"46.2960534","Longitude":"28.6868585","Name":"M3-drumul de acces spre municipiul Comrat"},{"Latitude":"45.8911811","Longitude":"28.6152238","Name":"M3-drumul de acces spre orașul Taraclia"},{"Latitude":"45.8615370","Longitude":"28.5793607","Name":"M3-drumul de acces spre satul Aluatu"},{"Latitude":"46.1656730","Longitude":"28.6312551","Name":"M3-drumul de acces spre satul Beșalma"},{"Latitude":"45.7594762","Longitude":"28.5265686","Name":"M3-drumul de acces spre stația Greceni"},{"Latitude":"45.6865908","Longitude":"28.4765840","Name":"M3-drumul de acces spre stația Vulcănești"},{"Latitude":"45.5908764","Longitude":"28.2373461","Name":"M3–drum de acces spre s. Slobozia Mare"},{"Latitude":"47.5335946","Longitude":"29.1169325","Name":"M4 – Граница с Украиной"},{"Latitude":"47.3213152","Longitude":"29.0995726","Name":"M4-Dubăsari-Cocieri-Roghi-М4"},{"Latitude":"47.0827356","Longitude":"29.4915515","Name":"M4-Виноградное"},{"Latitude":"47.9503123","Longitude":"28.9000614","Name":"M4-Граница с Украиной"},{"Latitude":"47.3290006","Longitude":"29.1611125","Name":"M4-Дубоссары-Кочиеры-Роги-М4"},{"Latitude":"48.3410889","Longitude":"26.9320512","Name":"M5-Berlinți-Cotiujeni"},{"Latitude":"48.0740132","Longitude":"27.3954817","Name":"M5-Brătușeni"},{"Latitude":"47.0773503","Longitude":"28.9355017","Name":"M5-Buneți"},{"Latitude":"48.2698332","Longitude":"27.1898926","Name":"M5-Bălcăuți"},{"Latitude":"47.0531933","Longitude":"29.0446818","Name":"M5-Bălțata"},{"Latitude":"48.1353031","Longitude":"27.4938729","Name":"M5-Chetroșica Nouă-Gașpar-R8"},{"Latitude":"47.5618986","Longitude":"28.0238594","Name":"M5-Chișcăreni"},{"Latitude":"48.3149128","Longitude":"27.1557581","Name":"M5-Colicăuți-Trebisăuți"},{"Latitude":"47.0807343","Longitude":"28.9725151","Name":"M5-Cruzești-Ceroborta"},{"Latitude":"47.7762524","Longitude":"27.7062812","Name":"M5-Glodeni"},{"Latitude":"48.2968311","Longitude":"26.8697718","Name":"M5-Hlina"},{"Latitude":"48.2671815","Longitude":"26.8006764","Name":"M5-Lipcani"},{"Latitude":"47.3108455","Longitude":"28.5858273","Name":"M5-Lupa-Recea-Vatici"},{"Latitude":"48.2812556","Longitude":"27.2031498","Name":"M5-Mihăileni-Bălcăuți"},{"Latitude":"47.9012126","Longitude":"27.6079040","Name":"M5-Răcăria-Ușurei"},{"Latitude":"48.2931589","Longitude":"27.1073533","Name":"M5-Tabani-Trinca"},{"Latitude":"48.2740266","Longitude":"27.0863019","Name":"M5-Trestieni-Caracușenii Vechi"},{"Latitude":"47.0726789","Longitude":"29.0203694","Name":"M5-Vadul lui Vodă"},{"Latitude":"47.8796927","Longitude":"27.6580930","Name":"M5-drumul de acces spre satul Aluniș"},{"Latitude":"48.0606458","Longitude":"27.4944959","Name":"M5-drumul de acces spre satul Brătușenii Noi"},{"Latitude":"48.0657250","Longitude":"27.5211945","Name":"M5-drumul de acces spre satul Ciubara"},{"Latitude":"47.4849854","Longitude":"28.1679445","Name":"M5-drumul de acces spre satul Cucioaia Nouă"},{"Latitude":"47.2458798","Longitude":"28.6054019","Name":"M5-drumul de acces spre satul Greblești"},{"Latitude":"47.3903763","Longitude":"28.3896820","Name":"M5-drumul de acces spre satul Meleșeni"},{"Latitude":"47.9761337","Longitude":"27.6029523","Name":"M5-drumul de acces spre satul Rămăzan"},{"Latitude":"47.8730359","Longitude":"27.6998215","Name":"M5-drumul de acces spre satul Slobozia-Recea"},{"Latitude":"47.8902652","Longitude":"27.7129080","Name":"M5-drumul de acces spre satul Sverdiac"},{"Latitude":"47.3910143","Longitude":"28.3647544","Name":"M5-drumul de acces spre satul Țibirica"},{"Latitude":"47.9156353","Longitude":"27.6831575","Name":"M5-Șumna-Cepăria"},{"Latitude":"46.8608859","Longitude":"29.7492875","Name":"M5-Граница с Украиной"},{"Latitude":"46.9712258","Longitude":"28.1833928","Name":"Marinici-Șișcani"},{"Latitude":"46.5344355","Longitude":"28.6202740","Name":"Maximeni-Javgur"},{"Latitude":"46.9774232","Longitude":"29.0301511","Name":"Maximovca-Mereni"},{"Latitude":"48.3520063","Longitude":"26.7934616","Name":"Medveja-frontiera cu Ucraina"},{"Latitude":"46.9200255","Longitude":"29.0460874","Name":"Mereni-Chetrosu"},{"Latitude":"48.0255249","Longitude":"27.6437774","Name":"Mihăileni-Nicoreni"},{"Latitude":"47.9997121","Longitude":"27.5889727","Name":"Mihăileni-Rîșcani"},{"Latitude":"46.7429066","Longitude":"28.9311739","Name":"Mileștii Noi-Cărbuna-Căinari"},{"Latitude":"46.5782452","Longitude":"28.3469388","Name":"Mingir-R34"},{"Latitude":"47.8912493","Longitude":"28.0254785","Name":"Moara de Piatră-Cubolta"},{"Latitude":"47.8853315","Longitude":"27.9471057","Name":"Moara de Piatră-Hăsnășenii Noi"},{"Latitude":"46.7852101","Longitude":"28.8212427","Name":"Molești-Răzeni"},{"Latitude":"45.8799532","Longitude":"28.4171667","Name":"Moscovei-Musaitu"},{"Latitude":"45.7961703","Longitude":"28.5497339","Name":"Musaitu-M3"},{"Latitude":"47.5023333","Longitude":"28.2413342","Name":"Mîndrești-Ghiliceni"},{"Latitude":"47.4278211","Longitude":"28.3155563","Name":"Mîndrești-Hirișeni-G64"},{"Latitude":"47.7217953","Longitude":"28.1099889","Name":"Mîndreștii Noi-Sîngereii Noi"},{"Latitude":"48.1682811","Longitude":"27.8931976","Name":"Mîndîc-Zgurița"},{"Latitude":"48.3354318","Longitude":"27.2466613","Name":"Mărcăuți-Corestăuți"},{"Latitude":"47.2874440","Longitude":"28.9766250","Name":"Mаșcăuți-G72"},{"Latitude":"46.8553390","Longitude":"28.2076413","Name":"Nemțeni-M1"},{"Latitude":"46.7573995","Longitude":"29.2026806","Name":"Nicolaevca-G110"},{"Latitude":"47.6698890","Longitude":"28.1620325","Name":"Nicolaevca-Sîngerei"},{"Latitude":"48.2799015","Longitude":"27.9203694","Name":"Niorcani-Teleșeuca"},{"Latitude":"47.0248630","Longitude":"28.0658269","Name":"Nisporeni-G91"},{"Latitude":"47.0500887","Longitude":"28.1646981","Name":"Nisporeni-Marinici"},{"Latitude":"47.2459265","Longitude":"28.3633201","Name":"Nișcani-R1"},{"Latitude":"47.4071960","Longitude":"28.1849546","Name":"Năpădeni-M5"},{"Latitude":"48.4357255","Longitude":"27.4806817","Name":"Ocnița-Naslavcea-Lencăuți"},{"Latitude":"48.4134765","Longitude":"27.6071264","Name":"Ocnița-Otaci"},{"Latitude":"48.2586624","Longitude":"27.4209471","Name":"Ocnița-Ruseni"},{"Latitude":"47.7567733","Longitude":"28.6984123","Name":"Olișcani-Peciște"},{"Latitude":"47.3802951","Longitude":"28.2789341","Name":"Onișcani-M5"},{"Latitude":"47.6899837","Longitude":"28.4568700","Name":"Ordășei-Pistruieni-Hîrtop"},{"Latitude":"47.3543993","Longitude":"28.8114309","Name":"Orhei-Bravicea"},{"Latitude":"47.6234945","Longitude":"28.1771227","Name":"Orhei-Bălți"},{"Latitude":"47.4328991","Longitude":"28.7992341","Name":"Orhei-Rezina"},{"Latitude":"47.4169147","Longitude":"28.9938413","Name":"Orhei-Susleni"},{"Latitude":"47.7609949","Longitude":"27.8991779","Name":"Pasajul 1 Pavel Boțu"},{"Latitude":"47.7602905","Longitude":"27.9001272","Name":"Pasajul 2 Pavel Boțu"},{"Latitude":"47.7730605","Longitude":"27.9481964","Name":"Pasajul Alexandru Marinescu"},{"Latitude":"47.7890865","Longitude":"27.9326537","Name":"Pasajul Constantin Negruzzi"},{"Latitude":"47.7775408","Longitude":"27.8875963","Name":"Pasajul Ivan Ciarupin"},{"Latitude":"47.7394941","Longitude":"27.8994744","Name":"Pasajul Izmail"},{"Latitude":"47.7649747","Longitude":"27.9022214","Name":"Pasajul Nikolai Ostrovski"},{"Latitude":"47.7472932","Longitude":"27.8979352","Name":"Pasajul Nistrean"},{"Latitude":"47.7479993","Longitude":"27.9035640","Name":"Pasajul Plopilor"},{"Latitude":"47.7583752","Longitude":"27.9010183","Name":"Pasajul Polina Osipenco"},{"Latitude":"47.7858168","Longitude":"27.9319538","Name":"Pasajul Simferopol"},{"Latitude":"47.7552561","Longitude":"27.8872456","Name":"Pasajul Tudor Vladimirescu"},{"Latitude":"46.8984211","Longitude":"28.4063327","Name":"Pașcani-Lăpușna"},{"Latitude":"47.6828007","Longitude":"28.6609152","Name":"Peciște-Ignăței"},{"Latitude":"47.6838708","Longitude":"28.7603919","Name":"Peciște-Trifești"},{"Latitude":"47.8636870","Longitude":"27.7916241","Name":"Pelinia-M5"},{"Latitude":"47.2872675","Longitude":"28.6996764","Name":"Peresecina-Donici"},{"Latitude":"47.2339650","Longitude":"28.9129850","Name":"Peresecina-Hîrtopul Mare"},{"Latitude":"46.6976926","Longitude":"29.0726703","Name":"Pervomaisc-Gangura"},{"Latitude":"47.3253079","Longitude":"27.8341890","Name":"Petrești-R17"},{"Latitude":"47.8225541","Longitude":"27.3581171","Name":"Petrușeni-Camenca"},{"Latitude":"46.9223504","Longitude":"28.8129381","Name":"Piatra Albă-Mileștii Mici"},{"Latitude":"46.8814719","Longitude":"29.2323875","Name":"Piața 31 August"},{"Latitude":"48.4518444","Longitude":"27.7661761","Name":"Piața Albișoară"},{"Latitude":"47.0380409","Longitude":"28.8134050","Name":"Piața Dimitrie Cantemir"},{"Latitude":"47.0117702","Longitude":"28.8588373","Name":"Piața Gării"},{"Latitude":"45.9049342","Longitude":"28.1941829","Name":"Piața Indepedenţei"},{"Latitude":"47.0235147","Longitude":"28.8307800","Name":"Piața Marii Adunări Naționale"},{"Latitude":"47.0391131","Longitude":"28.8538879","Name":"Piața Renașterii Naționale"},{"Latitude":"47.0267968","Longitude":"28.7947370","Name":"Piața Unirea Principatelor"},{"Latitude":"46.6678086","Longitude":"29.4769732","Name":"Plop Știubei-Căușeni"},{"Latitude":"48.4331973","Longitude":"27.7973877","Name":"Pod de piatra turcesc (sec XVIII)"},{"Latitude":"48.1834529","Longitude":"26.9625132","Name":"Pod vechi turcesc"},{"Latitude":"47.6497579","Longitude":"27.9434104","Name":"Pompa-Glinjeni"},{"Latitude":"48.1013946","Longitude":"28.0661096","Name":"Popeștii de Sus-Schineni"},{"Latitude":"47.6210701","Longitude":"28.3410185","Name":"Prepelița-Bălășești"},{"Latitude":"47.5136057","Longitude":"27.5524565","Name":"Pruteni-Drujineni"},{"Latitude":"47.4661836","Longitude":"27.5725087","Name":"Pruteni-Lucăсeni"},{"Latitude":"46.7682630","Longitude":"29.0075230","Name":"Puhoi-Gangura"},{"Latitude":"47.2190808","Longitude":"28.1907520","Name":"Pîrjolteni-Căbăiești"},{"Latitude":"47.9688603","Longitude":"27.4501263","Name":"Pîrjota-Borosenii Noi-Mihăilenii Noi"},{"Latitude":"47.9469040","Longitude":"27.4424958","Name":"Pîrjota-R7"},{"Latitude":"47.4005889","Longitude":"27.8858212","Name":"Pîrlița - Agronomovca - Negurenii Vechi"},{"Latitude":"47.3580621","Longitude":"27.8869134","Name":"Pîrlița-Agronomovca-Negurenii Vechi"},{"Latitude":"47.2109543","Longitude":"28.0406221","Name":"Pîrlița-Nisporeni"},{"Latitude":"48.0322952","Longitude":"28.2281983","Name":"Pîrlița-Vădeni"},{"Latitude":"47.1467064","Longitude":"28.5025939","Name":"Pănășești-Căpriana"},{"Latitude":"47.1825992","Longitude":"28.1097597","Name":"Păruceni-Seliște-Vînători"},{"Latitude":"47.6217202","Longitude":"27.4232246","Name":"Păscăuți-Călinești"},{"Latitude":"47.3384474","Longitude":"28.1015754","Name":"R 1-drumul de acces spre satul Veverița"},{"Latitude":"46.5240285","Longitude":"29.7228938","Name":"R 30-Slobozia-Ștefan Vodă"},{"Latitude":"46.5322983","Longitude":"29.8760689","Name":"R 30-Viișoara-Purcari"},{"Latitude":"46.5614102","Longitude":"29.7087398","Name":"R 30-drumul de acces spre satul Cioburciu"},{"Latitude":"46.4351665","Longitude":"29.9637870","Name":"R 30-drumul de acces spre satul Crocmaz"},{"Latitude":"46.4519336","Longitude":"29.9189484","Name":"R 30-drumul de acces spre satul Căplani"},{"Latitude":"47.3548690","Longitude":"27.9417728","Name":"R1 - drumul de acces spre satul Bumbăta"},{"Latitude":"47.2676189","Longitude":"27.8388085","Name":"R1 - drumul de acces spre satul Novaia Nicolaevca"},{"Latitude":"47.2313350","Longitude":"28.4272990","Name":"R1-Pitușca-Vărzăreștii Noi"},{"Latitude":"47.1505242","Longitude":"28.5083197","Name":"R1-Pănășești"},{"Latitude":"47.3756082","Longitude":"27.9519306","Name":"R1-Romanovca-Teșcureni"},{"Latitude":"47.0807331","Longitude":"28.7416343","Name":"R1-Roșcani-stația Ghidighici"},{"Latitude":"47.2197971","Longitude":"27.8091465","Name":"R1-drumul de acces spre orașul Ungheni"},{"Latitude":"47.3478412","Longitude":"27.9503343","Name":"R1-drumul de acces spre satul Bumbăta"},{"Latitude":"47.0880023","Longitude":"28.7050085","Name":"R1-drumul de acces spre satul Cojușna"},{"Latitude":"47.3477156","Longitude":"28.0318077","Name":"R1-drumul de acces spre satul Cornești"},{"Latitude":"47.1496256","Longitude":"28.5652163","Name":"R1-drumul de acces spre satul Făgureni"},{"Latitude":"47.2671457","Longitude":"27.8397938","Name":"R1-drumul de acces spre satul Novaia Nicolaevca"},{"Latitude":"47.2734957","Longitude":"28.2644222","Name":"R1-drumul de acces spre satul Oricova"},{"Latitude":"47.2817351","Longitude":"28.1978231","Name":"R1-drumul de acces spre satul Sipoteni"},{"Latitude":"47.3643621","Longitude":"27.9388031","Name":"R1-drumul de acces spre satul Teșcureni"},{"Latitude":"47.2969965","Longitude":"28.1846967","Name":"R1-drumul de acces spre satul Tochila"},{"Latitude":"47.0680026","Longitude":"28.7262687","Name":"R1-drumul de acces spre satul Trușeni"},{"Latitude":"47.1733554","Longitude":"28.5289031","Name":"R1-drumul de acces spre satul Tătărești"},{"Latitude":"47.2339096","Longitude":"27.8285400","Name":"R1.1 - Mănoilești - Cetireni"},{"Latitude":"47.2343062","Longitude":"27.8274795","Name":"R1.1-Mănoilești-Cetireni"},{"Latitude":"47.1160037","Longitude":"28.2084825","Name":"R10-drumul de acces la Mănăstirea Vărzărești"},{"Latitude":"48.4161936","Longitude":"27.3623837","Name":"R11 – Clocuşna"},{"Latitude":"48.3679451","Longitude":"27.1933615","Name":"R11-Bulboaca-frontiera cu Ucraina"},{"Latitude":"48.3452563","Longitude":"27.2576701","Name":"R11-Corestăuți"},{"Latitude":"48.3718117","Longitude":"27.4120175","Name":"R11-drumul de acces spre satul Maiovca"},{"Latitude":"48.4066962","Longitude":"27.4971561","Name":"R11.1-drumul de acces spre satul Lipnic"},{"Latitude":"47.8821148","Longitude":"27.7800445","Name":"R12-Grinăuți-Ciobanovca"},{"Latitude":"48.2023366","Longitude":"27.8218480","Name":"R12-Maramonovca-Ceapaevca"},{"Latitude":"48.1600238","Longitude":"27.7630174","Name":"R12-Mîndîc"},{"Latitude":"48.1668978","Longitude":"27.6497449","Name":"R12-Tîrnova"},{"Latitude":"48.0110066","Longitude":"27.8401651","Name":"R12-drumul de acces spre satul Baroncea Nouă"},{"Latitude":"48.1130285","Longitude":"27.8017395","Name":"R12-drumul de acces spre satul Drochia"},{"Latitude":"47.9877978","Longitude":"27.7941900","Name":"R12-drumul de acces spre satul Miciurin"},{"Latitude":"47.8192009","Longitude":"28.0568960","Name":"R13-Alexăndreni"},{"Latitude":"47.8860603","Longitude":"28.2285905","Name":"R13-Lunga"},{"Latitude":"47.8654286","Longitude":"28.1596455","Name":"R13-Zarojeni-Gura Căinarului"},{"Latitude":"47.7922620","Longitude":"28.0030247","Name":"R13-drumul de acces spre satul Elizaveta"},{"Latitude":"47.8614207","Longitude":"28.0694003","Name":"R13-drumul de acces spre satul Mărășești"},{"Latitude":"48.1780769","Longitude":"28.2673370","Name":"R14-Cosăuți-frontiera cu Ucraina"},{"Latitude":"48.3003422","Longitude":"27.8687611","Name":"R14-Crișcăuți"},{"Latitude":"47.6192961","Longitude":"28.5464575","Name":"R14-Dobrușa-Chersac-Scorțeni"},{"Latitude":"48.1652056","Longitude":"28.0894365","Name":"R14-Drochia"},{"Latitude":"48.3106871","Longitude":"28.0313472","Name":"R14-Iarova-Balinți"},{"Latitude":"48.2736489","Longitude":"28.0409419","Name":"R14-Oclanda-Cremenciug-R14"},{"Latitude":"48.0637366","Longitude":"28.3196934","Name":"R14-Redi-Cereșnovăț-Voloave-R14"},{"Latitude":"48.0306338","Longitude":"28.3806308","Name":"R14-Slobozia-Cremene"},{"Latitude":"48.0033390","Longitude":"28.3928086","Name":"R14-Soloneț"},{"Latitude":"48.2832542","Longitude":"27.9810472","Name":"R14-Tătărăuca Veche-L80"},{"Latitude":"47.9129304","Longitude":"28.4934142","Name":"R14-Unchitești"},{"Latitude":"48.3672081","Longitude":"27.8570583","Name":"R14-drumul de acces spre satul Arionești"},{"Latitude":"47.6599739","Longitude":"28.4806371","Name":"R14-drumul de acces spre satul Brînzenii Vechi"},{"Latitude":"47.4240662","Longitude":"28.8208045","Name":"R14-drumul de acces spre satul Budăi"},{"Latitude":"48.1860882","Longitude":"28.1250705","Name":"R14-drumul de acces spre satul Cureșnița Nouă"},{"Latitude":"47.7904338","Longitude":"28.4416609","Name":"R14-drumul de acces spre satul Domulgeni"},{"Latitude":"48.0305032","Longitude":"28.3803428","Name":"R14-drumul de acces spre satul Dubna"},{"Latitude":"48.2372628","Longitude":"28.0502254","Name":"R14-drumul de acces spre satul Livezi"},{"Latitude":"47.5804628","Longitude":"28.5533313","Name":"R14-drumul de acces spre satul Nucăreni"},{"Latitude":"48.1322575","Longitude":"28.2648182","Name":"R14-drumul de acces spre satul Ocolina"},{"Latitude":"48.0713773","Longitude":"28.3812306","Name":"R14-drumul de acces spre satul Racovăț"},{"Latitude":"48.1619739","Longitude":"28.1496345","Name":"R14-drumul de acces spre satul Rublenița Nouă"},{"Latitude":"48.3263174","Longitude":"27.8898436","Name":"R14-drumul de acces spre satul Rudi"},{"Latitude":"48.2686211","Longitude":"27.9795369","Name":"R14-drumul de acces spre satul Slobozia Nouă"},{"Latitude":"48.3044310","Longitude":"27.9128303","Name":"R14-drumul de acces spre satul Tolocănești"},{"Latitude":"48.3021640","Longitude":"27.9709630","Name":"R14-drumul de acces spre satul Tătărăuca Nouă"},{"Latitude":"48.2413993","Longitude":"28.0579064","Name":"R14-drumul de acces spre satul Valea"},{"Latitude":"48.1895015","Longitude":"28.1379776","Name":"R14-drumul de acces spre satul Șeptelici"},{"Latitude":"47.8463848","Longitude":"28.4389973","Name":"R14-Șoldănești"},{"Latitude":"48.1296387","Longitude":"28.2448226","Name":"R14-Țepilova"},{"Latitude":"48.2059187","Longitude":"28.3513481","Name":"R14.1-drumul de acces spre satul Egoreni"},{"Latitude":"47.8099079","Longitude":"27.5044976","Name":"R15-Danu-Camencuța"},{"Latitude":"47.7572843","Longitude":"27.6573059","Name":"R15-Fundurii Noi-Limbenii Vechi-Ustia"},{"Latitude":"47.7975092","Longitude":"27.6206005","Name":"R15-drumul de acces spre satul Iabloana"},{"Latitude":"47.7996373","Longitude":"27.5650816","Name":"R15-drumul de acces spre satul Soroca"},{"Latitude":"47.3029506","Longitude":"27.6961696","Name":"R16 - drumul de acces spre satul Medeleni"},{"Latitude":"47.4457083","Longitude":"27.6550958","Name":"R16-Izvoare"},{"Latitude":"47.4015976","Longitude":"27.6112071","Name":"R16-drumul de acces spre satul Hrubna Nouă"},{"Latitude":"47.6779077","Longitude":"27.8108117","Name":"R16-drumul de acces spre satul Mărăndeni"},{"Latitude":"47.3076203","Longitude":"27.7307081","Name":"R16-drumul de acces spre satul Petrești"},{"Latitude":"47.7371425","Longitude":"27.8089591","Name":"R16-drumul de acces spre satul Pîrlița"},{"Latitude":"47.4697824","Longitude":"27.6579152","Name":"R16-drumul de acces spre satul Risipeni"},{"Latitude":"47.2399796","Longitude":"27.7910158","Name":"R16-drumul de acces spre stația Berești"},{"Latitude":"47.3458920","Longitude":"27.8357026","Name":"R17-Grăseni-Todirești"},{"Latitude":"47.3875101","Longitude":"27.7858140","Name":"R17-drumul de acces spre satul Chirileni"},{"Latitude":"47.5124218","Longitude":"27.7379331","Name":"R17-drumul de acces spre satul Sărata Veche"},{"Latitude":"47.4562126","Longitude":"27.8142768","Name":"R17-drumul de acces spre satul Șoltoaia"},{"Latitude":"47.5515210","Longitude":"27.7134864","Name":"R17-stația Fălești-Călugăr"},{"Latitude":"47.4287058","Longitude":"27.9040772","Name":"R17-Țîghira"},{"Latitude":"47.9843712","Longitude":"28.7029605","Name":"R19-Japca"},{"Latitude":"48.0056186","Longitude":"28.6976397","Name":"R19-drumul de acces spre satul Bursuc"},{"Latitude":"47.8670593","Longitude":"28.5783588","Name":"R19-drumul de acces spre satul Cușelăuca"},{"Latitude":"48.0205465","Longitude":"28.6418976","Name":"R19-drumul de acces spre satul Napadova"},{"Latitude":"46.9121694","Longitude":"29.3605302","Name":"R2-Calfa-Roșcani"},{"Latitude":"46.9137585","Longitude":"28.9979824","Name":"R2-Sîngera-Dobrogea"},{"Latitude":"46.8497829","Longitude":"29.3536606","Name":"R2-drumul de acces spre satul Hîrbovăț"},{"Latitude":"46.8874946","Longitude":"29.1984536","Name":"R2-drumul de acces spre satul Ruseni"},{"Latitude":"47.5882857","Longitude":"28.8053343","Name":"R20-Bușăuca-Ghiduleni"},{"Latitude":"47.6548871","Longitude":"28.9662958","Name":"R20-Cinișeuți-Buciușca"},{"Latitude":"47.6980882","Longitude":"28.8733257","Name":"R20-Cinișeuți-Echimăuți"},{"Latitude":"47.6247339","Longitude":"28.8892391","Name":"R20-Horodiște"},{"Latitude":"47.5660635","Longitude":"28.7532108","Name":"R20-Podgoreni-Zahoreni"},{"Latitude":"47.6358628","Longitude":"28.8205695","Name":"R20-drumul de acces spre satul Cogîlniceni"},{"Latitude":"47.6033954","Longitude":"28.8278271","Name":"R20-drumul de acces spre satul Cuizăuca"},{"Latitude":"47.5879778","Longitude":"28.8269219","Name":"R20-drumul de acces spre satul Otac"},{"Latitude":"47.3397158","Longitude":"28.1827605","Name":"R21-Hîrjauca-Sanatoriul „Codru”-Leordoaia"},{"Latitude":"47.3703928","Longitude":"28.7208327","Name":"R21-Isacova-Neculăieuca-R21"},{"Latitude":"47.2713301","Longitude":"28.3551882","Name":"R21-Nișcani"},{"Latitude":"47.3369422","Longitude":"28.6570486","Name":"R21-drumul de acces spre Mănăstirea Curchi"},{"Latitude":"47.3274964","Longitude":"28.3986403","Name":"R21-drumul de acces spre satul Frumoasa"},{"Latitude":"47.2985656","Longitude":"28.3707731","Name":"R21-drumul de acces spre satul Parcani"},{"Latitude":"47.3844782","Longitude":"28.5860503","Name":"R21-drumul de acces spre satul Puțintei"},{"Latitude":"47.3372103","Longitude":"28.7850328","Name":"R21-drumul de acces spre satul Seliște"},{"Latitude":"47.3759640","Longitude":"28.5018841","Name":"R21-drumul de acces spre satul Săseni"},{"Latitude":"46.3135277","Longitude":"28.7677815","Name":"R23-drumul de acces spre satul Bașcalia"},{"Latitude":"47.1372771","Longitude":"28.3782769","Name":"R25-Lozova"},{"Latitude":"47.0958277","Longitude":"28.2714883","Name":"R25-M1"},{"Latitude":"47.1605091","Longitude":"28.2269209","Name":"R25-drumul de acces spre satul Ciorești"},{"Latitude":"47.1306360","Longitude":"28.2791653","Name":"R25-drumul de acces spre satul Dolna"},{"Latitude":"47.1382609","Longitude":"28.3876410","Name":"R25-drumul de acces spre satul Lozova"},{"Latitude":"47.1316199","Longitude":"28.3127966","Name":"R25-drumul de acces spre satul Micleușeni"},{"Latitude":"47.1863875","Longitude":"28.4607416","Name":"R25-drumul de acces spre stația Bucovăț"},{"Latitude":"46.5534630","Longitude":"29.0052613","Name":"R26-Batîr-Ciuflești"},{"Latitude":"46.5333925","Longitude":"28.9340030","Name":"R26-Ivanovca"},{"Latitude":"46.4772158","Longitude":"29.2817006","Name":"R26-Ucrainca-frontiera cu Ucraina"},{"Latitude":"46.6728132","Longitude":"29.4381982","Name":"R26-drumul de acces spre orașul Căușeni"},{"Latitude":"46.6288784","Longitude":"29.3145403","Name":"R26-drumul de acces spre satul Marianca de Sus"},{"Latitude":"46.5978847","Longitude":"29.3170102","Name":"R26-drumul de acces spre satul Opaci"},{"Latitude":"46.7114936","Longitude":"29.4503504","Name":"R26-drumul de acces spre satul Ursoaia"},{"Latitude":"46.1849567","Longitude":"28.8660562","Name":"R29-Joltai"},{"Latitude":"46.1021670","Longitude":"28.7815645","Name":"R29-drumul de acces spre satul Gaidar"},{"Latitude":"46.0444316","Longitude":"28.8982605","Name":"R29-drumul de acces spre satul Valea Perjei"},{"Latitude":"46.0728175","Longitude":"28.8338059","Name":"R29-drumul de acces spre stația Ceadîr-Lunga"},{"Latitude":"46.0405534","Longitude":"28.9172873","Name":"R29.1-Valea Perjei-frontiera cu Ucraina"},{"Latitude":"46.8480906","Longitude":"28.6527768","Name":"R3-Buțeni"},{"Latitude":"46.8937503","Longitude":"28.6836884","Name":"R3-Costești"},{"Latitude":"46.6479030","Longitude":"28.6973532","Name":"R3-Hîrtop-Ialpug"},{"Latitude":"46.4410169","Longitude":"28.8642545","Name":"R3-Sadaclia"},{"Latitude":"46.9113367","Longitude":"28.6879007","Name":"R3-drumul de acces spre satul Bardar"},{"Latitude":"46.7739339","Longitude":"28.6282415","Name":"R3-drumul de acces spre satul Dubovca"},{"Latitude":"46.8749413","Longitude":"28.6305008","Name":"R3-drumul de acces spre satul Fundul Galbenei"},{"Latitude":"46.9434624","Longitude":"28.7231358","Name":"R3-drumul de acces spre satul Sociteni"},{"Latitude":"46.4935789","Longitude":"29.8459164","Name":"R30-Antonești"},{"Latitude":"46.5809221","Longitude":"29.7755179","Name":"R30-Răscăieți-Hlinaia-R27"},{"Latitude":"46.5141710","Longitude":"29.7061705","Name":"R30-Slobozia-Ștefan Vodă"},{"Latitude":"46.6198782","Longitude":"29.6596795","Name":"R30-Talmaza"},{"Latitude":"46.5442301","Longitude":"29.8274038","Name":"R30-Viișoara-Purcari"},{"Latitude":"46.6489542","Longitude":"29.4065134","Name":"R30-drumul de acces spre orașul Căușeni"},{"Latitude":"46.5388947","Longitude":"29.6459064","Name":"R30-drumul de acces spre orașul Ștefan Vodă"},{"Latitude":"46.8002138","Longitude":"29.2722384","Name":"R30-drumul de acces spre satul Balmaz"},{"Latitude":"46.6537472","Longitude":"29.4914073","Name":"R30-drumul de acces spre satul Cîrnățeni"},{"Latitude":"46.8064067","Longitude":"29.2280997","Name":"R30-drumul de acces spre satul Mirnoe"},{"Latitude":"46.4907312","Longitude":"29.8864469","Name":"R30-drumul de acces spre satul Olănești"},{"Latitude":"46.5932332","Longitude":"29.5290093","Name":"R30-drumul de acces spre satul Popeasca"},{"Latitude":"46.7463966","Longitude":"29.2509858","Name":"R30-drumul de acces spre satul Tricolici"},{"Latitude":"46.5716385","Longitude":"29.6306790","Name":"R30-drumul de acces spre tabăra de odihnă „Dumbrava”"},{"Latitude":"46.5271478","Longitude":"29.6799841","Name":"R30-Ștefan Vodă"},{"Latitude":"46.6132844","Longitude":"29.7607183","Name":"R30-Рэскэець-Глиное-R27"},{"Latitude":"46.1156682","Longitude":"28.2864402","Name":"R32-Andrușul de Sus-Rumeanțev-G134"},{"Latitude":"45.9536540","Longitude":"28.3472529","Name":"R32-Moscovei"},{"Latitude":"45.8659562","Longitude":"28.2540193","Name":"R32-drumul de acces spre aeroportul Cahul"},{"Latitude":"45.8007986","Longitude":"28.3847794","Name":"R32-drumul de acces spre satul Alexanderfeld"},{"Latitude":"45.9465735","Longitude":"28.4069478","Name":"R32-drumul de acces spre satul Lopățica"},{"Latitude":"45.9283880","Longitude":"28.3454573","Name":"R32-drumul de acces spre satul Moscovei"},{"Latitude":"45.8518685","Longitude":"28.2968968","Name":"R32-drumul de acces spre satul Ursoaia"},{"Latitude":"45.7913963","Longitude":"28.3628302","Name":"R32-drumul de acces spre satul Vladimirovca"},{"Latitude":"46.9055836","Longitude":"28.2696638","Name":"R33-Bujor-M1"},{"Latitude":"46.8657529","Longitude":"28.3944376","Name":"R33-Sofia"},{"Latitude":"46.8826780","Longitude":"28.4609061","Name":"R33-drumul de acces spre satul Anini"},{"Latitude":"46.9168386","Longitude":"28.3293356","Name":"R33-drumul de acces spre satul Boghiceni"},{"Latitude":"46.8900738","Longitude":"28.3232340","Name":"R33-drumul de acces spre satul Pervomaiscoe"},{"Latitude":"46.8018552","Longitude":"28.2664312","Name":"R33-drumul de acces spre satul Tălăiești"},{"Latitude":"45.9775755","Longitude":"28.1861964","Name":"R34-Andrușul de Jos-Andrușul de Sus"},{"Latitude":"46.3211626","Longitude":"28.2115489","Name":"R34-Antonești-Leca"},{"Latitude":"46.1142548","Longitude":"28.1950295","Name":"R34-Doina"},{"Latitude":"46.1395661","Longitude":"28.1660016","Name":"R34-Gotești-stația Gotești"},{"Latitude":"46.1087733","Longitude":"28.2795304","Name":"R34-Larga Nouă-Rumeanțev"},{"Latitude":"46.7156782","Longitude":"28.5161346","Name":"R34-drumul de acces spre satul Caracui"},{"Latitude":"46.5164805","Longitude":"28.4271472","Name":"R34-drumul de acces spre satul Cazangic"},{"Latitude":"46.6626565","Longitude":"28.5036434","Name":"R34-drumul de acces spre satul Cîzlar"},{"Latitude":"46.4468298","Longitude":"28.3033696","Name":"R34-drumul de acces spre satul Filipeni"},{"Latitude":"46.5441001","Longitude":"28.4356118","Name":"R34-drumul de acces spre satul Frumușica"},{"Latitude":"46.3906131","Longitude":"28.2494171","Name":"R34-drumul de acces spre satul Nicolaevca"},{"Latitude":"46.4815987","Longitude":"28.3217690","Name":"R34-drumul de acces spre satul Romanovca"},{"Latitude":"46.2704210","Longitude":"28.1760551","Name":"R34-drumul de acces spre satul Stoianovca"},{"Latitude":"46.8023281","Longitude":"28.5323683","Name":"R34-drumul de acces spre satul Sărata-Mereșeni"},{"Latitude":"46.3716930","Longitude":"28.2217015","Name":"R34-drumul de acces spre satul Toceni"},{"Latitude":"46.5592838","Longitude":"28.4640004","Name":"R34-drumul de acces spre satul Troița"},{"Latitude":"46.6155252","Longitude":"28.4365403","Name":"R34-drumul de acces spre satul Victoria"},{"Latitude":"46.3807192","Longitude":"28.2540014","Name":"R34-drumul de acces spre satul Vîlcele"},{"Latitude":"46.2371500","Longitude":"28.1510489","Name":"R34-drumul de acces spre satul Țiganca"},{"Latitude":"46.2692974","Longitude":"28.2334238","Name":"R35-Baimaclia"},{"Latitude":"46.2916668","Longitude":"28.4642640","Name":"R35-Bobocica"},{"Latitude":"46.2518673","Longitude":"28.3387291","Name":"R35-Lărguța-Cîrpești-G136"},{"Latitude":"46.2370002","Longitude":"28.5163751","Name":"R35-Sadîc-Taraclia"},{"Latitude":"46.3132308","Longitude":"28.2750210","Name":"R35-drumul de acces spre satul Porumbești"},{"Latitude":"45.9785099","Longitude":"28.6766694","Name":"R37-Cazaclia-stația Cazaclia"},{"Latitude":"47.1235998","Longitude":"28.8905105","Name":"R4-drumul de acces spre Goianul Nou"},{"Latitude":"47.1097868","Longitude":"29.0613416","Name":"R4-drumul de acces spre orașul Vadul lui Vodă"},{"Latitude":"47.1003167","Longitude":"29.1055915","Name":"R5-Pîrîta-Coșnița"},{"Latitude":"47.6557518","Longitude":"28.0576611","Name":"R6-Bilicenii Vechi"},{"Latitude":"47.5811562","Longitude":"28.1382713","Name":"R6-Brejeni"},{"Latitude":"47.2909101","Longitude":"28.8064313","Name":"R6-Brănești"},{"Latitude":"47.4803254","Longitude":"28.5717645","Name":"R6-Clișova"},{"Latitude":"47.5365662","Longitude":"28.5794840","Name":"R6-Codrul Nou"},{"Latitude":"48.1488753","Longitude":"28.2734242","Name":"R6-Codrul Nou-Soroca"},{"Latitude":"47.1165397","Longitude":"28.8638049","Name":"R6-Goian"},{"Latitude":"47.7175334","Longitude":"28.0062839","Name":"R6-Mîndreștii Noi"},{"Latitude":"47.4424071","Longitude":"28.6283362","Name":"R6-Mălăiești-Morozeni"},{"Latitude":"47.2646789","Longitude":"28.7846434","Name":"R6-Peresecina"},{"Latitude":"47.5896789","Longitude":"28.3433651","Name":"R6-Prepelița"},{"Latitude":"47.2257841","Longitude":"28.7387260","Name":"R6-Romănești"},{"Latitude":"47.5993778","Longitude":"28.0838005","Name":"R6-Vrănești-Iezărenii Vechi"},{"Latitude":"47.4202169","Longitude":"28.7420469","Name":"R6-Zorile"},{"Latitude":"47.1527835","Longitude":"28.8379688","Name":"R6-drumul de acces spre orașul Cricova"},{"Latitude":"47.6976889","Longitude":"28.0262745","Name":"R6-drumul de acces spre satul Bilicenii Noi"},{"Latitude":"47.4422248","Longitude":"28.6813755","Name":"R6-drumul de acces spre satul Brăviceni"},{"Latitude":"47.5682762","Longitude":"28.4007193","Name":"R6-drumul de acces spre satul Băneștii Noi"},{"Latitude":"47.6843371","Longitude":"28.0014413","Name":"R6-drumul de acces spre satul Lipovanca"},{"Latitude":"47.2380689","Longitude":"28.7639473","Name":"R6-drumul de acces spre satul Miclești"},