[{"Latitude":"-21.1431244","Longitude":"-175.2097331","Name":"'Alaivahamama'o Bypass"},{"Latitude":"-18.6527052","Longitude":"-173.9813933","Name":"'Otumapa Road"},{"Latitude":"-21.1326165","Longitude":"-175.2060840","Name":"Ata Road"},{"Latitude":"-19.8083598","Longitude":"-174.3496496","Name":"Avoka Kent Street"},{"Latitude":"-18.6537118","Longitude":"-173.9793762","Name":"Falaleu Road"},{"Latitude":"-18.6498002","Longitude":"-173.9871342","Name":"Fatafehi Road"},{"Latitude":"-19.8045405","Longitude":"-174.3483472","Name":"Fau Road"},{"Latitude":"-19.7618676","Longitude":"-174.3366177","Name":"Foa Causeway"},{"Latitude":"-18.6490908","Longitude":"-173.9831672","Name":"Ha'amea Road"},{"Latitude":"-21.1290886","Longitude":"-175.2094560","Name":"Hala 'Alofaki"},{"Latitude":"-21.1408599","Longitude":"-175.2006172","Name":"Hala 'Amalie"},{"Latitude":"-21.1353279","Longitude":"-175.2182319","Name":"Hala 'Amanaki"},{"Latitude":"-21.1020702","Longitude":"-175.3386704","Name":"Hala 'Ata"},{"Latitude":"-21.1422797","Longitude":"-175.2982382","Name":"Hala 'Ikahui"},{"Latitude":"-21.1336411","Longitude":"-175.2297918","Name":"Hala 'Itiela"},{"Latitude":"-21.1333673","Longitude":"-175.2199066","Name":"Hala 'Ofa"},{"Latitude":"-21.1481701","Longitude":"-175.1772151","Name":"Hala 'Umusi"},{"Latitude":"-21.1372770","Longitude":"-175.2004093","Name":"Hala 'Unga"},{"Latitude":"-15.9496365","Longitude":"-173.7693151","Name":"Hala 'Uta"},{"Latitude":"-18.6637514","Longitude":"-173.9984871","Name":"Hala 'Utulei"},{"Latitude":"-21.1706043","Longitude":"-175.2364439","Name":"Hala Afu'alo"},{"Latitude":"-21.1316918","Longitude":"-175.2030504","Name":"Hala Ahi mo e Vunga"},{"Latitude":"-21.1325182","Longitude":"-175.2086482","Name":"Hala Aleamotu'a"},{"Latitude":"-21.1319309","Longitude":"-175.2070505","Name":"Hala Alipate"},{"Latitude":"-21.1752936","Longitude":"-175.2370806","Name":"Hala Asiasi"},{"Latitude":"-21.1301887","Longitude":"-175.2094981","Name":"Hala Ata"},{"Latitude":"-20.2607592","Longitude":"-174.7985853","Name":"Hala Avoka Kent"},{"Latitude":"-21.1393949","Longitude":"-175.2065067","Name":"Hala Baron"},{"Latitude":"-21.1710853","Longitude":"-175.2367170","Name":"Hala Fa'ē"},{"Latitude":"-21.1712855","Longitude":"-175.2365189","Name":"Hala Fafangu 'o Lototonga"},{"Latitude":"-21.1713524","Longitude":"-175.2360918","Name":"Hala Fakakanotangata"},{"Latitude":"-15.9616321","Longitude":"-173.7785159","Name":"Hala Fakalava"},{"Latitude":"-21.1316805","Longitude":"-175.2277685","Name":"Hala Fakama'ungahila"},{"Latitude":"-21.1688421","Longitude":"-175.2347371","Name":"Hala Fakamuila"},{"Latitude":"-21.1310684","Longitude":"-175.2280799","Name":"Hala Fala 'o Tuku'aho"},{"Latitude":"-21.1421039","Longitude":"-175.2030804","Name":"Hala Fatefehi"},{"Latitude":"-21.1348708","Longitude":"-175.2539710","Name":"Hala Faupala"},{"Latitude":"-21.1431203","Longitude":"-175.2019892","Name":"Hala Feta'umaka"},{"Latitude":"-21.1514089","Longitude":"-175.2166175","Name":"Hala Fielakepa"},{"Latitude":"-21.1726458","Longitude":"-175.2359278","Name":"Hala Fieota'anga"},{"Latitude":"-21.1315125","Longitude":"-175.2272352","Name":"Hala Filimoeunga"},{"Latitude":"-21.1274599","Longitude":"-175.2294331","Name":"Hala Finealafia"},{"Latitude":"-21.1740800","Longitude":"-175.2352688","Name":"Hala Fualu"},{"Latitude":"-21.0813244","Longitude":"-175.3357694","Name":"Hala Fungaveingatae"},{"Latitude":"-21.1722689","Longitude":"-175.2392851","Name":"Hala Fāfāpo'uli e Tautahi"},{"Latitude":"-21.1719653","Longitude":"-175.2386811","Name":"Hala Ha'ahao"},{"Latitude":"-21.1413984","Longitude":"-175.2335030","Name":"Hala Ha'ahio"},{"Latitude":"-21.1471058","Longitude":"-175.1859335","Name":"Hala Ha'amoko"},{"Latitude":"-21.1554116","Longitude":"-175.1801578","Name":"Hala Ha'atu'ukau"},{"Latitude":"-21.1375480","Longitude":"-175.2139529","Name":"Hala Ha'avaka'otua"},{"Latitude":"-21.1345730","Longitude":"-175.2304725","Name":"Hala Halaliuloto"},{"Latitude":"-21.1277734","Longitude":"-175.2172072","Name":"Hala Hangale"},{"Latitude":"-21.1346262","Longitude":"-175.2553855","Name":"Hala Havea"},{"Latitude":"-21.1410683","Longitude":"-175.1878256","Name":"Hala Hekoni"},{"Latitude":"-21.1049178","Longitude":"-175.3398235","Name":"Hala Hihifo"},{"Latitude":"-21.0970263","Longitude":"-175.3385267","Name":"Hala Hinave"},{"Latitude":"-21.1333169","Longitude":"-175.2393077","Name":"Hala Hoamofaleono"},{"Latitude":"-21.1420919","Longitude":"-175.2049296","Name":"Hala Holomui"},{"Latitude":"-19.7935549","Longitude":"-174.3468988","Name":"Hala Holopeka"},{"Latitude":"-21.1651063","Longitude":"-175.2906852","Name":"Hala Houma - Liahona"},{"Latitude":"-21.2124012","Longitude":"-175.1808413","Name":"Hala Hufangalupe"},{"Latitude":"-21.1358881","Longitude":"-175.2306068","Name":"Hala Hōfoa Mu'a"},{"Latitude":"-21.0748277","Longitude":"-175.3360601","Name":"Hala Ika Lahi"},{"Latitude":"-21.1507527","Longitude":"-175.2158382","Name":"Hala Kaimana"},{"Latitude":"-21.1694359","Longitude":"-175.2368140","Name":"Hala Kaloniahi 'o Mumui"},{"Latitude":"-21.1343968","Longitude":"-175.2297587","Name":"Hala Kapala"},{"Latitude":"-21.1415928","Longitude":"-175.1998692","Name":"Hala Kape"},{"Latitude":"-21.1382417","Longitude":"-175.2090767","Name":"Hala Kapeta"},{"Latitude":"-21.1457672","Longitude":"-175.1997372","Name":"Hala Kavapui"},{"Latitude":"-21.1684432","Longitude":"-175.2575161","Name":"Hala Kedekede"},{"Latitude":"-21.1368672","Longitude":"-175.2338796","Name":"Hala Kumifonua"},{"Latitude":"-21.1285601","Longitude":"-175.2103468","Name":"Hala Lahakau"},{"Latitude":"-21.1372770","Longitude":"-175.2004093","Name":"Hala Laifone"},{"Latitude":"-21.1366805","Longitude":"-175.2087627","Name":"Hala Langafonua"},{"Latitude":"-21.1414985","Longitude":"-175.2026323","Name":"Hala Laukaupo'uli"},{"Latitude":"-21.1377772","Longitude":"-175.1987538","Name":"Hala Lavinia"},{"Latitude":"-21.1414218","Longitude":"-175.2044588","Name":"Hala Lelue"},{"Latitude":"-21.1842590","Longitude":"-175.2817262","Name":"Hala Liku"},{"Latitude":"-21.1565721","Longitude":"-175.2319864","Name":"Hala Lolota'ane"},{"Latitude":"-21.1551717","Longitude":"-175.2272943","Name":"Hala Lomu"},{"Latitude":"-21.1387018","Longitude":"-175.2129837","Name":"Hala Longolongo"},{"Latitude":"-21.1517748","Longitude":"-175.2161020","Name":"Hala Longolongoatumai"},{"Latitude":"-21.1438582","Longitude":"-175.2021191","Name":"Hala Longoteme"},{"Latitude":"-21.1399679","Longitude":"-175.2103279","Name":"Hala Lose"},{"Latitude":"-21.1288286","Longitude":"-175.3302831","Name":"Hala Loto"},{"Latitude":"-21.1297589","Longitude":"-175.2279716","Name":"Hala Lotoleveleva"},{"Latitude":"-21.1512017","Longitude":"-175.2195884","Name":"Hala Lufilufi"},{"Latitude":"-21.1742352","Longitude":"-175.2396627","Name":"Hala Lupe"},{"Latitude":"-21.1313534","Longitude":"-175.2033577","Name":"Hala Ma'afu"},{"Latitude":"-15.9454551","Longitude":"-173.7810875","Name":"Hala Ma'atu"},{"Latitude":"-21.1360615","Longitude":"-175.2113234","Name":"Hala Maealiuaki"},{"Latitude":"-21.1475578","Longitude":"-175.2138452","Name":"Hala Manakovi Momoho"},{"Latitude":"-21.1417512","Longitude":"-175.2046928","Name":"Hala Mangaia"},{"Latitude":"-21.1364147","Longitude":"-175.2310299","Name":"Hala Manono"},{"Latitude":"-21.1301777","Longitude":"-175.2078508","Name":"Hala Mapalei"},{"Latitude":"-21.1588760","Longitude":"-175.2344171","Name":"Hala Mata ki 'Eua"},{"Latitude":"-21.1351212","Longitude":"-175.2253330","Name":"Hala Mate"},{"Latitude":"-21.1697168","Longitude":"-175.2341497","Name":"Hala Mate Ma'a Tonga 2017"},{"Latitude":"-21.1368945","Longitude":"-175.2050929","Name":"Hala Mateialona"},{"Latitude":"-21.1336342","Longitude":"-175.3000105","Name":"Hala Matoto"},{"Latitude":"-21.1377069","Longitude":"-175.2157513","Name":"Hala Matutuana"},{"Latitude":"-21.1313687","Longitude":"-175.2231923","Name":"Hala Maui"},{"Latitude":"-21.1404347","Longitude":"-175.2089786","Name":"Hala Mauikisikisi"},{"Latitude":"-15.9596494","Longitude":"-173.7916828","Name":"Hala Mo'unga"},{"Latitude":"-18.6369845","Longitude":"-174.0357745","Name":"Hala Mo'ungaloto"},{"Latitude":"-21.1733195","Longitude":"-175.2354218","Name":"Hala Moeakihi'atu"},{"Latitude":"-21.1321360","Longitude":"-175.3228873","Name":"Hala Motu'apuaka"},{"Latitude":"-21.1269947","Longitude":"-175.2247350","Name":"Hala Namoa 'o e Taki Lelei"},{"Latitude":"-21.1702194","Longitude":"-175.2352093","Name":"Hala Navekeita 'o e Vahanoa"},{"Latitude":"-21.1469211","Longitude":"-175.2133427","Name":"Hala Navy"},{"Latitude":"-21.1283741","Longitude":"-175.2977453","Name":"Hala Neau"},{"Latitude":"-21.1441653","Longitude":"-175.1975843","Name":"Hala Ngele'ia"},{"Latitude":"-21.1324880","Longitude":"-175.2297326","Name":"Hala Ngoto'umu'aveka"},{"Latitude":"-21.1303900","Longitude":"-175.3052552","Name":"Hala Ngutu mo Tutulu"},{"Latitude":"-18.6391567","Longitude":"-174.0347350","Name":"Hala Ngutungutu"},{"Latitude":"-21.1339321","Longitude":"-175.2344105","Name":"Hala Niu"},{"Latitude":"-21.1546755","Longitude":"-175.1787038","Name":"Hala Niuloa"},{"Latitude":"-21.1529045","Longitude":"-175.2200736","Name":"Hala Niumeitolu"},{"Latitude":"-21.1738245","Longitude":"-175.2385725","Name":"Hala No'o e Fine Taukei"},{"Latitude":"-21.1890647","Longitude":"-175.2060557","Name":"Hala Nualei"},{"Latitude":"-21.1669900","Longitude":"-175.1895569","Name":"Hala Nukuhetulu"},{"Latitude":"-21.1310106","Longitude":"-175.2269087","Name":"Hala Nukuma'anu"},{"Latitude":"-21.1295278","Longitude":"-175.2287815","Name":"Hala Pa'angalau"},{"Latitude":"-21.1684432","Longitude":"-175.2575161","Name":"Hala Paea Kae Poto"},{"Latitude":"-21.1694154","Longitude":"-175.2346961","Name":"Hala Pakolatunu"},{"Latitude":"-21.1710718","Longitude":"-175.2380541","Name":"Hala Papai 'o 'e Vūlangi"},{"Latitude":"-21.1410250","Longitude":"-175.2062250","Name":"Hala Pauliasi"},{"Latitude":"-21.1338544","Longitude":"-175.1982198","Name":"Hala Sateki"},{"Latitude":"-21.1357861","Longitude":"-175.2344783","Name":"Hala Siale"},{"Latitude":"-21.1722689","Longitude":"-175.2392851","Name":"Hala Sika"},{"Latitude":"-21.1730195","Longitude":"-175.2371298","Name":"Hala Simi Tevolo"},{"Latitude":"-21.1453952","Longitude":"-175.2021745","Name":"Hala Sinamoni"},{"Latitude":"-21.1326165","Longitude":"-175.2060840","Name":"Hala Sipu"},{"Latitude":"-21.1378053","Longitude":"-175.2098520","Name":"Hala Siu'ilikutapu"},{"Latitude":"-21.1318953","Longitude":"-175.2137021","Name":"Hala Sunia'akaveka"},{"Latitude":"-21.1395846","Longitude":"-175.1888322","Name":"Hala Sālote"},{"Latitude":"-21.1491724","Longitude":"-175.2170723","Name":"Hala Sālote Halaevalu"},{"Latitude":"-21.0788004","Longitude":"-175.3355482","Name":"Hala Tafengalolo"},{"Latitude":"-21.1205981","Longitude":"-175.0971496","Name":"Hala Tahi"},{"Latitude":"-21.1401845","Longitude":"-175.1952439","Name":"Hala Tahileka"},{"Latitude":"-21.1403293","Longitude":"-175.2113622","Name":"Hala Taliai Tupou"},{"Latitude":"-21.1354030","Longitude":"-175.2301455","Name":"Hala Talisola"},{"Latitude":"-21.1563487","Longitude":"-175.0894107","Name":"Hala Tangikina"},{"Latitude":"-21.1339421","Longitude":"-175.2300138","Name":"Hala Tapuaki"},{"Latitude":"-21.1562879","Longitude":"-175.2659132","Name":"Hala Tapuvao"},{"Latitude":"-21.1350252","Longitude":"-175.2010091","Name":"Hala Taufa'ahau"},{"Latitude":"-21.1714377","Longitude":"-175.2377811","Name":"Hala Taulua Tavake Oma"},{"Latitude":"-21.2425962","Longitude":"-175.1350885","Name":"Hala Taupi"},{"Latitude":"-21.1730923","Longitude":"-175.2379066","Name":"Hala Tavahikena"},{"Latitude":"-21.1434487","Longitude":"-175.2210058","Name":"Hala Tavatu'utolu"},{"Latitude":"-21.1343763","Longitude":"-175.2098965","Name":"Hala Telekava"},{"Latitude":"-21.1726552","Longitude":"-175.2395114","Name":"Hala To'a faifio 'Ofa"},{"Latitude":"-21.1853468","Longitude":"-175.2793661","Name":"Hala Toa Mata ki Moana"},{"Latitude":"-21.1382694","Longitude":"-175.3353003","Name":"Hala Toa ko Talangofua"},{"Latitude":"-21.1706565","Longitude":"-175.2370580","Name":"Hala Toka e Melino"},{"Latitude":"-21.1692228","Longitude":"-175.2369821","Name":"Hala Tokomololo - Pea"},{"Latitude":"-21.2114828","Longitude":"-175.1579632","Name":"Hala Toloa"},{"Latitude":"-21.1293211","Longitude":"-175.2083715","Name":"Hala Tongata'eapa"},{"Latitude":"-21.1023705","Longitude":"-175.3426357","Name":"Hala Totonu"},{"Latitude":"-21.1839302","Longitude":"-175.2824873","Name":"Hala Tu'asoa"},{"Latitude":"-18.6070859","Longitude":"-173.9730972","Name":"Hala Tu'i"},{"Latitude":"-21.1399112","Longitude":"-175.2133195","Name":"Hala Tu'ifua"},{"Latitude":"-21.1370567","Longitude":"-175.2122578","Name":"Hala Tu'itavake"},{"Latitude":"-21.1466625","Longitude":"-175.3051233","Name":"Hala Tu'ivakanō"},{"Latitude":"-21.1349798","Longitude":"-175.2174562","Name":"Hala Tui"},{"Latitude":"-21.1723719","Longitude":"-175.2344027","Name":"Hala Tuitu'u 'o 'Ahoeitu"},{"Latitude":"-21.1966219","Longitude":"-175.1095264","Name":"Hala Tuitui'a"},{"Latitude":"-21.1327274","Longitude":"-175.2109746","Name":"Hala Tukingapahu"},{"Latitude":"-21.2160529","Longitude":"-175.1384158","Name":"Hala Tuku'aho"},{"Latitude":"-21.1406997","Longitude":"-175.2079066","Name":"Hala Tupou"},{"Latitude":"-21.1435273","Longitude":"-175.1998067","Name":"Hala Tupoulahi"},{"Latitude":"-21.1448317","Longitude":"-175.1737889","Name":"Hala Tutoatasi"},{"Latitude":"-21.1334949","Longitude":"-175.2016260","Name":"Hala Tuʻi"},{"Latitude":"-21.1696602","Longitude":"-175.2357600","Name":"Hala Tākai"},{"Latitude":"-21.1334949","Longitude":"-175.2016260","Name":"Hala Uelingatoni"},{"Latitude":"-21.1715026","Longitude":"-175.2344729","Name":"Hala Uipi 'o Matahiva"},{"Latitude":"-18.6776649","Longitude":"-174.0028398","Name":"Hala Utungake"},{"Latitude":"-21.1643324","Longitude":"-175.3000382","Name":"Hala Vaea"},{"Latitude":"-21.1390521","Longitude":"-175.2086171","Name":"Hala Vaha'akolo"},{"Latitude":"-21.2214908","Longitude":"-175.1675955","Name":"Hala Vaha'atofi'a"},{"Latitude":"-21.1416374","Longitude":"-175.1828853","Name":"Hala Vaimoko"},{"Latitude":"-21.1873911","Longitude":"-175.1728495","Name":"Hala Vaini - Longoteme"},{"Latitude":"-21.1396348","Longitude":"-175.2066600","Name":"Hala Vaiola"},{"Latitude":"-21.1312527","Longitude":"-175.2289552","Name":"Hala Vaituilua"},{"Latitude":"-21.1535750","Longitude":"-175.2163131","Name":"Hala Vaituimate"},{"Latitude":"-21.1928314","Longitude":"-175.2204370","Name":"Hala Valungofulu"},{"Latitude":"-21.1416309","Longitude":"-175.2154838","Name":"Hala Vaolōloa"},{"Latitude":"-21.1341130","Longitude":"-175.2126161","Name":"Hala Vave"},{"Latitude":"-21.1476301","Longitude":"-175.2290817","Name":"Hala Veikale"},{"Latitude":"-21.1731747","Longitude":"-175.2337741","Name":"Hala Viatololosa"},{"Latitude":"-21.1501794","Longitude":"-175.2879412","Name":"Hala Vimahi"},{"Latitude":"-21.1215773","Longitude":"-175.2270554","Name":"Hala Vuna"},{"Latitude":"-19.8081007","Longitude":"-174.3478240","Name":"Haufolau Road"},{"Latitude":"-19.8154241","Longitude":"-174.3546259","Name":"Hihifo Road"},{"Latitude":"-18.6516029","Longitude":"-173.9793059","Name":"Kala'uta Road"},{"Latitude":"-18.6482097","Longitude":"-173.9825956","Name":"Kasete Road"},{"Latitude":"-18.6503581","Longitude":"-173.9814100","Name":"Kovana Road"},{"Latitude":"-18.6378974","Longitude":"-173.9679484","Name":"Laifone Road"},{"Latitude":"-19.8060770","Longitude":"-174.3495824","Name":"Lausi'i Road"},{"Latitude":"-21.1400512","Longitude":"-175.1874094","Name":"Lelea’afafine"},{"Latitude":"-19.7417989","Longitude":"-174.3089487","Name":"Loto Foa Road"},{"Latitude":"-19.8023645","Longitude":"-174.3479138","Name":"Manusia Road"},{"Latitude":"-19.8100514","Longitude":"-174.3505181","Name":"Mateialona Road"},{"Latitude":"-18.6481610","Longitude":"-173.9843118","Name":"Matekitonga Road"},{"Latitude":"-19.8168855","Longitude":"-174.3559485","Name":"Moa Road"},{"Latitude":"-18.6533180","Longitude":"-173.9805372","Name":"Naufahu Road"},{"Latitude":"-19.8060866","Longitude":"-174.3484283","Name":"Palace Road"},{"Latitude":"-19.8109884","Longitude":"-174.3510522","Name":"Paluto Road"},{"Latitude":"-18.6506916","Longitude":"-173.9808592","Name":"Pouono Road"},{"Latitude":"-19.8174059","Longitude":"-174.3575142","Name":"Sateki Vuna Road"},{"Latitude":"-19.8183240","Longitude":"-174.3589843","Name":"Sifa Road"},{"Latitude":"-18.6512246","Longitude":"-173.9762684","Name":"Tafengatoto Road"},{"Latitude":"-18.6468802","Longitude":"-173.9859306","Name":"Talau Road"},{"Latitude":"-18.6479016","Longitude":"-173.9903086","Name":"Tapueluelu Road"},{"Latitude":"-18.6540240","Longitude":"-173.9810245","Name":"Tokangahahau Road"},{"Latitude":"-19.8143547","Longitude":"-174.3516665","Name":"Tua Road"},{"Latitude":"-19.8117269","Longitude":"-174.3515081","Name":"Tuakolo Road"},{"Latitude":"-19.8127251","Longitude":"-174.3521834","Name":"Tuita Road"},{"Latitude":"-18.6480718","Longitude":"-173.9805545","Name":"Tupou Road"},{"Latitude":"-18.6422343","Longitude":"-173.9951650","Name":"Vaipua Bridge"},{"Latitude":"-18.6326464","Longitude":"-173.9719298","Name":"Vakaono"},{"Latitude":"-19.8027713","Longitude":"-174.3500486","Name":"Velitoa Road"},{"Latitude":"-18.6442547","Longitude":"-173.9845152","Name":"Wellington Road"}]