[{"Latitude":"18.1918919","Longitude":"-63.0846576","Name":"Albert Bernardo Richardson Road"},{"Latitude":"18.1795610","Longitude":"-63.1336577","Name":"Albert Hughes Drive"},{"Latitude":"18.2129131","Longitude":"-63.0426070","Name":"Albert Lake Drive"},{"Latitude":"18.1901744","Longitude":"-63.0949212","Name":"Aunty Caty Road"},{"Latitude":"18.2358741","Longitude":"-63.0335976","Name":"Austin Rogers Road"},{"Latitude":"18.1944787","Longitude":"-63.0921171","Name":"Back Street"},{"Latitude":"18.1996614","Longitude":"-63.0666625","Name":"Bardfield"},{"Latitude":"18.2524221","Longitude":"-63.0188334","Name":"Bay View Road"},{"Latitude":"18.1850916","Longitude":"-63.1279054","Name":"Bedneys Road"},{"Latitude":"18.1829450","Longitude":"-63.0928352","Name":"Blowing Point Road"},{"Latitude":"18.1811123","Longitude":"-63.1145780","Name":"Botanic Road"},{"Latitude":"18.2306669","Longitude":"-63.0524547","Name":"Brimegin Drive"},{"Latitude":"18.2423303","Longitude":"-63.0481675","Name":"Brimegin Road"},{"Latitude":"18.2099227","Longitude":"-63.0522624","Name":"Calvin Washington Lake Road"},{"Latitude":"18.1672268","Longitude":"-63.1527051","Name":"Cedar Spring Road"},{"Latitude":"18.2093912","Longitude":"-63.0582009","Name":"Chalk Drive"},{"Latitude":"18.2094251","Longitude":"-63.0781914","Name":"Christianna Lane"},{"Latitude":"18.2441602","Longitude":"-62.9957101","Name":"Christopher Fleming Road"},{"Latitude":"18.2337446","Longitude":"-62.9967514","Name":"Copse Drive"},{"Latitude":"18.1953414","Longitude":"-63.0490314","Name":"Corito Road"},{"Latitude":"18.2156374","Longitude":"-63.0523681","Name":"Coronation Avenue"},{"Latitude":"18.2130442","Longitude":"-63.0552476","Name":"Cosely Drive"},{"Latitude":"18.1757105","Longitude":"-63.1306332","Name":"Cove Road"},{"Latitude":"18.2238853","Longitude":"-63.0017189","Name":"Crescent Drive"},{"Latitude":"18.2207401","Longitude":"-63.0651515","Name":"Crocus Bay Road"},{"Latitude":"18.1715326","Longitude":"-63.0979690","Name":"Cul De Sac Drive"},{"Latitude":"18.2358059","Longitude":"-63.0333170","Name":"Deep Waters Road"},{"Latitude":"18.2082166","Longitude":"-63.0548025","Name":"Edwin Wallace Rey Drive"},{"Latitude":"18.2294242","Longitude":"-63.0615518","Name":"Eric Reid Road"},{"Latitude":"18.1686972","Longitude":"-63.1492396","Name":"Firefly Lane"},{"Latitude":"18.2089343","Longitude":"-63.0647176","Name":"Flint Road"},{"Latitude":"18.1920793","Longitude":"-63.0538770","Name":"Forest Road"},{"Latitude":"18.2268724","Longitude":"-62.9980711","Name":"Frangipani Drive"},{"Latitude":"18.2592590","Longitude":"-62.9936801","Name":"Harbour Ridge Drive"},{"Latitude":"18.2431892","Longitude":"-63.0146615","Name":"Hubert Fleming Road"},{"Latitude":"18.1909597","Longitude":"-63.1191460","Name":"Isaac's Cliff Road"},{"Latitude":"18.1891715","Longitude":"-63.0733442","Name":"Jeremiah Gumbs Highway"},{"Latitude":"18.1885603","Longitude":"-63.1241726","Name":"John Hodge Drive"},{"Latitude":"18.2249331","Longitude":"-63.0348009","Name":"Jon-Jon Road"},{"Latitude":"18.2538506","Longitude":"-62.9990169","Name":"Jones Harrigan Road"},{"Latitude":"18.2166025","Longitude":"-63.0533425","Name":"Judge Grumbs Road"},{"Latitude":"18.2515092","Longitude":"-62.9898874","Name":"Junks Hole Road"},{"Latitude":"18.2141288","Longitude":"-63.0683027","Name":"Katouche Road"},{"Latitude":"18.2162077","Longitude":"-63.0562203","Name":"Landsome Road"},{"Latitude":"18.2227452","Longitude":"-63.0119330","Name":"Liberty Road"},{"Latitude":"18.2022586","Longitude":"-63.0681750","Name":"Little Harbour Drive"},{"Latitude":"18.2025355","Longitude":"-63.0659812","Name":"Little Harbour Road North"},{"Latitude":"18.2039412","Longitude":"-63.0908363","Name":"Lonely Road"},{"Latitude":"18.2018681","Longitude":"-63.0624428","Name":"Long Ground Road"},{"Latitude":"18.2225706","Longitude":"-63.0119987","Name":"Long Path Road"},{"Latitude":"18.2111988","Longitude":"-63.0501621","Name":"Mahogany Tree Road"},{"Latitude":"18.2249241","Longitude":"-63.0422977","Name":"Mammie Drive"},{"Latitude":"18.2313268","Longitude":"-63.0143032","Name":"Mango Garden Road"},{"Latitude":"18.2247859","Longitude":"-63.0027811","Name":"Margaret Fleming Drive"},{"Latitude":"18.1894155","Longitude":"-63.1281663","Name":"Morgan Hill Road"},{"Latitude":"18.2066896","Longitude":"-63.0501588","Name":"Mt Pleasant Road"},{"Latitude":"18.2564132","Longitude":"-63.0010466","Name":"Nashville Webster Road"},{"Latitude":"18.2083477","Longitude":"-63.0783087","Name":"North Hill Road"},{"Latitude":"18.2063398","Longitude":"-63.0806382","Name":"North Ridge"},{"Latitude":"18.2244054","Longitude":"-63.0553425","Name":"North Side Road"},{"Latitude":"18.2196364","Longitude":"-63.0600722","Name":"North Valley Drive"},{"Latitude":"18.2055056","Longitude":"-63.0816383","Name":"North View Road"},{"Latitude":"18.2181359","Longitude":"-63.0654031","Name":"Old Court House Road"},{"Latitude":"18.1962803","Longitude":"-63.0903785","Name":"Oleander Drive"},{"Latitude":"18.1734653","Longitude":"-63.1298237","Name":"Paradise Drive"},{"Latitude":"18.1758179","Longitude":"-63.0913595","Name":"Park Avenue"},{"Latitude":"18.1744239","Longitude":"-63.0893494","Name":"Pelican Bay Road"},{"Latitude":"18.2307462","Longitude":"-63.0347920","Name":"Petty's Drive"},{"Latitude":"18.2171752","Longitude":"-63.0612193","Name":"Pomseratte Road"},{"Latitude":"18.2388040","Longitude":"-62.9923589","Name":"Pond Ground Road"},{"Latitude":"18.1770335","Longitude":"-63.0960980","Name":"Pond View Road"},{"Latitude":"18.2120665","Longitude":"-63.0579644","Name":"Quartz Road"},{"Latitude":"18.2195052","Longitude":"-63.0502721","Name":"Queen Elizabeth Avenue"},{"Latitude":"18.1925532","Longitude":"-63.0975822","Name":"Rendezvous Bay Road"},{"Latitude":"18.1737372","Longitude":"-63.0985196","Name":"Rendezvous Drive"},{"Latitude":"18.2210203","Longitude":"-63.0402558","Name":"Reuben Hodge Road"},{"Latitude":"18.2103015","Longitude":"-63.0717841","Name":"Reverend Carty Road"},{"Latitude":"18.2187408","Longitude":"-63.0608676","Name":"Reverend John Hodge Road"},{"Latitude":"18.2090670","Longitude":"-63.0425015","Name":"Rey Hill Road East"},{"Latitude":"18.2093721","Longitude":"-63.0485620","Name":"Rey Hill Road North"},{"Latitude":"18.2241061","Longitude":"-63.0665756","Name":"Roaches Hill Road"},{"Latitude":"18.2594542","Longitude":"-62.9909046","Name":"Rocky Road"},{"Latitude":"18.1653018","Longitude":"-63.1577134","Name":"Rupert Carty Drive"},{"Latitude":"18.2554680","Longitude":"-63.0044194","Name":"Rupert Phillip Road"},{"Latitude":"18.2088881","Longitude":"-63.0658330","Name":"Sachassess Road"},{"Latitude":"18.1661476","Longitude":"-63.1404761","Name":"Samuel Fleming Road"},{"Latitude":"18.2012765","Longitude":"-63.0897971","Name":"Sandy Ground Road"},{"Latitude":"18.2221819","Longitude":"-63.0105505","Name":"Sandy Hill Drive"},{"Latitude":"18.2226610","Longitude":"-63.0120646","Name":"Sandy Hill Roundabout"},{"Latitude":"18.2248878","Longitude":"-63.0041651","Name":"Sea Feathers Road"},{"Latitude":"18.2098064","Longitude":"-63.0621996","Name":"Shale Lane"},{"Latitude":"18.2075779","Longitude":"-63.0830795","Name":"Shannon Hill Road"},{"Latitude":"18.1975758","Longitude":"-63.0897536","Name":"Sir Emile Gumbs Drive"},{"Latitude":"18.1728034","Longitude":"-63.1266461","Name":"Sisal Road"},{"Latitude":"18.1977322","Longitude":"-63.0809247","Name":"South Hill Road"},{"Latitude":"18.2009249","Longitude":"-63.0759874","Name":"South Hill Roundabout"},{"Latitude":"18.2133259","Longitude":"-63.0599607","Name":"South Valley Road South"},{"Latitude":"18.1820378","Longitude":"-63.0993100","Name":"Spring Path Road"},{"Latitude":"18.2269980","Longitude":"-63.0394540","Name":"Stone Wall Drive"},{"Latitude":"18.2177713","Longitude":"-63.0471718","Name":"Stoney Ground Road"},{"Latitude":"18.1995587","Longitude":"-63.0758369","Name":"Swing High Road"},{"Latitude":"18.2301072","Longitude":"-63.0468754","Name":"Tackling Road"},{"Latitude":"18.2062863","Longitude":"-63.0412769","Name":"Tangle Wood Road"},{"Latitude":"18.2083944","Longitude":"-63.0546892","Name":"The Valley Road"},{"Latitude":"18.2295834","Longitude":"-63.0513867","Name":"True Eyes Road"},{"Latitude":"18.2190029","Longitude":"-63.0538587","Name":"Valley Bottom Road"},{"Latitude":"18.2155566","Longitude":"-63.0522923","Name":"Valley Roundabout"},{"Latitude":"18.2082660","Longitude":"-63.0543367","Name":"Wall Blake Road"},{"Latitude":"18.2545917","Longitude":"-62.9961510","Name":"Walter Hodge"},{"Latitude":"18.2354997","Longitude":"-63.0336672","Name":"Watkins Hodge Road"},{"Latitude":"18.1803297","Longitude":"-63.0909518","Name":"Well Gap Road"},{"Latitude":"18.2044553","Longitude":"-63.0863966","Name":"Well Road"},{"Latitude":"18.1702514","Longitude":"-63.1549993","Name":"West Pond Road"},{"Latitude":"18.2288538","Longitude":"-63.0076329","Name":"White Ground Road"},{"Latitude":"18.1827389","Longitude":"-63.1114049","Name":"Willow Lane"},{"Latitude":"18.2560364","Longitude":"-62.9845714","Name":"Winward Point Drive"}]