[{"Latitude":"4.9893179","Longitude":"114.9967278","Name":"1030"},{"Latitude":"5.0229542","Longitude":"115.0359647","Name":"125-21"},{"Latitude":"4.9536200","Longitude":"114.9448335","Name":"139-11-3"},{"Latitude":"4.9644201","Longitude":"115.0342888","Name":"162-7"},{"Latitude":"5.0237435","Longitude":"115.0149937","Name":"185-2"},{"Latitude":"4.9416052","Longitude":"114.8915791","Name":"189-22"},{"Latitude":"5.0225655","Longitude":"115.0144377","Name":"221"},{"Latitude":"5.0229303","Longitude":"115.0146729","Name":"221-1"},{"Latitude":"5.0220526","Longitude":"115.0144422","Name":"221-2"},{"Latitude":"4.9843580","Longitude":"114.9618433","Name":"262"},{"Latitude":"4.9828299","Longitude":"114.9623535","Name":"262-8"},{"Latitude":"4.9247095","Longitude":"114.8774364","Name":"355-86-40"},{"Latitude":"4.5731797","Longitude":"114.2227314","Name":"36-22"},{"Latitude":"4.5725308","Longitude":"114.2233061","Name":"36-28"},{"Latitude":"4.5726138","Longitude":"114.2241066","Name":"36-29"},{"Latitude":"5.0097415","Longitude":"115.0139145","Name":"373-8"},{"Latitude":"4.9674937","Longitude":"114.9005003","Name":"39-32"},{"Latitude":"4.9719822","Longitude":"114.9838570","Name":"612-20"},{"Latitude":"4.9980063","Longitude":"115.0135282","Name":"798-9"},{"Latitude":"4.5589042","Longitude":"114.0734099","Name":"ASEAN Bridge"},{"Latitude":"4.8096448","Longitude":"115.0073489","Name":"Airport Terminal Perimeter"},{"Latitude":"4.7587185","Longitude":"115.0066177","Name":"Buangsiol Roundabout"},{"Latitude":"4.7098737","Longitude":"115.0718935","Name":"Bulatan Bangar"},{"Latitude":"4.7530849","Longitude":"115.0084841","Name":"Commercial Vessel Docking Point 1"},{"Latitude":"4.9226619","Longitude":"114.9471228","Name":"Commonwealth Drive"},{"Latitude":"4.8105061","Longitude":"115.0070863","Name":"Exit to Jalan Airport"},{"Latitude":"4.8095525","Longitude":"115.0073468","Name":"Exit to Jalan Airport Terminal Perimeter"},{"Latitude":"4.7659010","Longitude":"115.0211303","Name":"Exit to Jalan Batu Biah"},{"Latitude":"4.7608001","Longitude":"115.0108023","Name":"Exit to Jalan IPD/Masjid Baru Limbang"},{"Latitude":"4.7610264","Longitude":"115.0110159","Name":"Exit to Jalan Muhibbah"},{"Latitude":"4.8870716","Longitude":"114.9208408","Name":"Feratah Noor 42"},{"Latitude":"4.9600256","Longitude":"114.9561411","Name":"Jalan 1"},{"Latitude":"4.9716704","Longitude":"114.9659733","Name":"Jalan 10 Selatan"},{"Latitude":"4.9807943","Longitude":"114.9611574","Name":"Jalan 10 Utara"},{"Latitude":"4.9703556","Longitude":"114.9596669","Name":"Jalan 11"},{"Latitude":"4.9654645","Longitude":"114.9529642","Name":"Jalan 12"},{"Latitude":"4.9644615","Longitude":"114.9096110","Name":"Jalan 127"},{"Latitude":"4.9645446","Longitude":"114.9074130","Name":"Jalan 129"},{"Latitude":"4.9615376","Longitude":"114.9607296","Name":"Jalan 17"},{"Latitude":"4.9588256","Longitude":"114.9523741","Name":"Jalan 2"},{"Latitude":"4.9591658","Longitude":"114.9067390","Name":"Jalan 24"},{"Latitude":"4.9597807","Longitude":"114.9043241","Name":"Jalan 26"},{"Latitude":"4.9582401","Longitude":"114.9009266","Name":"Jalan 3"},{"Latitude":"4.9652429","Longitude":"114.9586344","Name":"Jalan 31"},{"Latitude":"4.9614615","Longitude":"114.9080497","Name":"Jalan 32"},{"Latitude":"4.9635591","Longitude":"114.9107936","Name":"Jalan 34"},{"Latitude":"4.9635832","Longitude":"114.9119282","Name":"Jalan 35"},{"Latitude":"4.9595202","Longitude":"114.9132867","Name":"Jalan 39"},{"Latitude":"4.5834899","Longitude":"114.2058614","Name":"Jalan 41"},{"Latitude":"4.9605960","Longitude":"114.9150841","Name":"Jalan 42"},{"Latitude":"4.9599277","Longitude":"114.9731228","Name":"Jalan 427"},{"Latitude":"4.9587348","Longitude":"114.9753939","Name":"Jalan 432"},{"Latitude":"4.9765604","Longitude":"114.9692644","Name":"Jalan 49"},{"Latitude":"4.9595324","Longitude":"114.9158775","Name":"Jalan 50"},{"Latitude":"4.9589595","Longitude":"114.9159961","Name":"Jalan 51"},{"Latitude":"4.9651250","Longitude":"114.9186578","Name":"Jalan 60"},{"Latitude":"4.9800021","Longitude":"114.9592825","Name":"Jalan 64"},{"Latitude":"4.7893883","Longitude":"115.0132737","Name":"Jalan 7 Batu Round"},{"Latitude":"4.9804843","Longitude":"114.9637511","Name":"Jalan 77"},{"Latitude":"4.9465602","Longitude":"114.9117095","Name":"Jalan 82"},{"Latitude":"4.9818180","Longitude":"114.9664465","Name":"Jalan 83"},{"Latitude":"4.9490714","Longitude":"114.9120637","Name":"Jalan 84"},{"Latitude":"4.9513620","Longitude":"114.9108016","Name":"Jalan 86"},{"Latitude":"4.9842609","Longitude":"114.9669163","Name":"Jalan 88"},{"Latitude":"4.9809493","Longitude":"114.9756172","Name":"Jalan 99"},{"Latitude":"4.9680474","Longitude":"115.0236450","Name":"Jalan A"},{"Latitude":"4.8067578","Longitude":"114.6597552","Name":"Jalan Abdul Rahim"},{"Latitude":"4.8095265","Longitude":"115.0055632","Name":"Jalan Airport"},{"Latitude":"4.8225501","Longitude":"114.6682448","Name":"Jalan Al-Muhtabillah"},{"Latitude":"4.9477411","Longitude":"114.9693972","Name":"Jalan Aman"},{"Latitude":"4.8957061","Longitude":"114.8034451","Name":"Jalan Ambin"},{"Latitude":"4.9377497","Longitude":"114.9521251","Name":"Jalan Anggerek Desa"},{"Latitude":"4.8303605","Longitude":"114.6748906","Name":"Jalan Asmad"},{"Latitude":"4.7096459","Longitude":"115.0706386","Name":"Jalan Asrama"},{"Latitude":"4.6465241","Longitude":"114.4476971","Name":"Jalan Bagu"},{"Latitude":"4.8286290","Longitude":"114.8424538","Name":"Jalan Balai Raya Masin"},{"Latitude":"4.6549226","Longitude":"114.4437416","Name":"Jalan Balingkawang"},{"Latitude":"4.8747576","Longitude":"114.8597243","Name":"Jalan Ban 1"},{"Latitude":"4.8793864","Longitude":"114.8567498","Name":"Jalan Ban 1-A"},{"Latitude":"4.8804850","Longitude":"114.8529250","Name":"Jalan Ban 2-A"},{"Latitude":"4.8840983","Longitude":"114.8450618","Name":"Jalan Ban 3"},{"Latitude":"4.8804033","Longitude":"114.8491375","Name":"Jalan Ban 3-A"},{"Latitude":"4.8767015","Longitude":"114.8455590","Name":"Jalan Ban 4"},{"Latitude":"4.8729183","Longitude":"114.8537080","Name":"Jalan Ban 5"},{"Latitude":"4.7390190","Longitude":"114.6604903","Name":"Jalan Bangunggos"},{"Latitude":"4.7328579","Longitude":"114.6549780","Name":"Jalan Bangungus"},{"Latitude":"4.8854514","Longitude":"114.7997883","Name":"Jalan Basung"},{"Latitude":"4.7065880","Longitude":"115.0705171","Name":"Jalan Batang Duri"},{"Latitude":"4.7526277","Longitude":"114.7670259","Name":"Jalan Batang Mitus"},{"Latitude":"4.7634787","Longitude":"114.8125607","Name":"Jalan Batang Perhentian"},{"Latitude":"4.7045297","Longitude":"115.0556785","Name":"Jalan Batang Tuau"},{"Latitude":"4.8169896","Longitude":"114.8213908","Name":"Jalan Batong Parit"},{"Latitude":"4.9129197","Longitude":"114.9132096","Name":"Jalan Batu Bersurat"},{"Latitude":"4.7737961","Longitude":"115.0167851","Name":"Jalan Batu Biah"},{"Latitude":"4.9856321","Longitude":"115.0301841","Name":"Jalan Batu Marang"},{"Latitude":"4.8621967","Longitude":"114.8653818","Name":"Jalan Bebatik Kilanas"},{"Latitude":"4.8490658","Longitude":"114.8390990","Name":"Jalan Bebatik Kulapis"},{"Latitude":"4.7396359","Longitude":"114.7869276","Name":"Jalan Bebuloh Kanan"},{"Latitude":"4.7509874","Longitude":"114.7967800","Name":"Jalan Bebuloh Kiri"},{"Latitude":"4.7353440","Longitude":"114.7906709","Name":"Jalan Bebuluh"},{"Latitude":"4.9734027","Longitude":"114.9436119","Name":"Jalan Bedil"},{"Latitude":"5.0307490","Longitude":"115.0741429","Name":"Jalan Belangkas"},{"Latitude":"4.7223462","Longitude":"115.0650716","Name":"Jalan Belayang"},{"Latitude":"4.9275355","Longitude":"114.9297996","Name":"Jalan Belunu"},{"Latitude":"4.8925566","Longitude":"114.9421421","Name":"Jalan Bendahara"},{"Latitude":"4.5807943","Longitude":"114.2011518","Name":"Jalan Bendahari"},{"Latitude":"4.8094469","Longitude":"114.6609800","Name":"Jalan Bendahari Mohamad"},{"Latitude":"4.6103393","Longitude":"114.3347640","Name":"Jalan Bengkel"},{"Latitude":"4.8263275","Longitude":"114.8610042","Name":"Jalan Bengkurong Masin"},{"Latitude":"4.5900521","Longitude":"114.7197409","Name":"Jalan Benutan Keranching"},{"Latitude":"4.8956083","Longitude":"114.9495167","Name":"Jalan Berangan"},{"Latitude":"4.5877460","Longitude":"114.1922083","Name":"Jalan Berdahara"},{"Latitude":"4.8827554","Longitude":"114.8943760","Name":"Jalan Beribi"},{"Latitude":"4.8953591","Longitude":"114.9432919","Name":"Jalan Berita"},{"Latitude":"4.7540829","Longitude":"114.7457047","Name":"Jalan Besar Batang Mitus"},{"Latitude":"4.6506996","Longitude":"114.4411783","Name":"Jalan Bilaran"},{"Latitude":"5.0100535","Longitude":"115.0015730","Name":"Jalan Binglu"},{"Latitude":"5.0074945","Longitude":"115.0106526","Name":"Jalan Binglu Barat"},{"Latitude":"5.0045801","Longitude":"115.0075403","Name":"Jalan Binglu Selatan"},{"Latitude":"5.0150115","Longitude":"115.0103914","Name":"Jalan Binglu Tengah"},{"Latitude":"5.0228218","Longitude":"115.0132857","Name":"Jalan Binglu Utara"},{"Latitude":"4.5816159","Longitude":"114.1935448","Name":"Jalan Binjai"},{"Latitude":"4.8414845","Longitude":"114.6918549","Name":"Jalan Binturan Penanjong"},{"Latitude":"4.6698300","Longitude":"115.0446688","Name":"Jalan Bokok"},{"Latitude":"4.6093699","Longitude":"114.3349278","Name":"Jalan Bolkiah"},{"Latitude":"4.8322170","Longitude":"114.6737274","Name":"Jalan Brown"},{"Latitude":"4.8665014","Longitude":"114.9312226","Name":"Jalan Buang Tengkurok"},{"Latitude":"4.7572066","Longitude":"115.0073330","Name":"Jalan Buangsiol"},{"Latitude":"4.8078252","Longitude":"114.6675709","Name":"Jalan Bukit Ambog"},{"Latitude":"4.7297856","Longitude":"114.6008014","Name":"Jalan Bukit Bilid"},{"Latitude":"4.7356292","Longitude":"114.6073160","Name":"Jalan Bukit Bincaloi"},{"Latitude":"4.9747687","Longitude":"115.0135412","Name":"Jalan Bukit Bintagur"},{"Latitude":"4.7222332","Longitude":"114.6048887","Name":"Jalan Bukit Dilou"},{"Latitude":"5.0113599","Longitude":"115.0288059","Name":"Jalan Bukit Kabun"},{"Latitude":"4.9711060","Longitude":"114.8887027","Name":"Jalan Bukit Mahkota"},{"Latitude":"4.7498359","Longitude":"115.0080478","Name":"Jalan Bukit Mas"},{"Latitude":"4.8151475","Longitude":"114.7603200","Name":"Jalan Bukit Nanas"},{"Latitude":"4.9857363","Longitude":"115.0179157","Name":"Jalan Bukit Pandayan"},{"Latitude":"4.8247572","Longitude":"114.7232066","Name":"Jalan Bukit Panggal"},{"Latitude":"4.6718996","Longitude":"114.6370983","Name":"Jalan Bukit Rumpan"},{"Latitude":"4.9796891","Longitude":"115.0142392","Name":"Jalan Bukit Sinadur"},{"Latitude":"4.7489147","Longitude":"114.6409565","Name":"Jalan Bukit Udal"},{"Latitude":"4.6085602","Longitude":"114.3309919","Name":"Jalan Bunga Chempaka"},{"Latitude":"4.9327107","Longitude":"114.9333512","Name":"Jalan Bunga Gadong"},{"Latitude":"4.9326844","Longitude":"114.9336594","Name":"Jalan Bunga Gambir"},{"Latitude":"4.8888512","Longitude":"114.9011982","Name":"Jalan Bunga Jasmin"},{"Latitude":"4.6138665","Longitude":"114.3314593","Name":"Jalan Bunga Kemantin"},{"Latitude":"4.6131763","Longitude":"114.3294631","Name":"Jalan Bunga Kenanga"},{"Latitude":"4.9340612","Longitude":"114.9342306","Name":"Jalan Bunga Kuning"},{"Latitude":"4.6083063","Longitude":"114.3298506","Name":"Jalan Bunga Mawar"},{"Latitude":"4.6130107","Longitude":"114.3306236","Name":"Jalan Bunga Melati"},{"Latitude":"4.6147706","Longitude":"114.3300270","Name":"Jalan Bunga Melor"},{"Latitude":"4.9332929","Longitude":"114.9318497","Name":"Jalan Bunga Raja"},{"Latitude":"4.5834167","Longitude":"114.1969762","Name":"Jalan Bunga Raya"},{"Latitude":"4.9320506","Longitude":"114.9318610","Name":"Jalan Bunga Seri Gading"},{"Latitude":"4.9324198","Longitude":"114.9322110","Name":"Jalan Bunga Seri Gadong"},{"Latitude":"4.5847714","Longitude":"114.1937292","Name":"Jalan Bunga Simpur"},{"Latitude":"4.9326459","Longitude":"114.9341094","Name":"Jalan Bunga Tanjong"},{"Latitude":"4.9327859","Longitude":"114.9322352","Name":"Jalan Bunga Teratai"},{"Latitude":"4.8277934","Longitude":"114.8658944","Name":"Jalan Burung Lepas"},{"Latitude":"4.9691034","Longitude":"115.0343964","Name":"Jalan C"},{"Latitude":"4.9739697","Longitude":"114.8959123","Name":"Jalan Canselor"},{"Latitude":"4.5885044","Longitude":"114.1895658","Name":"Jalan Carey"},{"Latitude":"4.8881903","Longitude":"114.9439335","Name":"Jalan Cator"},{"Latitude":"4.8844371","Longitude":"114.9239873","Name":"Jalan Chempaka"},{"Latitude":"4.9731297","Longitude":"115.0278323","Name":"Jalan D"},{"Latitude":"4.8090661","Longitude":"115.0073082","Name":"Jalan D.C.A."},{"Latitude":"4.8630746","Longitude":"114.8668603","Name":"Jalan Dadap"},{"Latitude":"4.6144096","Longitude":"114.3331158","Name":"Jalan Dakula"},{"Latitude":"4.9531003","Longitude":"114.8988662","Name":"Jalan Dang Kumala"},{"Latitude":"4.8811567","Longitude":"114.9201918","Name":"Jalan Dato Abbas Al-Sufri"},{"Latitude":"4.9310331","Longitude":"114.9316144","Name":"Jalan Dato Haji Ahmad"},{"Latitude":"4.8924535","Longitude":"114.9393169","Name":"Jalan Dato Ibrahim"},{"Latitude":"4.9010592","Longitude":"114.9380766","Name":"Jalan Dato Marsal"},{"Latitude":"4.5845549","Longitude":"114.1908073","Name":"Jalan Dato Shahbandar"},{"Latitude":"4.9644214","Longitude":"114.9471578","Name":"Jalan Datu Mahawangsa"},{"Latitude":"4.8982021","Longitude":"114.9189728","Name":"Jalan Datu Ratna"},{"Latitude":"4.8306674","Longitude":"114.6729457","Name":"Jalan Davidson"},{"Latitude":"4.9397906","Longitude":"114.9408126","Name":"Jalan Delima Dua"},{"Latitude":"4.5760477","Longitude":"114.2253480","Name":"Jalan Derma Wangsa"},{"Latitude":"4.9147601","Longitude":"114.9510314","Name":"Jalan Dewan Majlis"},{"Latitude":"4.9168586","Longitude":"114.9528798","Name":"Jalan Dula"},{"Latitude":"4.9290332","Longitude":"114.9314423","Name":"Jalan Durian"},{"Latitude":"4.9167761","Longitude":"114.9528721","Name":"Jalan Duta"},{"Latitude":"4.9030070","Longitude":"114.9081425","Name":"Jalan E-Kerajaan"},{"Latitude":"4.8881029","Longitude":"114.9209989","Name":"Jalan Elia Fatimah"},{"Latitude":"4.8903576","Longitude":"114.9439484","Name":"Jalan Elizabeth Dua"},{"Latitude":"4.8054288","Longitude":"114.6640867","Name":"Jalan Enche Awang"},{"Latitude":"4.9087260","Longitude":"114.9087164","Name":"Jalan Estet Gadong"},{"Latitude":"4.9059545","Longitude":"114.9310625","Name":"Jalan Gadong"},{"Latitude":"4.7068184","Longitude":"115.1031370","Name":"Jalan Gadong Baru"},{"Latitude":"4.8030061","Longitude":"114.9126509","Name":"Jalan Gadong-Pendam"},{"Latitude":"4.5835306","Longitude":"114.1907300","Name":"Jalan Gates"},{"Latitude":"4.8223194","Longitude":"114.6687234","Name":"Jalan Gautery"},{"Latitude":"4.8099001","Longitude":"114.6606749","Name":"Jalan Haji Abdul Gani"},{"Latitude":"4.8939935","Longitude":"114.9366180","Name":"Jalan Haji Basir"},{"Latitude":"4.8516333","Longitude":"114.8867795","Name":"Jalan Haji Halus"},{"Latitude":"4.7655168","Longitude":"115.0109822","Name":"Jalan IPD/Masjid Baru Limbang"},{"Latitude":"4.8256795","Longitude":"114.6660663","Name":"Jalan Ibnu"},{"Latitude":"4.8633807","Longitude":"114.7970760","Name":"Jalan Ikas Bandung"},{"Latitude":"4.7622793","Longitude":"115.0262993","Name":"Jalan Indoor Stadium"},{"Latitude":"4.8951597","Longitude":"114.9015383","Name":"Jalan Industri Beribi"},{"Latitude":"4.7339003","Longitude":"114.8333501","Name":"Jalan Ipai - Lubok Sigantang - Pendam"},{"Latitude":"4.8782028","Longitude":"114.9258716","Name":"Jalan Istana Darul Hana"},{"Latitude":"4.8919893","Longitude":"114.9373352","Name":"Jalan Istana Darussalam"},{"Latitude":"4.8757950","Longitude":"114.9238112","Name":"Jalan Istana Nurul Iman"},{"Latitude":"4.7611936","Longitude":"115.0157912","Name":"Jalan JKR Penapak"},{"Latitude":"4.8979132","Longitude":"114.9330841","Name":"Jalan Jame 'Asr"},{"Latitude":"4.8913152","Longitude":"114.9412492","Name":"Jalan James Pearce"},{"Latitude":"4.9060961","Longitude":"114.9387427","Name":"Jalan Jawatan Dalam"},{"Latitude":"4.5783680","Longitude":"114.2235084","Name":"Jalan Jaya Indera"},{"Latitude":"4.5849847","Longitude":"114.2104091","Name":"Jalan Jaya Negara"},{"Latitude":"4.6103347","Longitude":"114.3315148","Name":"Jalan Jerambak"},{"Latitude":"4.9530389","Longitude":"114.8413124","Name":"Jalan Jerudong"},{"Latitude":"4.8789561","Longitude":"114.8206218","Name":"Jalan Jerudong Baru-Tanjong Nangka"},{"Latitude":"4.8188131","Longitude":"114.8963137","Name":"Jalan Junjongan"},{"Latitude":"4.5921170","Longitude":"114.2735395","Name":"Jalan Kalajiau"},{"Latitude":"5.0199302","Longitude":"115.0306305","Name":"Jalan Kamangsi"},{"Latitude":"5.0272649","Longitude":"115.0330302","Name":"Jalan Kamangsi Barat"},{"Latitude":"5.0321991","Longitude":"115.0395651","Name":"Jalan Kamangsi Selatan"},{"Latitude":"5.0216496","Longitude":"115.0356162","Name":"Jalan Kamangsi Timur"},{"Latitude":"4.8468560","Longitude":"114.8688357","Name":"Jalan Kampong Bengkurong 1"},{"Latitude":"4.8450369","Longitude":"114.8681290","Name":"Jalan Kampong Bengkurong 2"},{"Latitude":"4.7964760","Longitude":"114.6421428","Name":"Jalan Kampong Kandang"},{"Latitude":"4.8912627","Longitude":"114.9438986","Name":"Jalan Kampong Kianggeh"},{"Latitude":"4.7262034","Longitude":"114.6688905","Name":"Jalan Kampong Penapar"},{"Latitude":"4.8412714","Longitude":"114.8681894","Name":"Jalan Kampung Bengkurong"},{"Latitude":"4.7602878","Longitude":"115.0121496","Name":"Jalan Kampung Cina 1"},{"Latitude":"4.7602924","Longitude":"115.0125839","Name":"Jalan Kampung Cina 2"},{"Latitude":"4.6564724","Longitude":"114.8165891","Name":"Jalan Kampung Lembuak"},{"Latitude":"4.7074167","Longitude":"115.0698003","Name":"Jalan Kampung Menengah"},{"Latitude":"4.7624745","Longitude":"115.0164812","Name":"Jalan Kampung Penapak"},{"Latitude":"4.9804309","Longitude":"114.9833862","Name":"Jalan Kampung Salambigar"},{"Latitude":"4.7321283","Longitude":"114.7974823","Name":"Jalan Kampung Tedungan"},{"Latitude":"4.5872832","Longitude":"114.1714549","Name":"Jalan Kampung Teraban"},{"Latitude":"4.5841052","Longitude":"114.2596867","Name":"Jalan Kanawai"},{"Latitude":"5.0242686","Longitude":"115.0504051","Name":"Jalan Kapok Kanan"},{"Latitude":"5.0288732","Longitude":"115.0444611","Name":"Jalan Kapok Kiri"},{"Latitude":"4.8450305","Longitude":"114.7862391","Name":"Jalan Karakas Payau"},{"Latitude":"4.9953436","Longitude":"114.9899557","Name":"Jalan Karamunting"},{"Latitude":"4.5905405","Longitude":"114.2697100","Name":"Jalan Karuak"},{"Latitude":"4.8458995","Longitude":"114.9526386","Name":"Jalan Kasat"},{"Latitude":"4.8365570","Longitude":"114.9555420","Name":"Jalan Kasat-Putat"},{"Latitude":"4.8573793","Longitude":"114.8213568","Name":"Jalan Katimahar"},{"Latitude":"4.7243284","Longitude":"114.6042001","Name":"Jalan Kayu Sumah"},{"Latitude":"4.9457784","Longitude":"114.9538471","Name":"Jalan Kebangsaan"},{"Latitude":"4.9473016","Longitude":"114.9596346","Name":"Jalan Kebangsaan Lama"},{"Latitude":"4.8287277","Longitude":"114.9710232","Name":"Jalan Kecil Baong"},{"Latitude":"4.7502217","Longitude":"114.7390185","Name":"Jalan Kecil Batang Mitus"},{"Latitude":"4.8321482","Longitude":"114.8271943","Name":"Jalan Kecil Batong Masin"},{"Latitude":"4.7151688","Longitude":"114.6379727","Name":"Jalan Kecil Bukit Kukah"},{"Latitude":"4.7940332","Longitude":"114.8276855","Name":"Jalan Kecil Bukit Rasau"},{"Latitude":"4.6329117","Longitude":"114.6385349","Name":"Jalan Kecil Bukit Rumpau"},{"Latitude":"4.7617488","Longitude":"114.6611934","Name":"Jalan Kecil Bukit Sibut"},{"Latitude":"4.8467371","Longitude":"114.9522941","Name":"Jalan Kecil Kalamasi"},{"Latitude":"4.8120794","Longitude":"114.8359357","Name":"Jalan Kecil Kampong Agau"},{"Latitude":"4.4025514","Longitude":"114.4627464","Name":"Jalan Kecil Kenapol Labi"},{"Latitude":"4.8417411","Longitude":"114.6806371","Name":"Jalan Kecil Kg Penanjang"},{"Latitude":"4.7705512","Longitude":"114.6610786","Name":"Jalan Kecil Lubok Pulau"},{"Latitude":"4.6622638","Longitude":"114.4497158","Name":"Jalan Kecil Lumut-Singai Bakong"},{"Latitude":"4.6554066","Longitude":"114.4286741","Name":"Jalan Kecil Lumut-Singai Tali"},{"Latitude":"4.6655701","Longitude":"114.4469998","Name":"Jalan Kecil Lumut-Sungai Bakong"},{"Latitude":"4.8720691","Longitude":"114.8398703","Name":"Jalan Kecil Mahau/Lampaki"},{"Latitude":"4.8347952","Longitude":"114.8427689","Name":"Jalan Kecil Masin"},{"Latitude":"4.8038731","Longitude":"114.8093698","Name":"Jalan Kecil Masjid/Sekolah Panchur Murai"},{"Latitude":"4.8717289","Longitude":"114.8442814","Name":"Jalan Kecil Mulaut-Lampaki"},{"Latitude":"4.7112393","Longitude":"114.6508259","Name":"Jalan Kecil Nong Janang"},{"Latitude":"4.7080837","Longitude":"114.7221887","Name":"Jalan Kecil Padnunok"},{"Latitude":"4.8229575","Longitude":"114.9225326","Name":"Jalan Kecil Pawas"},{"Latitude":"4.8527452","Longitude":"114.8079886","Name":"Jalan Kecil Paya Teriti"},{"Latitude":"4.8205471","Longitude":"114.8156110","Name":"Jalan Kecil Perkuburan Lintang"},{"Latitude":"4.7327484","Longitude":"114.6623529","Name":"Jalan Kecil Sebakit Atas"},{"Latitude":"4.7407263","Longitude":"114.6689641","Name":"Jalan Kecil Sebakit Bawah"},{"Latitude":"4.8110125","Longitude":"114.8538587","Name":"Jalan Kecil Sekolah Rendah Junjongan"},{"Latitude":"4.7488135","Longitude":"114.6672102","Name":"Jalan Kecil Sepakon"},{"Latitude":"4.6773179","Longitude":"114.4709878","Name":"Jalan Kecil Sungai Liang"},{"Latitude":"4.7390021","Longitude":"114.6429831","Name":"Jalan Kecil Takuyad"},{"Latitude":"4.8805460","Longitude":"114.8361223","Name":"Jalan Kecil Tanjong Nangka"},{"Latitude":"4.8807009","Longitude":"114.8390116","Name":"Jalan Kecil Tanjung Hanggir Kulapis"},{"Latitude":"4.4331990","Longitude":"114.4633983","Name":"Jalan Kecil Tenajor-Ratan"},{"Latitude":"4.9595555","Longitude":"115.0231285","Name":"Jalan Kelab Golf Pantai Mentiri"},{"Latitude":"4.6112238","Longitude":"114.3366146","Name":"Jalan Kelinik Seria"},{"Latitude":"4.6535599","Longitude":"114.4472187","Name":"Jalan Kelumbi"},{"Latitude":"4.5831183","Longitude":"114.2086483","Name":"Jalan Kerma Negara"},{"Latitude":"4.7607843","Longitude":"115.0083149","Name":"Jalan Ketua Kampung"},{"Latitude":"4.8952864","Longitude":"114.9158876","Name":"Jalan Kiarong"},{"Latitude":"4.8916205","Longitude":"114.8032279","Name":"Jalan Kibah"},{"Latitude":"4.8691075","Longitude":"114.8477169","Name":"Jalan Kilanas Mulaut"},{"Latitude":"4.8357440","Longitude":"114.9134044","Name":"Jalan Kilugus"},{"Latitude":"4.7397471","Longitude":"114.7517825","Name":"Jalan Kiudang"},{"Latitude":"4.8962425","Longitude":"114.9276433","Name":"Jalan Kiulap"},{"Latitude":"4.9282191","Longitude":"115.0143840","Name":"Jalan Kota Batu"},{"Latitude":"4.5889058","Longitude":"114.2508726","Name":"Jalan Kuala Balai"},{"Latitude":"4.7649961","Longitude":"114.8227438","Name":"Jalan Kuala Lurah"},{"Latitude":"4.7933565","Longitude":"114.6233541","Name":"Jalan Kuala Tutong"},{"Latitude":"4.6702136","Longitude":"114.6945655","Name":"Jalan Kuala Ungar"},{"Latitude":"4.8822694","Longitude":"114.9297014","Name":"Jalan Kubuh Makam Diraja"},{"Latitude":"4.9983781","Longitude":"114.9878985","Name":"Jalan Kulimpapa"},{"Latitude":"4.9012810","Longitude":"114.9356381","Name":"Jalan Kumbang Pasang"},{"Latitude":"4.9453696","Longitude":"114.9374856","Name":"Jalan Kustin"},{"Latitude":"4.3943013","Longitude":"114.4464361","Name":"Jalan Labi"},{"Latitude":"4.3989250","Longitude":"114.4597110","Name":"Jalan Labi Lama"},{"Latitude":"4.5798645","Longitude":"114.2224073","Name":"Jalan Laila Bentara"},{"Latitude":"4.8999345","Longitude":"114.8839079","Name":"Jalan Laila Wijaya"},{"Latitude":"4.5821123","Longitude":"114.1983351","Name":"Jalan Laksamana"},{"Latitude":"4.8862125","Longitude":"114.9323531","Name":"Jalan Laksamana Abdul Razak"},{"Latitude":"4.7337097","Longitude":"114.5631229","Name":"Jalan Lalit"},{"Latitude":"4.9696497","Longitude":"114.9467430","Name":"Jalan Lambak Kanan"},{"Latitude":"4.9707891","Longitude":"114.9445754","Name":"Jalan Lambak Kiri"},{"Latitude":"4.6464095","Longitude":"114.4454779","Name":"Jalan Lamiding"},{"Latitude":"4.8705480","Longitude":"114.8448847","Name":"Jalan Lampaki"},{"Latitude":"4.8011835","Longitude":"114.7685185","Name":"Jalan Lamunin"},{"Latitude":"4.9217404","Longitude":"114.9294035","Name":"Jalan Landasan Lama"},{"Latitude":"4.9423175","Longitude":"114.9396806","Name":"Jalan Lapangan Terbang Antarabangsa"},{"Latitude":"4.9224950","Longitude":"114.9322776","Name":"Jalan Lapangan Terbang Lama"},{"Latitude":"4.8885996","Longitude":"114.8007699","Name":"Jalan Lasuk"},{"Latitude":"4.7075217","Longitude":"114.6740300","Name":"Jalan Layong"},{"Latitude":"4.5919348","Longitude":"114.2722369","Name":"Jalan Likap"},{"Latitude":"4.8090060","Longitude":"115.0070275","Name":"Jalan Limbang Meteorological Station"},{"Latitude":"4.8979800","Longitude":"114.9379711","Name":"Jalan Lintang"},{"Latitude":"4.6009714","Longitude":"114.3311092","Name":"Jalan Lorong 3 Barat"},{"Latitude":"4.6148066","Longitude":"114.3342668","Name":"Jalan Lorong Satu Barat"},{"Latitude":"4.6104366","Longitude":"114.3357244","Name":"Jalan Lorong Satu. Barat"},{"Latitude":"4.5708546","Longitude":"114.2028605","Name":"Jalan Lorong Setia Diraja"},{"Latitude":"4.5813610","Longitude":"114.1970825","Name":"Jalan Lubok Jelutong"},{"Latitude":"4.5808512","Longitude":"114.1971984","Name":"Jalan Lubok Melilit"},{"Latitude":"4.7528757","Longitude":"114.6671136","Name":"Jalan Lubok Meranti"},{"Latitude":"4.5787632","Longitude":"114.1970856","Name":"Jalan Lubok Nipah"},{"Latitude":"4.5804446","Longitude":"114.1972776","Name":"Jalan Lubok Palam"},{"Latitude":"4.5798225","Longitude":"114.1990613","Name":"Jalan Lubok Rumbia"},{"Latitude":"4.7684851","Longitude":"114.8449159","Name":"Jalan Lubok Sigantang - Pendam - Feri Seberang Kedai"},{"Latitude":"4.8618562","Longitude":"114.8485577","Name":"Jalan Lubok Sigurun"},{"Latitude":"4.7363035","Longitude":"114.8124919","Name":"Jalan Lubok Tengkurok-Ipai"},{"Latitude":"4.8915063","Longitude":"114.8035905","Name":"Jalan Lugu"},{"Latitude":"4.8525033","Longitude":"114.9243683","Name":"Jalan Lumapas"},{"Latitude":"4.9033777","Longitude":"114.9381563","Name":"Jalan Mabohai"},{"Latitude":"4.9565861","Longitude":"114.9544841","Name":"Jalan Madang"},{"Latitude":"4.8566543","Longitude":"114.8954748","Name":"Jalan Madewa"},{"Latitude":"4.5770816","Longitude":"114.2003759","Name":"Jalan Maharaja Anaknda"},{"Latitude":"4.8913455","Longitude":"114.8416551","Name":"Jalan Maharaja Dinda"},{"Latitude":"4.8852946","Longitude":"114.9275232","Name":"Jalan Maharaja Lela"},{"Latitude":"4.5783367","Longitude":"114.2025970","Name":"Jalan Maharaja Setia"},{"Latitude":"5.0352397","Longitude":"115.0700565","Name":"Jalan Maharajalela"},{"Latitude":"4.9505657","Longitude":"114.9640394","Name":"Jalan Manggis Dua"},{"Latitude":"4.9500782","Longitude":"114.9588030","Name":"Jalan Manggis Satu"},{"Latitude":"4.5845344","Longitude":"114.1895495","Name":"Jalan Masjid"},{"Latitude":"4.8878268","Longitude":"114.9392169","Name":"Jalan Masjid Omar Ali Saifuddien"},{"Latitude":"4.9755826","Longitude":"114.9844396","Name":"Jalan Masjid Salambigar"},{"Latitude":"4.9965222","Longitude":"115.0042110","Name":"Jalan Masjid Tanah Jambu"},{"Latitude":"4.8979180","Longitude":"114.8957839","Name":"Jalan Mata-Mata"},{"Latitude":"4.5905571","Longitude":"114.2158882","Name":"Jalan Maulana"},{"Latitude":"4.8872161","Longitude":"114.9445289","Name":"Jalan McArthur"},{"Latitude":"4.5863020","Longitude":"114.1928244","Name":"Jalan McKerron"},{"Latitude":"4.9275553","Longitude":"114.8454891","Name":"Jalan Mejawa"},{"Latitude":"4.9051794","Longitude":"114.9358360","Name":"Jalan Melor"},{"Latitude":"4.9290332","Longitude":"114.9314423","Name":"Jalan Membangan"},{"Latitude":"4.6558870","Longitude":"114.4497393","Name":"Jalan Mengkubuk"},{"Latitude":"4.9285020","Longitude":"114.9222792","Name":"Jalan Menteri Besar"},{"Latitude":"4.8057481","Longitude":"114.6581390","Name":"Jalan Menteri Taib"},{"Latitude":"4.5839799","Longitude":"114.1966822","Name":"Jalan Mentiri"},{"Latitude":"4.8248094","Longitude":"114.7858502","Name":"Jalan Meraburong"},{"Latitude":"4.8199129","Longitude":"114.7491342","Name":"Jalan Meragang"},{"Latitude":"4.7060143","Longitude":"114.8674237","Name":"Jalan Meritam"},{"Latitude":"4.7724356","Longitude":"115.0249203","Name":"Jalan Ming Hock"},{"Latitude":"4.9499003","Longitude":"114.9645330","Name":"Jalan Muara"},{"Latitude":"4.8319931","Longitude":"114.6741661","Name":"Jalan Muhammad"},{"Latitude":"4.9239093","Longitude":"114.9286101","Name":"Jalan Muhibbah"},{"Latitude":"4.8785917","Longitude":"114.8387731","Name":"Jalan Mulaut Tanjong Nangka"},{"Latitude":"4.5160975","Longitude":"114.2949946","Name":"Jalan Mumong"},{"Latitude":"4.7353171","Longitude":"114.7373814","Name":"Jalan Mungkom"},{"Latitude":"4.8840835","Longitude":"114.9696728","Name":"Jalan Muzium Teknologi Melayu"},{"Latitude":"4.6100473","Longitude":"114.3316099","Name":"Jalan Nakhoda Manis"},{"Latitude":"4.5865538","Longitude":"114.1960916","Name":"Jalan Nakhoda Ragam"},{"Latitude":"4.8944350","Longitude":"114.8722047","Name":"Jalan Nenas Madu"},{"Latitude":"4.8954091","Longitude":"114.8722704","Name":"Jalan Nenas Paun"},{"Latitude":"4.8921376","Longitude":"114.8750295","Name":"Jalan Nenas Pisang"},{"Latitude":"4.9036471","Longitude":"114.8758885","Name":"Jalan Nenas Sanggol"},{"Latitude":"4.6453361","Longitude":"114.4428620","Name":"Jalan Nibung"},{"Latitude":"4.6903403","Longitude":"114.6436402","Name":"Jalan Nok Tunon"},{"Latitude":"4.7522801","Longitude":"115.0092050","Name":"Jalan Old Town 1"},{"Latitude":"4.7523607","Longitude":"115.0088880","Name":"Jalan Old Town 2"},{"Latitude":"4.9030229","Longitude":"114.9357312","Name":"Jalan Ong Sum Ping"},{"Latitude":"5.0355028","Longitude":"115.0767446","Name":"Jalan Padang"},{"Latitude":"4.5802928","Longitude":"114.2017971","Name":"Jalan Paduka Tuan"},{"Latitude":"5.0335799","Longitude":"115.0673729","Name":"Jalan Pahlawan"},{"Latitude":"5.0352757","Longitude":"115.0650233","Name":"Jalan Pahlawan II"},{"Latitude":"4.6976609","Longitude":"114.6490822","Name":"Jalan Pak Bidang"},{"Latitude":"4.6509823","Longitude":"114.4459221","Name":"Jalan Pakis"},{"Latitude":"4.6536777","Longitude":"114.4472095","Name":"Jalan Paku-Paku"},{"Latitude":"4.9375198","Longitude":"114.8441702","Name":"Jalan Palau Kubu"},{"Latitude":"4.8458281","Longitude":"114.6838884","Name":"Jalan Palu"},{"Latitude":"4.6293569","Longitude":"114.6752058","Name":"Jalan Panchong Kuala Ungar"},{"Latitude":"4.8256226","Longitude":"114.8184220","Name":"Jalan Panchor Murai Kulapis"},{"Latitude":"4.8253171","Longitude":"114.8186946","Name":"Jalan Panchor Murai-Kulapis"},{"Latitude":"4.5866558","Longitude":"114.2117797","Name":"Jalan Pandan Dua"},{"Latitude":"4.5873515","Longitude":"114.2145570","Name":"Jalan Pandan Empat"},{"Latitude":"4.5856639","Longitude":"114.2223654","Name":"Jalan Pandan Enam"},{"Latitude":"4.5887162","Longitude":"114.2494583","Name":"Jalan Pandan Lapan"},{"Latitude":"4.5831992","Longitude":"114.2194080","Name":"Jalan Pandan Lima"},{"Latitude":"4.5875415","Longitude":"114.2175981","Name":"Jalan Pandan Lima A"},{"Latitude":"4.5848453","Longitude":"114.2111517","Name":"Jalan Pandan Satu"},{"Latitude":"4.5879639","Longitude":"114.2121822","Name":"Jalan Pandan Tiga"},{"Latitude":"4.5876039","Longitude":"114.2313267","Name":"Jalan Pandan Tujuh"},{"Latitude":"4.6884118","Longitude":"115.0336531","Name":"Jalan Pandaruan"},{"Latitude":"4.5825215","Longitude":"114.2012949","Name":"Jalan Panglima"},{"Latitude":"4.6150282","Longitude":"114.3350031","Name":"Jalan Pangsa"},{"Latitude":"4.9986198","Longitude":"114.9381367","Name":"Jalan Pantai"},{"Latitude":"5.0355721","Longitude":"115.0785798","Name":"Jalan Pantai Muara"},{"Latitude":"4.6844230","Longitude":"114.4917132","Name":"Jalan Pantai Sungai Liang"},{"Latitude":"4.5884111","Longitude":"114.2612371","Name":"Jalan Parak"},{"Latitude":"4.8010897","Longitude":"114.8296706","Name":"Jalan Parit, Pengkalan Batu"},{"Latitude":"4.8247596","Longitude":"114.8318892","Name":"Jalan Parit-Masin"},{"Latitude":"4.8855030","Longitude":"114.8410615","Name":"Jalan Pasai 1"},{"Latitude":"4.8840940","Longitude":"114.8436378","Name":"Jalan Pasai 2"},{"Latitude":"4.8843024","Longitude":"114.8427325","Name":"Jalan Pasai Dua"},{"Latitude":"4.9032182","Longitude":"114.9177869","Name":"Jalan Pasar Gadong"},{"Latitude":"4.5811927","Longitude":"114.1938711","Name":"Jalan Pasarneka"},{"Latitude":"4.9968670","Longitude":"114.9348598","Name":"Jalan Pasir"},{"Latitude":"4.9901263","Longitude":"114.9512242","Name":"Jalan Pasir Berakas"},{"Latitude":"4.6082909","Longitude":"114.3281591","Name":"Jalan Pateh Berbai"},{"Latitude":"4.7281798","Longitude":"114.6028662","Name":"Jalan Paya Belambang"},{"Latitude":"4.8788105","Longitude":"114.8415269","Name":"Jalan Paya Bunga Merah"},{"Latitude":"4.7182786","Longitude":"114.6026865","Name":"Jalan Paya Namurai"},{"Latitude":"4.9682293","Longitude":"115.0045272","Name":"Jalan Paya Panchor"},{"Latitude":"4.8256978","Longitude":"114.6710142","Name":"Jalan Pehin"},{"Latitude":"4.9051446","Longitude":"114.9149174","Name":"Jalan Pehin Dato Haji Awang Hapidz"},{"Latitude":"4.8938430","Longitude":"114.9410916","Name":"Jalan Pehin Dato Isa"},{"Latitude":"5.0343874","Longitude":"115.0716779","Name":"Jalan Pejuang"},{"Latitude":"4.7082294","Longitude":"115.0721647","Name":"Jalan Pekan Bangar 1"},{"Latitude":"4.7097116","Longitude":"115.0720169","Name":"Jalan Pekan Bangar 2"},{"Latitude":"5.0318905","Longitude":"115.0693470","Name":"Jalan Pelabohan"},{"Latitude":"5.0249392","Longitude":"115.0662072","Name":"Jalan Pelabuhan Muara"},{"Latitude":"5.0299214","Longitude":"115.0663753","Name":"Jalan Pelumpong"},{"Latitude":"4.8889379","Longitude":"114.9438255","Name":"Jalan Pemancha"},{"Latitude":"4.9225123","Longitude":"114.9265060","Name":"Jalan Pembangunan"},{"Latitude":"5.0348617","Longitude":"115.0667921","Name":"Jalan Pemburu"},{"Latitude":"4.7940073","Longitude":"114.6283182","Name":"Jalan Penabai"},{"Latitude":"4.8439538","Longitude":"114.6822549","Name":"Jalan Penanjong"},{"Latitude":"4.8418087","Longitude":"114.7120201","Name":"Jalan Penanjong Garrison"},{"Latitude":"4.6321351","Longitude":"114.6243659","Name":"Jalan Penapar Ukong"},{"Latitude":"4.7075042","Longitude":"114.6714940","Name":"Jalan Penapar-Ukong"},{"Latitude":"4.8090461","Longitude":"114.6476437","Name":"Jalan Pengasing"},{"Latitude":"4.8108433","Longitude":"114.6419972","Name":"Jalan Pengasing Pantai Seri Kenangan"},{"Latitude":"4.6949031","Longitude":"114.5391042","Name":"Jalan Penghubung Sungai Paku"},{"Latitude":"4.9709913","Longitude":"115.0005850","Name":"Jalan Penghubung Tanah Jambu"},{"Latitude":"4.7611248","Longitude":"115.0075379","Name":"Jalan Penghulu"},{"Latitude":"4.8099001","Longitude":"114.6606749","Name":"Jalan Pengiran Anak Mohamad"},{"Latitude":"4.9009649","Longitude":"114.9098831","Name":"Jalan Pengiran Babu Raja"},{"Latitude":"4.8104143","Longitude":"114.6623034","Name":"Jalan Pengiran Othman"},{"Latitude":"4.8394467","Longitude":"114.6762251","Name":"Jalan Pengiran Pinang"},{"Latitude":"4.8931981","Longitude":"114.9390891","Name":"Jalan Pengiran Shahbandar"},{"Latitude":"4.8189974","Longitude":"114.6970177","Name":"Jalan Pengkalan Ajong Keriam"},{"Latitude":"4.8372586","Longitude":"114.9706230","Name":"Jalan Pengkalan Batang"},{"Latitude":"4.8003677","Longitude":"114.8308585","Name":"Jalan Pengkalan Batu"},{"Latitude":"4.9020621","Longitude":"114.9282266","Name":"Jalan Pengkalan Kiulap"},{"Latitude":"4.9547949","Longitude":"115.0250208","Name":"Jalan Pengkalan Sibabau"},{"Latitude":"5.0359571","Longitude":"115.0650662","Name":"Jalan Penyerang"},{"Latitude":"4.7591874","Longitude":"115.0139141","Name":"Jalan Penyiaran"},{"Latitude":"4.8065910","Longitude":"114.6606692","Name":"Jalan Penyurat Haji Abu Bakar"},{"Latitude":"4.6108862","Longitude":"114.3314753","Name":"Jalan Perakong"},{"Latitude":"4.9218875","Longitude":"114.9341654","Name":"Jalan Perayaan"},{"Latitude":"4.9336853","Longitude":"114.9412977","Name":"Jalan Perdana Menteri"},{"Latitude":"4.6433143","Longitude":"114.4226587","Name":"Jalan Perkhemahan Lumut"},{"Latitude":"4.7877263","Longitude":"114.8260381","Name":"Jalan Perkuburan Bukit Baloi"},{"Latitude":"4.8053556","Longitude":"114.8062508","Name":"Jalan Perkuburan Luagan Limidi"},{"Latitude":"4.8805452","Longitude":"114.9096663","Name":"Jalan Permaisuara"},{"Latitude":"4.9308325","Longitude":"114.9347940","Name":"Jalan Pertahanan"},{"Latitude":"5.0234580","Longitude":"115.0627045","Name":"Jalan Perusahaan"},{"Latitude":"5.0251252","Longitude":"115.0660763","Name":"Jalan Perusahaan Muara"},{"Latitude":"5.0352998","Longitude":"115.0682071","Name":"Jalan Perwira"},{"Latitude":"4.5808154","Longitude":"114.1953458","Name":"Jalan Petai"},{"Latitude":"4.8041423","Longitude":"114.6540527","Name":"Jalan Petani"},{"Latitude":"4.8251062","Longitude":"114.6655099","Name":"Jalan Pg Ibnu"},{"Latitude":"4.6472810","Longitude":"114.4466866","Name":"Jalan Piai"},{"Latitude":"4.7789355","Longitude":"115.1991110","Name":"Jalan Piasau Piasau"},{"Latitude":"4.6148468","Longitude":"114.3323596","Name":"Jalan Pinang"},{"Latitude":"4.8897216","Longitude":"114.9407867","Name":"Jalan Pretty"},{"Latitude":"4.9341495","Longitude":"114.9537048","Name":"Jalan Pulaie"},{"Latitude":"4.9331039","Longitude":"114.8424496","Name":"Jalan Pulau Kubu"},{"Latitude":"4.6137947","Longitude":"114.6140980","Name":"Jalan Pulau Lamu"},{"Latitude":"5.0338904","Longitude":"115.0654431","Name":"Jalan Puni"},{"Latitude":"4.7002098","Longitude":"115.0427113","Name":"Jalan Puni A"},{"Latitude":"4.6961225","Longitude":"115.0453875","Name":"Jalan Puni B"},{"Latitude":"4.5895879","Longitude":"114.2655747","Name":"Jalan Puragam"},{"Latitude":"4.9267385","Longitude":"114.9514291","Name":"Jalan Pusat Dakwah"},{"Latitude":"4.9237870","Longitude":"114.9449810","Name":"Jalan Pusat Persidangan"},{"Latitude":"4.8920652","Longitude":"114.9295905","Name":"Jalan Putera Al-Muhtadee Billah"},{"Latitude":"4.5802928","Longitude":"114.2017971","Name":"Jalan Puteri Brunei"},{"Latitude":"4.6077884","Longitude":"114.3283284","Name":"Jalan Puteri China"},{"Latitude":"4.7668901","Longitude":"115.0184403","Name":"Jalan RPR Batu Biah"},{"Latitude":"4.6138274","Longitude":"114.3362153","Name":"Jalan Raja Isteri"},{"Latitude":"4.8927765","Longitude":"114.9348182","Name":"Jalan Raja Isteri Pengiran Anak Saleha"},{"Latitude":"4.6134252","Longitude":"114.3281293","Name":"Jalan Raja Puteri"},{"Latitude":"4.7608801","Longitude":"114.6570841","Name":"Jalan Rambai Merimbun"},{"Latitude":"4.9291678","Longitude":"114.9298809","Name":"Jalan Rambutan"},{"Latitude":"4.3757579","Longitude":"114.4556952","Name":"Jalan Rampayoh Kecil Lama"},{"Latitude":"4.5761380","Longitude":"114.1751620","Name":"Jalan Rasau-Teraban"},{"Latitude":"4.6131556","Longitude":"114.3342141","Name":"Jalan Ratu Suria"},{"Latitude":"4.8872136","Longitude":"114.9445701","Name":"Jalan Residency"},{"Latitude":"4.9176928","Longitude":"114.9070653","Name":"Jalan Rimba"},{"Latitude":"4.9647489","Longitude":"114.9254432","Name":"Jalan Rimba-Terunjing"},{"Latitude":"4.8290931","Longitude":"114.6736407","Name":"Jalan Robert"},{"Latitude":"4.8877472","Longitude":"114.9418214","Name":"Jalan Roberts"},{"Latitude":"4.6516355","Longitude":"114.4431481","Name":"Jalan Rotan Gatah"},{"Latitude":"5.0053062","Longitude":"115.0117640","Name":"Jalan Rumbia"},{"Latitude":"4.6876382","Longitude":"115.0253629","Name":"Jalan SK Kampung Pahlawan"},{"Latitude":"4.6866287","Longitude":"115.0136121","Name":"Jalan SMA Limbang"},{"Latitude":"4.9994041","Longitude":"114.9894733","Name":"Jalan Sadaman"},{"Latitude":"4.9938966","Longitude":"114.9896557","Name":"Jalan Sadaman Barat"},{"Latitude":"4.9801809","Longitude":"114.9867377","Name":"Jalan Salambigar"},{"Latitude":"4.6494149","Longitude":"114.4453881","Name":"Jalan Sampariding"},{"Latitude":"4.8226749","Longitude":"114.8501663","Name":"Jalan Sangai-Sangai"},{"Latitude":"4.7814445","Longitude":"114.7473754","Name":"Jalan Sebatang Sentol"},{"Latitude":"4.9001466","Longitude":"114.9397763","Name":"Jalan Sekolah"},{"Latitude":"4.7686022","Longitude":"114.8236052","Name":"Jalan Sekolah Limau Manis"},{"Latitude":"4.7113904","Longitude":"115.0758272","Name":"Jalan Sekolah Menengah"},{"Latitude":"4.7996959","Longitude":"114.8319137","Name":"Jalan Sekolah Rendah Junjongan"},{"Latitude":"4.7001477","Longitude":"115.1554600","Name":"Jalan Selapon"},{"Latitude":"4.9186128","Longitude":"114.8454619","Name":"Jalan Selayun Jerudong"},{"Latitude":"4.6113559","Longitude":"114.3311767","Name":"Jalan Semaun"},{"Latitude":"4.8026251","Longitude":"114.6524993","Name":"Jalan Sengkarai"},{"Latitude":"4.8968061","Longitude":"114.8444941","Name":"Jalan Sengkurong A"},{"Latitude":"4.9033261","Longitude":"114.8448468","Name":"Jalan Sengkurong B"},{"Latitude":"5.0286228","Longitude":"115.0559628","Name":"Jalan Serai Pimping"},{"Latitude":"5.0294702","Longitude":"115.0620956","Name":"Jalan Serasa"},{"Latitude":"4.5748207","Longitude":"114.2211661","Name":"Jalan Seri Maharaja"},{"Latitude":"4.8908633","Longitude":"114.8332536","Name":"Jalan Seri Pahlawan"},{"Latitude":"4.9006629","Longitude":"114.8866808","Name":"Jalan Seri Setia Satu"},{"Latitude":"4.7057932","Longitude":"115.0645735","Name":"Jalan Seri Tanjung Belayang"},{"Latitude":"4.9455153","Longitude":"114.9440957","Name":"Jalan Serusop"},{"Latitude":"5.0331797","Longitude":"115.0708855","Name":"Jalan Seteria"},{"Latitude":"4.5811394","Longitude":"114.2036273","Name":"Jalan Setia Negara"},{"Latitude":"4.5785404","Longitude":"114.2083185","Name":"Jalan Setia Pahlawan"},{"Latitude":"4.6148468","Longitude":"114.3323596","Name":"Jalan Sharif Ali"},{"Latitude":"4.7701284","Longitude":"115.0273571","Name":"Jalan Sibukang"},{"Latitude":"4.8973055","Longitude":"114.9383148","Name":"Jalan Simpang"},{"Latitude":"4.8320238","Longitude":"114.9794212","Name":"Jalan Simpang Putat"},{"Latitude":"4.7985097","Longitude":"114.6489683","Name":"Jalan Simpang Tiga Sengkarai"},{"Latitude":"4.8360384","Longitude":"114.8734401","Name":"Jalan Sinarubai"},{"Latitude":"4.8354292","Longitude":"114.8775382","Name":"Jalan Sinarubia"},{"Latitude":"4.5814263","Longitude":"114.2275317","Name":"Jalan Singa Menteri"},{"Latitude":"4.9267299","Longitude":"114.9478463","Name":"Jalan Stadium"},{"Latitude":"4.8920444","Longitude":"114.9405137","Name":"Jalan Stoney"},{"Latitude":"4.8851532","Longitude":"114.9516077","Name":"Jalan Subok"},{"Latitude":"4.6338902","Longitude":"114.6960103","Name":"Jalan Sulap Samat"},{"Latitude":"4.5865743","Longitude":"114.1906049","Name":"Jalan Sultan"},{"Latitude":"4.6115716","Longitude":"114.3311053","Name":"Jalan Sultan Hashim"},{"Latitude":"4.6120531","Longitude":"114.3309459","Name":"Jalan Sultan Omar Ali"},{"Latitude":"4.8917971","Longitude":"114.9421296","Name":"Jalan Sultan Omar Ali Saifuddien"},{"Latitude":"4.5815110","Longitude":"114.1981446","Name":"Jalan Sultan Suliman"},{"Latitude":"4.8925942","Longitude":"114.9388966","Name":"Jalan Sumbiling"},{"Latitude":"4.6484967","Longitude":"114.4454391","Name":"Jalan Sumbui-Sumbui"},{"Latitude":"4.5802133","Longitude":"114.1938782","Name":"Jalan Sungai"},{"Latitude":"4.9329794","Longitude":"114.9741009","Name":"Jalan Sungai Akar"},{"Latitude":"4.8713074","Longitude":"114.9373153","Name":"Jalan Sungai Asam"},{"Latitude":"4.6544512","Longitude":"114.4524196","Name":"Jalan Sungai Bakong Selatan"},{"Latitude":"4.8174511","Longitude":"114.6646593","Name":"Jalan Sungai Basong"},{"Latitude":"4.8228077","Longitude":"114.6617735","Name":"Jalan Sungai Besar"},{"Latitude":"4.9927333","Longitude":"115.0206939","Name":"Jalan Sungai Buloh 2"},{"Latitude":"4.9854878","Longitude":"115.0137729","Name":"Jalan Sungai Carana"},{"Latitude":"4.9669704","Longitude":"114.9780452","Name":"Jalan Sungai Haching Baru"},{"Latitude":"4.9538284","Longitude":"114.9741568","Name":"Jalan Sungai Hanching Baru"},{"Latitude":"4.8875111","Longitude":"114.9444198","Name":"Jalan Sungai Kianggeh"},{"Latitude":"4.7602337","Longitude":"115.0073665","Name":"Jalan Sungai Kudong"},{"Latitude":"4.5890655","Longitude":"114.2277939","Name":"Jalan Sungai Pandan"},{"Latitude":"4.8905150","Longitude":"114.8482988","Name":"Jalan Sungai Tampoi"},{"Latitude":"4.7179115","Longitude":"115.0706533","Name":"Jalan Sungai Tanit"},{"Latitude":"4.5755801","Longitude":"114.1829943","Name":"Jalan Sungai Teraban"},{"Latitude":"4.5796095","Longitude":"114.1824197","Name":"Jalan Sungai Teraban Timur"},{"Latitude":"4.5831150","Longitude":"114.1782717","Name":"Jalan Sungai Teraban/Rasau"},{"Latitude":"4.9573453","Longitude":"114.9687989","Name":"Jalan Sungai Tilong"},{"Latitude":"4.8854536","Longitude":"114.7981990","Name":"Jalan Sungkat"},{"Latitude":"4.9302139","Longitude":"114.9331043","Name":"Jalan Surapit"},{"Latitude":"4.8873128","Longitude":"114.7997963","Name":"Jalan Takiding"},{"Latitude":"4.9997841","Longitude":"114.9964020","Name":"Jalan Tanah Jambu 1"},{"Latitude":"5.0039488","Longitude":"115.0026852","Name":"Jalan Tanah Jambu 2"},{"Latitude":"5.0356845","Longitude":"115.0587858","Name":"Jalan Tanjong Batu"},{"Latitude":"4.8911452","Longitude":"114.8548762","Name":"Jalan Tanjong Bunut"},{"Latitude":"4.8985719","Longitude":"114.8566170","Name":"Jalan Tanjong Bunut Kanan"},{"Latitude":"4.6827804","Longitude":"114.6729354","Name":"Jalan Tanjong Dengar"},{"Latitude":"4.8719223","Longitude":"114.8301104","Name":"Jalan Tanjong Hangir Kulapis"},{"Latitude":"4.5781829","Longitude":"114.1966373","Name":"Jalan Tanjong Lurus"},{"Latitude":"4.7426999","Longitude":"114.6650861","Name":"Jalan Tanjong Maya"},{"Latitude":"4.9717136","Longitude":"115.0108395","Name":"Jalan Tanjung Kudus"},{"Latitude":"4.9773574","Longitude":"115.0067737","Name":"Jalan Tanjung Selasih"},{"Latitude":"5.0357398","Longitude":"115.0424798","Name":"Jalan Tanjung Sunting"},{"Latitude":"4.8718998","Longitude":"114.9452345","Name":"Jalan Tarap Bau"},{"Latitude":"4.5954296","Longitude":"114.2774437","Name":"Jalan Taripas"},{"Latitude":"4.9016897","Longitude":"114.9399145","Name":"Jalan Tasek"},{"Latitude":"4.8991576","Longitude":"114.9417551","Name":"Jalan Tasek Lama"},{"Latitude":"4.7470730","Longitude":"115.0060610","Name":"Jalan Tasik Mas"},{"Latitude":"4.7301595","Longitude":"114.5671323","Name":"Jalan Telamba"},{"Latitude":"4.8641156","Longitude":"114.9013415","Name":"Jalan Telanai"},{"Latitude":"4.5909963","Longitude":"114.2316889","Name":"Jalan Telekom"},{"Latitude":"4.7601214","Longitude":"115.0086151","Name":"Jalan Temenggong"},{"Latitude":"4.6172609","Longitude":"114.3344234","Name":"Jalan Tengah"},{"Latitude":"4.5844294","Longitude":"114.1960242","Name":"Jalan Tepi"},{"Latitude":"4.8963396","Longitude":"114.9427481","Name":"Jalan Teraja"},{"Latitude":"4.7067865","Longitude":"115.0719072","Name":"Jalan Terminal Air Temburong"},{"Latitude":"4.7066602","Longitude":"115.0722827","Name":"Jalan Terminal Perahu dan Penumpang"},{"Latitude":"4.9670663","Longitude":"114.9280415","Name":"Jalan Terunjing Baharu"},{"Latitude":"4.9134824","Longitude":"114.9055432","Name":"Jalan Tungku"},{"Latitude":"4.8735844","Longitude":"114.8236775","Name":"Jalan Tutong"},{"Latitude":"4.6872474","Longitude":"115.0375354","Name":"Jalan Ujong Jalan"},{"Latitude":"4.6272360","Longitude":"115.0397435","Name":"Jalan Ulu Pandaruan-Ulu Penganan"},{"Latitude":"4.9700071","Longitude":"114.8875383","Name":"Jalan Universiti"},{"Latitude":"4.9682966","Longitude":"115.0065777","Name":"Jalan Utama Mentiri"},{"Latitude":"4.9711946","Longitude":"114.9800564","Name":"Jalan Utama Salambigar"},{"Latitude":"4.9971552","Longitude":"114.9841949","Name":"Jalan Utama Tanah Jambu"},{"Latitude":"4.9695180","Longitude":"114.9389219","Name":"Jalan Utama Terunjing"},{"Latitude":"4.5963509","Longitude":"114.2549183","Name":"Jalan Utara"},{"Latitude":"5.0314536","Longitude":"115.0330970","Name":"Jalan Wasai Limuru"},{"Latitude":"5.0075205","Longitude":"115.0218585","Name":"Jalan Wasai Limuru Barat"},{"Latitude":"5.0342036","Longitude":"115.0329929","Name":"Jalan Wasai Limuru Utara"},{"Latitude":"4.7625206","Longitude":"114.7943564","Name":"Jalan Wasan"},{"Latitude":"5.0341656","Longitude":"115.0689917","Name":"Jalan Waspada"},{"Latitude":"4.9949233","Longitude":"114.9890992","Name":"Jalan karamunting Barat"},{"Latitude":"4.7503477","Longitude":"114.7403010","Name":"Jambatan Batang Mitus"},{"Latitude":"4.8768158","Longitude":"114.9465523","Name":"Jambatan Raja Isteri Pengiran Anak Hajah Saleha"},{"Latitude":"4.7716907","Longitude":"114.8064587","Name":"Jambatan Wasan"},{"Latitude":"4.7805339","Longitude":"115.0273648","Name":"Jimmy Ang"},{"Latitude":"4.7599722","Longitude":"115.0153290","Name":"Kemas Pusat"},{"Latitude":"4.6836231","Longitude":"114.5034339","Name":"Lebuhraya Muara Tutong"},{"Latitude":"4.8906569","Longitude":"114.9325643","Name":"Lebuhraya Sultan Hassanal Bolkiah"},{"Latitude":"4.9212425","Longitude":"114.8371424","Name":"Lebuhraya Tungku-Jerudong"},{"Latitude":"4.6060866","Longitude":"114.3004791","Name":"Lorong 10 Barat"},{"Latitude":"4.8441091","Longitude":"114.6911908","Name":"Lorong 100"},{"Latitude":"4.8482366","Longitude":"114.6998484","Name":"Lorong 102"},{"Latitude":"4.8499458","Longitude":"114.6985608","Name":"Lorong 107"},{"Latitude":"4.8482024","Longitude":"114.6945195","Name":"Lorong 108"},{"Latitude":"4.8531376","Longitude":"114.6982630","Name":"Lorong 117"},{"Latitude":"4.8549055","Longitude":"114.7044744","Name":"Lorong 118"},{"Latitude":"4.8544600","Longitude":"114.7025663","Name":"Lorong 120"},{"Latitude":"4.8557971","Longitude":"114.7008616","Name":"Lorong 121"},{"Latitude":"4.6003690","Longitude":"114.2902217","Name":"Lorong 14 Barat"},{"Latitude":"4.5983485","Longitude":"114.2665641","Name":"Lorong 19 Barat"},{"Latitude":"4.7712261","Longitude":"115.0204353","Name":"Lorong Blok Flat Persekutuan"},{"Latitude":"4.6075079","Longitude":"114.3324633","Name":"Lorong Bolkiah"},{"Latitude":"4.7715369","Longitude":"115.0197791","Name":"Lorong Kediaman Pegawai Persekutuan"},{"Latitude":"4.7581969","Longitude":"115.0084821","Name":"Lorong Kediaman Polis Limbang"},{"Latitude":"4.7600056","Longitude":"115.0102643","Name":"Lorong Keluar/Masuk PGA"},{"Latitude":"4.7581619","Longitude":"115.0076692","Name":"Lorong Kompleks Persekutuan Limbang"},{"Latitude":"4.7716053","Longitude":"115.0201453","Name":"Lorong Kuarters Persekutuan"},{"Latitude":"4.7572451","Longitude":"115.0137998","Name":"Lorong Limbang Sport Center 1"},{"Latitude":"4.7589330","Longitude":"115.0125909","Name":"Lorong Limbang Sport Center 2"},{"Latitude":"4.7534557","Longitude":"115.0095230","Name":"Lorong Limbang Town Park 1"},{"Latitude":"4.7537765","Longitude":"115.0089081","Name":"Lorong Limbang Town Park 2"},{"Latitude":"4.7534557","Longitude":"115.0095230","Name":"Lorong Limbang Town Park 3"},{"Latitude":"4.7532894","Longitude":"115.0094796","Name":"Lorong Limbang Town Park 4"},{"Latitude":"4.7535504","Longitude":"115.0091935","Name":"Lorong Limbang Town Park 5"},{"Latitude":"4.7519435","Longitude":"115.0087708","Name":"Lorong Main Bazaar 2"},{"Latitude":"4.7540593","Longitude":"115.0092705","Name":"Lorong Malayan Banking"},{"Latitude":"4.7523607","Longitude":"115.0088880","Name":"Lorong Merdeka"},{"Latitude":"4.7442878","Longitude":"115.0058614","Name":"Lorong Methodist Church"},{"Latitude":"4.7522442","Longitude":"115.0093489","Name":"Lorong Parkir Old Town"},{"Latitude":"4.9950206","Longitude":"114.9388474","Name":"Lorong Pasir"},{"Latitude":"4.7585075","Longitude":"115.0074798","Name":"Lorong Pejabat Pendidikan Daerah Limbang"},{"Latitude":"4.7074742","Longitude":"115.0727025","Name":"Lorong Pekan Bangar 3"},{"Latitude":"4.7594493","Longitude":"115.0055108","Name":"Lorong Pemukat Commercial 10A"},{"Latitude":"4.7594582","Longitude":"115.0060468","Name":"Lorong Pemukat Commercial 10B"},{"Latitude":"4.7602243","Longitude":"115.0051812","Name":"Lorong Pemukat Commercial 1A"},{"Latitude":"4.7604118","Longitude":"115.0058016","Name":"Lorong Pemukat Commercial 1B"},{"Latitude":"4.7606881","Longitude":"115.0067982","Name":"Lorong Pemukat Commercial 1C"},{"Latitude":"4.7599544","Longitude":"115.0055027","Name":"Lorong Pemukat Commercial 2A"},{"Latitude":"4.7603001","Longitude":"115.0058431","Name":"Lorong Pemukat Commercial 2B"},{"Latitude":"4.7599544","Longitude":"115.0055027","Name":"Lorong Pemukat Commercial 3A"},{"Latitude":"4.7602724","Longitude":"115.0065117","Name":"Lorong Pemukat Commercial 3B"},{"Latitude":"4.7596778","Longitude":"115.0056126","Name":"Lorong Pemukat Commercial 4"},{"Latitude":"4.7593423","Longitude":"115.0057416","Name":"Lorong Pemukat Commercial 5"},{"Latitude":"4.7602724","Longitude":"115.0065117","Name":"Lorong Pemukat Commercial 6A"},{"Latitude":"4.7597691","Longitude":"115.0066756","Name":"Lorong Pemukat Commercial 6B"},{"Latitude":"4.7596337","Longitude":"115.0067177","Name":"Lorong Pemukat Commercial 6C"},{"Latitude":"4.7603603","Longitude":"115.0067890","Name":"Lorong Pemukat Commercial 7"},{"Latitude":"4.7589441","Longitude":"115.0059158","Name":"Lorong Pemukat Commercial 8"},{"Latitude":"4.7592274","Longitude":"115.0064495","Name":"Lorong Pemukat Commercial 9"},{"Latitude":"4.6907269","Longitude":"115.0293557","Name":"Lorong Perumahan Kastam CIQ Pandaruan"},{"Latitude":"4.9011815","Longitude":"114.8894808","Name":"Lorong Seri Laila Jasa"},{"Latitude":"4.8994444","Longitude":"114.8900600","Name":"Lorong Seri Paduka 1"},{"Latitude":"4.8980583","Longitude":"114.8881541","Name":"Lorong Seri Paduka 2"},{"Latitude":"4.8978664","Longitude":"114.8875975","Name":"Lorong Seri Paduka 3"},{"Latitude":"4.8971680","Longitude":"114.8865867","Name":"Lorong Seri Paduka 4"},{"Latitude":"4.8978079","Longitude":"114.8859283","Name":"Lorong Seri Paduka 5"},{"Latitude":"4.8978327","Longitude":"114.8851227","Name":"Lorong Seri Paduka 6"},{"Latitude":"4.8990498","Longitude":"114.8832066","Name":"Lorong Seri Paduka 7"},{"Latitude":"4.8986427","Longitude":"114.8839313","Name":"Lorong Seri Paduka 8"},{"Latitude":"4.9000220","Longitude":"114.8868665","Name":"Lorong Seri Setia 1"},{"Latitude":"4.9000650","Longitude":"114.8857372","Name":"Lorong Seri Setia 2"},{"Latitude":"4.7624456","Longitude":"115.0065735","Name":"Lorong Taman Sentosa"},{"Latitude":"4.7446099","Longitude":"115.0058141","Name":"Lorong Taman Tasik Mas"},{"Latitude":"4.6146261","Longitude":"114.3385738","Name":"Lorong Tengah"},{"Latitude":"4.6144357","Longitude":"114.3260843","Name":"Lorong Tiga Barat"},{"Latitude":"4.7530821","Longitude":"115.0090726","Name":"Lorong Wayang"},{"Latitude":"4.8094860","Longitude":"115.0074179","Name":"Meteorology & DCA"},{"Latitude":"4.7560244","Longitude":"115.0075798","Name":"Pekeliling Buangsiol"},{"Latitude":"5.0049263","Longitude":"115.0708690","Name":"Pulau Muara Bridge"},{"Latitude":"4.9008220","Longitude":"114.9194702","Name":"Pusing Keliling Kiarong"},{"Latitude":"4.8470385","Longitude":"114.8703178","Name":"SImpang 70"},{"Latitude":"4.6545377","Longitude":"114.4705386","Name":"Seria Bypass"},{"Latitude":"4.8277493","Longitude":"114.8427669","Name":"Simpang 1"},{"Latitude":"4.9590907","Longitude":"114.9058200","Name":"Simpang 10"},{"Latitude":"4.9731574","Longitude":"114.9658325","Name":"Simpang 10-12"},{"Latitude":"4.9727593","Longitude":"114.9661356","Name":"Simpang 10-20"},{"Latitude":"4.9971281","Longitude":"114.9877100","Name":"Simpang 10-25"},{"Latitude":"4.9972708","Longitude":"114.9878802","Name":"Simpang 10-25-13"},{"Latitude":"4.5926716","Longitude":"114.2467074","Name":"Simpang 10-25-3"},{"Latitude":"4.5922493","Longitude":"114.2462454","Name":"Simpang 10-25-4"},{"Latitude":"4.5922661","Longitude":"114.2471810","Name":"Simpang 10-25-9"},{"Latitude":"4.9984004","Longitude":"114.9893482","Name":"Simpang 10-26"},{"Latitude":"4.9975072","Longitude":"114.9899898","Name":"Simpang 10-26-12"},{"Latitude":"4.9771259","Longitude":"114.9650925","Name":"Simpang 10-3"},{"Latitude":"4.8500789","Longitude":"114.8735777","Name":"Simpang 10-34"},{"Latitude":"4.9773526","Longitude":"114.9646738","Name":"Simpang 10-4"},{"Latitude":"4.5920022","Longitude":"114.2450894","Name":"Simpang 10-44"},{"Latitude":"4.5920840","Longitude":"114.2444193","Name":"Simpang 10-44-3"},{"Latitude":"4.5923527","Longitude":"114.2448218","Name":"Simpang 10-44-4"},{"Latitude":"4.5915791","Longitude":"114.2452128","Name":"Simpang 10-45"},{"Latitude":"4.5915791","Longitude":"114.2452128","Name":"Simpang 10-45-3"},{"Latitude":"4.5912082","Longitude":"114.2447834","Name":"Simpang 10-45-4"},{"Latitude":"4.5903167","Longitude":"114.2440333","Name":"Simpang 10-59"},{"Latitude":"4.5910855","Longitude":"114.2438845","Name":"Simpang 10-59-3"},{"Latitude":"4.5923638","Longitude":"114.2480654","Name":"Simpang 10-9"},{"Latitude":"4.5916916","Longitude":"114.2482929","Name":"Simpang 10-9-15"},{"Latitude":"4.5916853","Longitude":"114.2477405","Name":"Simpang 10-9-16"},{"Latitude":"4.5929065","Longitude":"114.2479909","Name":"Simpang 10-9-3"},{"Latitude":"4.5922929","Longitude":"114.2480748","Name":"Simpang 10-9-9"},{"Latitude":"4.9176583","Longitude":"114.9195087","Name":"Simpang 100"},{"Latitude":"4.7214128","Longitude":"114.6014936","Name":"Simpang 100-122"},{"Latitude":"4.9170047","Longitude":"114.9179144","Name":"Simpang 100-13"},{"Latitude":"4.9171990","Longitude":"114.9205214","Name":"Simpang 100-16"},{"Latitude":"4.9175903","Longitude":"114.9205452","Name":"Simpang 100-16-1"},{"Latitude":"4.7190242","Longitude":"114.5992607","Name":"Simpang 100-216"},{"Latitude":"4.7180028","Longitude":"114.6002740","Name":"Simpang 100-217"},{"Latitude":"4.9190906","Longitude":"114.9195877","Name":"Simpang 100-27"},{"Latitude":"4.9191882","Longitude":"114.9190511","Name":"Simpang 100-27-17"},{"Latitude":"4.9192659","Longitude":"114.9195941","Name":"Simpang 100-27-18"},{"Latitude":"4.9202035","Longitude":"114.9190353","Name":"Simpang 100-27-25"},{"Latitude":"4.9201745","Longitude":"114.9196264","Name":"Simpang 100-27-26"},{"Latitude":"4.8932591","Longitude":"114.8405016","Name":"Simpang 100-45"},{"Latitude":"4.8928543","Longitude":"114.8407678","Name":"Simpang 100-49"},{"Latitude":"4.8924250","Longitude":"114.8410287","Name":"Simpang 100-53"},{"Latitude":"4.9167454","Longitude":"114.9188282","Name":"Simpang 100-6"},{"Latitude":"4.9173095","Longitude":"114.9191275","Name":"Simpang 100-6-1"},{"Latitude":"4.8645794","Longitude":"114.8644518","Name":"Simpang 1000"},{"Latitude":"4.9912776","Longitude":"114.9976412","Name":"Simpang 1003"},{"Latitude":"4.8142547","Longitude":"114.7460107","Name":"Simpang 1004"},{"Latitude":"4.8659168","Longitude":"114.8658838","Name":"Simpang 1006"},{"Latitude":"4.8443772","Longitude":"114.8700079","Name":"Simpang 101"},{"Latitude":"4.8027645","Longitude":"114.8354232","Name":"Simpang 1011"},{"Latitude":"4.8015400","Longitude":"114.8334170","Name":"Simpang 1011-6"},{"Latitude":"4.8044964","Longitude":"114.8373547","Name":"Simpang 1011-71"},{"Latitude":"4.8048773","Longitude":"114.8381580","Name":"Simpang 1011-79"},{"Latitude":"4.9910865","Longitude":"114.9959788","Name":"Simpang 1012"},{"Latitude":"4.9899623","Longitude":"114.9991109","Name":"Simpang 1015"},{"Latitude":"4.8667513","Longitude":"114.8654808","Name":"Simpang 1016"},{"Latitude":"4.9897080","Longitude":"114.9987884","Name":"Simpang 1017"},{"Latitude":"4.9559283","Longitude":"114.9166349","Name":"Simpang 102"},{"Latitude":"4.8150805","Longitude":"114.7479473","Name":"Simpang 1020"},{"Latitude":"4.8662736","Longitude":"114.8629236","Name":"Simpang 1023"},{"Latitude":"4.8006787","Longitude":"114.8325717","Name":"Simpang 1023-15"},{"Latitude":"4.8011495","Longitude":"114.8313429","Name":"Simpang 1023-16"},{"Latitude":"4.8596631","Longitude":"114.8739240","Name":"Simpang 1024"},{"Latitude":"4.6769893","Longitude":"114.5025855","Name":"Simpang 1026"},{"Latitude":"4.6796628","Longitude":"114.4971959","Name":"Simpang 1027"},{"Latitude":"4.9894710","Longitude":"114.9967703","Name":"Simpang 1028"},{"Latitude":"4.9890341","Longitude":"114.9992029","Name":"Simpang 1029"},{"Latitude":"4.6634784","Longitude":"114.4494504","Name":"Simpang 103"},{"Latitude":"4.8138283","Longitude":"114.7491556","Name":"Simpang 1030"},{"Latitude":"4.8133379","Longitude":"114.7496854","Name":"Simpang 1030-27"},{"Latitude":"4.8671575","Longitude":"114.8634931","Name":"Simpang 1032"},{"Latitude":"4.9879177","Longitude":"114.9987122","Name":"Simpang 1035"},{"Latitude":"4.8677991","Longitude":"114.8633069","Name":"Simpang 1038"},{"Latitude":"4.9705268","Longitude":"115.0140648","Name":"Simpang 104"},{"Latitude":"4.8162051","Longitude":"114.7496632","Name":"Simpang 1041"},{"Latitude":"4.7982661","Longitude":"114.8312232","Name":"Simpang 1043-31"},{"Latitude":"4.9878004","Longitude":"114.9960878","Name":"Simpang 1046"},{"Latitude":"4.8187708","Longitude":"114.7498502","Name":"Simpang 1047"},{"Latitude":"5.0204452","Longitude":"115.0582804","Name":"Simpang 105"},{"Latitude":"4.9719536","Longitude":"114.9069729","Name":"Simpang 105-12"},{"Latitude":"4.9720424","Longitude":"114.9075776","Name":"Simpang 105-12-21"},{"Latitude":"4.9723367","Longitude":"114.9092304","Name":"Simpang 105-12-21-47"},{"Latitude":"4.9103576","Longitude":"114.8915853","Name":"Simpang 105-82-32"},{"Latitude":"4.9868546","Longitude":"114.9955346","Name":"Simpang 1058"},{"Latitude":"4.9442926","Longitude":"114.9499767","Name":"Simpang 106"},{"Latitude":"4.5835412","Longitude":"114.2300270","Name":"Simpang 106-20"},{"Latitude":"4.5841847","Longitude":"114.2304952","Name":"Simpang 106-20-10"},{"Latitude":"4.5842641","Longitude":"114.2296037","Name":"Simpang 106-20-11"},{"Latitude":"4.5835496","Longitude":"114.2292615","Name":"Simpang 106-20-3"},{"Latitude":"4.5835661","Longitude":"114.2306097","Name":"Simpang 106-20-4"},{"Latitude":"4.5827638","Longitude":"114.2291674","Name":"Simpang 106-27"},{"Latitude":"4.5822268","Longitude":"114.2287682","Name":"Simpang 106-27-10"},{"Latitude":"4.5827069","Longitude":"114.2298962","Name":"Simpang 106-27-3"},{"Latitude":"4.5828076","Longitude":"114.2284181","Name":"Simpang 106-27-4"},{"Latitude":"4.5821880","Longitude":"114.2292523","Name":"Simpang 106-27-9"},{"Latitude":"4.5838388","Longitude":"114.2278289","Name":"Simpang 106-44"},{"Latitude":"4.5843817","Longitude":"114.2281124","Name":"Simpang 106-44-10"},{"Latitude":"4.5837180","Longitude":"114.2283660","Name":"Simpang 106-44-4"},{"Latitude":"4.5838184","Longitude":"114.2277135","Name":"Simpang 106-44-5"},{"Latitude":"4.5829573","Longitude":"114.2272088","Name":"Simpang 106-49"},{"Latitude":"4.5822562","Longitude":"114.2276417","Name":"Simpang 106-49-11"},{"Latitude":"4.5823584","Longitude":"114.2267204","Name":"Simpang 106-49-12"},{"Latitude":"4.5829457","Longitude":"114.2276784","Name":"Simpang 106-49-3"},{"Latitude":"4.5829573","Longitude":"114.2272088","Name":"Simpang 106-49-4"},{"Latitude":"4.5838461","Longitude":"114.2260027","Name":"Simpang 106-62"},{"Latitude":"4.5837419","Longitude":"114.2263812","Name":"Simpang 106-62-4"},{"Latitude":"4.5838029","Longitude":"114.2256837","Name":"Simpang 106-62-5"},{"Latitude":"4.5824526","Longitude":"114.2258129","Name":"Simpang 106-65"},{"Latitude":"4.5824032","Longitude":"114.2255200","Name":"Simpang 106-65-10"},{"Latitude":"4.5822810","Longitude":"114.2258782","Name":"Simpang 106-65-11"},{"Latitude":"4.5817634","Longitude":"114.2262770","Name":"Simpang 106-65-17"},{"Latitude":"4.5818070","Longitude":"114.2255133","Name":"Simpang 106-65-18"},{"Latitude":"4.5829219","Longitude":"114.2257565","Name":"Simpang 106-65-5"},{"Latitude":"4.5830542","Longitude":"114.2251357","Name":"Simpang 106-65-6"},{"Latitude":"5.0117710","Longitude":"115.0123353","Name":"Simpang 106-9"},{"Latitude":"4.5820265","Longitude":"114.2304592","Name":"Simpang 106-9-10"},{"Latitude":"4.5828519","Longitude":"114.2313327","Name":"Simpang 106-9-3"},{"Latitude":"4.5826888","Longitude":"114.2302964","Name":"Simpang 106-9-4"},{"Latitude":"4.5821488","Longitude":"114.2309546","Name":"Simpang 106-9-9"},{"Latitude":"4.8168228","Longitude":"114.7516227","Name":"Simpang 1064"},{"Latitude":"4.9850581","Longitude":"114.9973414","Name":"Simpang 1067"},{"Latitude":"4.9846800","Longitude":"114.9966032","Name":"Simpang 1067-12"},{"Latitude":"4.9850581","Longitude":"114.9973414","Name":"Simpang 1067-17"},{"Latitude":"4.9855672","Longitude":"114.9963369","Name":"Simpang 1067-7"},{"Latitude":"4.9715478","Longitude":"114.9577972","Name":"Simpang 107"},{"Latitude":"5.0310729","Longitude":"115.0334711","Name":"Simpang 107-3"},{"Latitude":"5.0301858","Longitude":"115.0328502","Name":"Simpang 107-4"},{"Latitude":"5.0293335","Longitude":"115.0329950","Name":"Simpang 107-4-24"},{"Latitude":"4.9861997","Longitude":"114.9939150","Name":"Simpang 1074"},{"Latitude":"4.9469437","Longitude":"114.9124974","Name":"Simpang 108"},{"Latitude":"4.8168660","Longitude":"114.7527324","Name":"Simpang 1080"},{"Latitude":"4.9844803","Longitude":"114.9952624","Name":"Simpang 1084"},{"Latitude":"4.8172669","Longitude":"114.7537556","Name":"Simpang 1087"},{"Latitude":"4.9830824","Longitude":"114.9960343","Name":"Simpang 1087-14"},{"Latitude":"4.8869015","Longitude":"114.9596878","Name":"Simpang 109"},{"Latitude":"4.7591135","Longitude":"114.8110286","Name":"Simpang 109-8-17"},{"Latitude":"4.8724381","Longitude":"114.8620804","Name":"Simpang 1092"},{"Latitude":"4.9850679","Longitude":"114.9935194","Name":"Simpang 1094"},{"Latitude":"4.7977340","Longitude":"114.8269495","Name":"Simpang 1096"},{"Latitude":"4.8466531","Longitude":"114.8752800","Name":"Simpang 11"},{"Latitude":"4.9343692","Longitude":"114.9455200","Name":"Simpang 11-10"},{"Latitude":"4.8503781","Longitude":"114.8863937","Name":"Simpang 11-100"},{"Latitude":"4.8480180","Longitude":"114.8866408","Name":"Simpang 11-102"},{"Latitude":"4.8495879","Longitude":"114.8857988","Name":"Simpang 11-112"},{"Latitude":"4.8523647","Longitude":"114.8912029","Name":"Simpang 11-12"},{"Latitude":"4.9348348","Longitude":"114.9455738","Name":"Simpang 11-14"},{"Latitude":"4.9351249","Longitude":"114.9461162","Name":"Simpang 11-16"},{"Latitude":"4.9353602","Longitude":"114.9456273","Name":"Simpang 11-18"},{"Latitude":"4.9338247","Longitude":"114.9454766","Name":"Simpang 11-4"},{"Latitude":"4.8496588","Longitude":"114.8875010","Name":"Simpang 11-92"},{"Latitude":"4.8503706","Longitude":"114.8868924","Name":"Simpang 11-96"},{"Latitude":"4.8741897","Longitude":"114.8500657","Name":"Simpang 110"},{"Latitude":"4.5882944","Longitude":"114.1961803","Name":"Simpang 110-1"},{"Latitude":"4.5870334","Longitude":"114.1961680","Name":"Simpang 110-13"},{"Latitude":"4.5872109","Longitude":"114.1951350","Name":"Simpang 110-14"},{"Latitude":"4.5883003","Longitude":"114.1952625","Name":"Simpang 110-2"},{"Latitude":"4.5877841","Longitude":"114.1962370","Name":"Simpang 110-7"},{"Latitude":"4.5877843","Longitude":"114.1952288","Name":"Simpang 110-8"},{"Latitude":"4.8734045","Longitude":"114.8618220","Name":"Simpang 1102"},{"Latitude":"4.6838219","Longitude":"114.5034730","Name":"Simpang 1103"},{"Latitude":"4.6636919","Longitude":"114.4502035","Name":"Simpang 111"},{"Latitude":"4.8755168","Longitude":"114.9026305","Name":"Simpang 111-42"},{"Latitude":"4.8240984","Longitude":"114.7613382","Name":"Simpang 1111"},{"Latitude":"4.8737822","Longitude":"114.8599403","Name":"Simpang 1113"},{"Latitude":"4.8745665","Longitude":"114.8631200","Name":"Simpang 1116"},{"Latitude":"4.7950066","Longitude":"114.8275493","Name":"Simpang 1117"},{"Latitude":"4.8789722","Longitude":"114.8454228","Name":"Simpang 112"},{"Latitude":"4.9332647","Longitude":"114.9487139","Name":"Simpang 112-1"},{"Latitude":"4.6692991","Longitude":"114.6425338","Name":"Simpang 112-5"},{"Latitude":"4.8755901","Longitude":"114.8631791","Name":"Simpang 1128"},{"Latitude":"4.8764320","Longitude":"114.8659967","Name":"Simpang 1128-93"},{"Latitude":"4.9369443","Longitude":"114.9098617","Name":"Simpang 113"},{"Latitude":"4.9361449","Longitude":"114.9100046","Name":"Simpang 113-106"},{"Latitude":"4.9337106","Longitude":"114.8985101","Name":"Simpang 113-12"},{"Latitude":"4.9349379","Longitude":"114.9013443","Name":"Simpang 113-29"},{"Latitude":"4.9351205","Longitude":"114.9019446","Name":"Simpang 113-29-4"},{"Latitude":"4.9330051","Longitude":"114.9028610","Name":"Simpang 113-34"},{"Latitude":"4.9337265","Longitude":"114.9032233","Name":"Simpang 113-34-11"},{"Latitude":"4.9328968","Longitude":"114.9031346","Name":"Simpang 113-34-17"},{"Latitude":"4.8760570","Longitude":"114.8611583","Name":"Simpang 1134"},{"Latitude":"4.6989153","Longitude":"114.5150661","Name":"Simpang 1137"},{"Latitude":"4.8880636","Longitude":"114.9224920","Name":"Simpang 114"},{"Latitude":"5.0077136","Longitude":"115.0037335","Name":"Simpang 114-11"},{"Latitude":"4.5762915","Longitude":"114.2073138","Name":"Simpang 114-20"},{"Latitude":"4.5760804","Longitude":"114.2069286","Name":"Simpang 114-22"},{"Latitude":"5.0071913","Longitude":"115.0044859","Name":"Simpang 114-5"},{"Latitude":"4.7938832","Longitude":"114.8252099","Name":"Simpang 1142"},{"Latitude":"4.7932179","Longitude":"114.8256864","Name":"Simpang 1145"},{"Latitude":"4.8768420","Longitude":"114.8608741","Name":"Simpang 1148"},{"Latitude":"4.6065424","Longitude":"114.3206172","Name":"Simpang 115"},{"Latitude":"5.0064617","Longitude":"115.0072050","Name":"Simpang 115-12"},{"Latitude":"5.0065205","Longitude":"115.0080348","Name":"Simpang 115-18"},{"Latitude":"4.9577264","Longitude":"114.9536105","Name":"Simpang 115-19"},{"Latitude":"4.9584185","Longitude":"114.9546925","Name":"Simpang 115-20"},{"Latitude":"4.9586447","Longitude":"114.9549158","Name":"Simpang 115-20-13"},{"Latitude":"4.9585522","Longitude":"114.9539734","Name":"Simpang 115-20-5"},{"Latitude":"5.0076408","Longitude":"115.0086395","Name":"Simpang 115-24"},{"Latitude":"5.0065398","Longitude":"115.0063662","Name":"Simpang 115-6"},{"Latitude":"4.6842830","Longitude":"114.5081733","Name":"Simpang 1150"},{"Latitude":"4.7922496","Longitude":"114.8268807","Name":"Simpang 1159"},{"Latitude":"4.7921882","Longitude":"114.8276505","Name":"Simpang 1159-30"},{"Latitude":"4.8171411","Longitude":"114.7636197","Name":"Simpang 1159-50"},{"Latitude":"4.6617265","Longitude":"114.4508849","Name":"Simpang 116"},{"Latitude":"4.9514225","Longitude":"114.9460607","Name":"Simpang 116-13"},{"Latitude":"4.9518474","Longitude":"114.9473992","Name":"Simpang 116-13-14"},{"Latitude":"4.8114991","Longitude":"114.7599059","Name":"Simpang 1164"},{"Latitude":"4.8112211","Longitude":"114.7600749","Name":"Simpang 1166"},{"Latitude":"4.8576240","Longitude":"114.8562415","Name":"Simpang 117"},{"Latitude":"4.8795063","Longitude":"114.8601853","Name":"Simpang 1172"},{"Latitude":"4.6851282","Longitude":"114.5129554","Name":"Simpang 1176"},{"Latitude":"4.8133513","Longitude":"114.7605870","Name":"Simpang 1179"},{"Latitude":"4.9695310","Longitude":"114.9584004","Name":"Simpang 118"},{"Latitude":"4.8971563","Longitude":"114.9285804","Name":"Simpang 118-12"},{"Latitude":"4.8965619","Longitude":"114.9288851","Name":"Simpang 118-12-18"},{"Latitude":"4.8961721","Longitude":"114.9294419","Name":"Simpang 118-12-24"},{"Latitude":"4.8969412","Longitude":"114.9299351","Name":"Simpang 118-12-27"},{"Latitude":"4.8974621","Longitude":"114.9297851","Name":"Simpang 118-12-27-5"},{"Latitude":"4.8978584","Longitude":"114.9284747","Name":"Simpang 118-12-9"},{"Latitude":"4.8968997","Longitude":"114.9276549","Name":"Simpang 118-6"},{"Latitude":"4.8150703","Longitude":"114.7378054","Name":"Simpang 1180"},{"Latitude":"4.8097480","Longitude":"114.7598633","Name":"Simpang 1182"},{"Latitude":"4.6938605","Longitude":"114.5073436","Name":"Simpang 1183-64"},{"Latitude":"4.6936330","Longitude":"114.5051976","Name":"Simpang 1183-71"},{"Latitude":"4.6950733","Longitude":"114.5052584","Name":"Simpang 1183-85"},{"Latitude":"4.7321800","Longitude":"114.6130803","Name":"Simpang 1185-73-100"},{"Latitude":"4.7335544","Longitude":"114.6174189","Name":"Simpang 1185-73-109"},{"Latitude":"4.7321363","Longitude":"114.6174498","Name":"Simpang 1185-73-109-26"},{"Latitude":"4.7307285","Longitude":"114.6154933","Name":"Simpang 1185-73-109-6"},{"Latitude":"4.7277318","Longitude":"114.6125720","Name":"Simpang 1185-73-180"},{"Latitude":"4.7259853","Longitude":"114.6131490","Name":"Simpang 1185-73-193-11"},{"Latitude":"4.7238608","Longitude":"114.6117613","Name":"Simpang 1185-73-193-21"},{"Latitude":"4.7230657","Longitude":"114.6109519","Name":"Simpang 1185-73-193-31"},{"Latitude":"4.7269771","Longitude":"114.6087680","Name":"Simpang 1185-73-213"},{"Latitude":"4.7265064","Longitude":"114.6079887","Name":"Simpang 1185-73-213-37"},{"Latitude":"4.7341864","Longitude":"114.6117800","Name":"Simpang 1185-73-76"},{"Latitude":"4.7341516","Longitude":"114.6125709","Name":"Simpang 1185-73-81"},{"Latitude":"4.7337053","Longitude":"114.6129038","Name":"Simpang 1185-73-90"},{"Latitude":"4.7324639","Longitude":"114.6139625","Name":"Simpang 1185-73-99"},{"Latitude":"4.7712542","Longitude":"114.8072308","Name":"Simpang 119"},{"Latitude":"5.0301025","Longitude":"115.0311470","Name":"Simpang 119-4"},{"Latitude":"5.0297646","Longitude":"115.0308336","Name":"Simpang 119-4-11"},{"Latitude":"5.0301716","Longitude":"115.0298080","Name":"Simpang 119-4-28"},{"Latitude":"5.0296675","Longitude":"115.0314796","Name":"Simpang 119-4-5"},{"Latitude":"5.0287264","Longitude":"115.0303465","Name":"Simpang 119-48"},{"Latitude":"4.9745283","Longitude":"114.9439908","Name":"Simpang 119-8"},{"Latitude":"4.9751207","Longitude":"114.9443099","Name":"Simpang 119-8-13"},{"Latitude":"4.8118995","Longitude":"114.7611485","Name":"Simpang 1191"},{"Latitude":"4.6885608","Longitude":"114.5105268","Name":"Simpang 1194"},{"Latitude":"4.8033389","Longitude":"114.6500408","Name":"Simpang 12"},{"Latitude":"4.9433917","Longitude":"114.9066426","Name":"Simpang 12-20"},{"Latitude":"4.9426660","Longitude":"114.9060928","Name":"Simpang 12-21"},{"Latitude":"4.9435529","Longitude":"114.9061818","Name":"Simpang 12-26"},{"Latitude":"4.9438384","Longitude":"114.9053299","Name":"Simpang 12-32"},{"Latitude":"4.9437698","Longitude":"114.9053066","Name":"Simpang 12-32-9"},{"Latitude":"4.9430054","Longitude":"114.9049415","Name":"Simpang 12-36"},{"Latitude":"4.9415729","Longitude":"114.9041425","Name":"Simpang 12-43"},{"Latitude":"4.9416633","Longitude":"114.9047104","Name":"Simpang 12-43-27"},{"Latitude":"4.9408453","Longitude":"114.9039762","Name":"Simpang 12-43-28"},{"Latitude":"4.9431353","Longitude":"114.9039745","Name":"Simpang 12-46"},{"Latitude":"4.9422430","Longitude":"114.9032713","Name":"Simpang 12-53"},{"Latitude":"4.9436967","Longitude":"114.9031252","Name":"Simpang 12-56"},{"Latitude":"4.9437916","Longitude":"114.9030527","Name":"Simpang 12-56-7"},{"Latitude":"4.9424850","Longitude":"114.9026690","Name":"Simpang 12-59"},{"Latitude":"4.9425757","Longitude":"114.9022508","Name":"Simpang 12-65"},{"Latitude":"4.9424673","Longitude":"114.9003046","Name":"Simpang 12-69"},{"Latitude":"4.9645996","Longitude":"115.0299320","Name":"Simpang 120"},{"Latitude":"4.6854754","Longitude":"114.4906766","Name":"Simpang 120-10"},{"Latitude":"4.6854754","Longitude":"114.4906766","Name":"Simpang 120-10-3"},{"Latitude":"4.9405131","Longitude":"114.9520325","Name":"Simpang 120-13"},{"Latitude":"4.9407399","Longitude":"114.9525636","Name":"Simpang 120-13-16"},{"Latitude":"4.9412674","Longitude":"114.9539253","Name":"Simpang 120-13-22"},{"Latitude":"4.9398471","Longitude":"114.9674950","Name":"Simpang 120-14"},{"Latitude":"5.0322084","Longitude":"115.0299360","Name":"Simpang 120-15"},{"Latitude":"4.9405282","Longitude":"114.9518394","Name":"Simpang 120-16"},{"Latitude":"5.0321892","Longitude":"115.0300672","Name":"Simpang 120-18"},{"Latitude":"4.5712667","Longitude":"114.2244154","Name":"Simpang 120-48-36-41"},{"Latitude":"4.9729252","Longitude":"114.9424465","Name":"Simpang 120-5"},{"Latitude":"4.9644060","Longitude":"115.0289212","Name":"Simpang 120-6"},{"Latitude":"5.0315004","Longitude":"115.0298113","Name":"Simpang 120-7"},{"Latitude":"5.0310053","Longitude":"115.0292823","Name":"Simpang 120-7-11"},{"Latitude":"5.0310981","Longitude":"115.0297298","Name":"Simpang 120-7-5"},{"Latitude":"4.6844419","Longitude":"114.4904061","Name":"Simpang 120-9"},{"Latitude":"4.6893087","Longitude":"114.5110623","Name":"Simpang 1200"},{"Latitude":"4.8824958","Longitude":"114.8604016","Name":"Simpang 1202"},{"Latitude":"4.8110331","Longitude":"114.7612626","Name":"Simpang 1203"},{"Latitude":"4.6894377","Longitude":"114.5112835","Name":"Simpang 1204"},{"Latitude":"4.8825487","Longitude":"114.8584104","Name":"Simpang 1206"},{"Latitude":"4.6626187","Longitude":"114.4513074","Name":"Simpang 121"},{"Latitude":"4.8953637","Longitude":"114.8348388","Name":"Simpang 121-29"},{"Latitude":"4.8961160","Longitude":"114.8345357","Name":"Simpang 121-29-3"},{"Latitude":"4.8419238","Longitude":"114.8318575","Name":"Simpang 121-58"},{"Latitude":"4.8418623","Longitude":"114.8343399","Name":"Simpang 121-61"},{"Latitude":"4.6895779","Longitude":"114.5119219","Name":"Simpang 1210"},{"Latitude":"4.6886749","Longitude":"114.5128879","Name":"Simpang 1210-17"},{"Latitude":"4.8096956","Longitude":"114.7620188","Name":"Simpang 1215"},{"Latitude":"4.8784938","Longitude":"114.8438873","Name":"Simpang 122"},{"Latitude":"4.8090659","Longitude":"114.7621270","Name":"Simpang 1223"},{"Latitude":"4.7856176","Longitude":"114.8242968","Name":"Simpang 1223-14"},{"Latitude":"4.7890362","Longitude":"114.8155226","Name":"Simpang 1224"},{"Latitude":"4.8089706","Longitude":"114.7621772","Name":"Simpang 1225"},{"Latitude":"4.6911610","Longitude":"114.5127135","Name":"Simpang 1228"},{"Latitude":"4.8070093","Longitude":"114.6551030","Name":"Simpang 123"},{"Latitude":"4.8105447","Longitude":"114.6529233","Name":"Simpang 123-141"},{"Latitude":"4.8086420","Longitude":"114.6532467","Name":"Simpang 123-141-14"},{"Latitude":"4.8089616","Longitude":"114.6519243","Name":"Simpang 123-164"},{"Latitude":"4.8077448","Longitude":"114.6511869","Name":"Simpang 123-170"},{"Latitude":"4.8072795","Longitude":"114.6503739","Name":"Simpang 123-170-25"},{"Latitude":"4.8070623","Longitude":"114.6499650","Name":"Simpang 123-170-29"},{"Latitude":"4.8066785","Longitude":"114.6498215","Name":"Simpang 123-170-29-16"},{"Latitude":"4.8061987","Longitude":"114.7623037","Name":"Simpang 1232"},{"Latitude":"4.8849448","Longitude":"114.8578659","Name":"Simpang 1239"},{"Latitude":"4.9783714","Longitude":"114.9758675","Name":"Simpang 124"},{"Latitude":"4.9100498","Longitude":"114.8502468","Name":"Simpang 124-122"},{"Latitude":"4.9087805","Longitude":"114.8486079","Name":"Simpang 124-122-68"},{"Latitude":"4.9144503","Longitude":"114.8490857","Name":"Simpang 124-125"},{"Latitude":"4.9148883","Longitude":"114.8511781","Name":"Simpang 124-132"},{"Latitude":"4.9149458","Longitude":"114.8493084","Name":"Simpang 124-133"},{"Latitude":"4.9153054","Longitude":"114.8495966","Name":"Simpang 124-137"},{"Latitude":"4.9163390","Longitude":"114.8502656","Name":"Simpang 124-146"},{"Latitude":"4.9165059","Longitude":"114.8481889","Name":"Simpang 124-153"},{"Latitude":"4.9059056","Longitude":"114.8478523","Name":"Simpang 124-19"},{"Latitude":"4.9138545","Longitude":"114.8499731","Name":"Simpang 124-22-10"},{"Latitude":"4.9132102","Longitude":"114.8524526","Name":"Simpang 124-22-27"},{"Latitude":"4.9114875","Longitude":"114.8512043","Name":"Simpang 124-22-33"},{"Latitude":"4.9105426","Longitude":"114.8490926","Name":"Simpang 124-22-48"},{"Latitude":"4.9095768","Longitude":"114.8493952","Name":"Simpang 124-22-60"},{"Latitude":"4.9086836","Longitude":"114.8496355","Name":"Simpang 124-22-68"},{"Latitude":"4.9082123","Longitude":"114.8516188","Name":"Simpang 124-22-73"},{"Latitude":"4.9067968","Longitude":"114.8476285","Name":"Simpang 124-27"},{"Latitude":"4.9074171","Longitude":"114.8480466","Name":"Simpang 124-30"},{"Latitude":"4.9772591","Longitude":"114.9765828","Name":"Simpang 124-32"},{"Latitude":"4.9087805","Longitude":"114.8486079","Name":"Simpang 124-46"},{"Latitude":"4.9088620","Longitude":"114.8467049","Name":"Simpang 124-51"},{"Latitude":"4.9072029","Longitude":"114.8467637","Name":"Simpang 124-51-15"},{"Latitude":"4.9094312","Longitude":"114.8456977","Name":"Simpang 124-51-28"},{"Latitude":"4.9102839","Longitude":"114.8477639","Name":"Simpang 124-64"},{"Latitude":"4.9111776","Longitude":"114.8461311","Name":"Simpang 124-73"},{"Latitude":"4.9124405","Longitude":"114.8470473","Name":"Simpang 124-81"},{"Latitude":"4.9133539","Longitude":"114.8476835","Name":"Simpang 124-89"},{"Latitude":"4.6936658","Longitude":"114.5121717","Name":"Simpang 1241"},{"Latitude":"4.8054901","Longitude":"114.7628357","Name":"Simpang 1242"},{"Latitude":"4.8853714","Longitude":"114.8622316","Name":"Simpang 1244"},{"Latitude":"4.8862339","Longitude":"114.8602753","Name":"Simpang 1244-19"},{"Latitude":"4.8856533","Longitude":"114.8621558","Name":"Simpang 1244-37"},{"Latitude":"4.8846917","Longitude":"114.8625916","Name":"Simpang 1244-42"},{"Latitude":"4.8852229","Longitude":"114.8608109","Name":"Simpang 1244-42-6"},{"Latitude":"4.8841862","Longitude":"114.8644305","Name":"Simpang 1244-66"},{"Latitude":"4.8846783","Longitude":"114.8563758","Name":"Simpang 1249"},{"Latitude":"4.9454143","Longitude":"114.9512955","Name":"Simpang 125"},{"Latitude":"4.9631680","Longitude":"114.9312216","Name":"Simpang 125-12"},{"Latitude":"4.9637195","Longitude":"114.9327005","Name":"Simpang 125-23"},{"Latitude":"4.8052969","Longitude":"114.7634773","Name":"Simpang 1250"},{"Latitude":"4.7838981","Longitude":"114.8240142","Name":"Simpang 1253"},{"Latitude":"4.7826554","Longitude":"114.8250192","Name":"Simpang 1253-22"},{"Latitude":"4.7824362","Longitude":"114.8241971","Name":"Simpang 1253-22-18"},{"Latitude":"4.7832742","Longitude":"114.8243755","Name":"Simpang 1253-32"},{"Latitude":"4.7843872","Longitude":"114.8231003","Name":"Simpang 1253-7-8"},{"Latitude":"4.8072472","Longitude":"114.7646971","Name":"Simpang 1255"},{"Latitude":"4.6952243","Longitude":"114.5131910","Name":"Simpang 1259"},{"Latitude":"4.9694377","Longitude":"114.9595230","Name":"Simpang 126"},{"Latitude":"4.8546673","Longitude":"114.8205846","Name":"Simpang 126-1-6"},{"Latitude":"4.8958883","Longitude":"114.8945209","Name":"Simpang 126-12"},{"Latitude":"4.8959418","Longitude":"114.8937537","Name":"Simpang 126-12-11"},{"Latitude":"4.8954758","Longitude":"114.8936894","Name":"Simpang 126-12-11-9"},{"Latitude":"5.0211294","Longitude":"115.0305328","Name":"Simpang 126-48"},{"Latitude":"4.9348863","Longitude":"114.8956123","Name":"Simpang 126-5"},{"Latitude":"4.9375826","Longitude":"114.8938166","Name":"Simpang 126-5-6"},{"Latitude":"4.6931123","Longitude":"114.5156654","Name":"Simpang 1264"},{"Latitude":"4.8871620","Longitude":"114.8576953","Name":"Simpang 1265"},{"Latitude":"4.8879369","Longitude":"114.8593298","Name":"Simpang 1266"},{"Latitude":"4.6956600","Longitude":"114.5137221","Name":"Simpang 1267"},{"Latitude":"4.9490769","Longitude":"114.9130009","Name":"Simpang 127"},{"Latitude":"4.8964998","Longitude":"114.9249835","Name":"Simpang 127-155"},{"Latitude":"4.8304399","Longitude":"114.7217804","Name":"Simpang 127-17"},{"Latitude":"4.8294962","Longitude":"114.7217746","Name":"Simpang 127-17-49"},{"Latitude":"4.8984799","Longitude":"114.9241855","Name":"Simpang 127-21"},{"Latitude":"4.9321736","Longitude":"114.8960163","Name":"Simpang 127-32"},{"Latitude":"4.9332192","Longitude":"114.8949025","Name":"Simpang 127-38"},{"Latitude":"4.9308418","Longitude":"114.8955348","Name":"Simpang 127-41"},{"Latitude":"4.9302636","Longitude":"114.8957742","Name":"Simpang 127-41-13"},{"Latitude":"4.9296890","Longitude":"114.8959955","Name":"Simpang 127-41-21"},{"Latitude":"4.9294445","Longitude":"114.8954101","Name":"Simpang 127-41-22"},{"Latitude":"4.9308418","Longitude":"114.8955348","Name":"Simpang 127-41-7"},{"Latitude":"4.8276612","Longitude":"114.7248378","Name":"Simpang 127-5"},{"Latitude":"4.8872101","Longitude":"114.8566539","Name":"Simpang 1273-11"},{"Latitude":"4.8878744","Longitude":"114.8562676","Name":"Simpang 1273-13"},{"Latitude":"4.8881802","Longitude":"114.8550992","Name":"Simpang 1273-23"},{"Latitude":"4.8882458","Longitude":"114.8541720","Name":"Simpang 1273-29"},{"Latitude":"4.8888333","Longitude":"114.8540311","Name":"Simpang 1273-35"},{"Latitude":"4.8901036","Longitude":"114.8553198","Name":"Simpang 1273-39"},{"Latitude":"4.8902967","Longitude":"114.8553859","Name":"Simpang 1273-44"},{"Latitude":"4.8905008","Longitude":"114.8538868","Name":"Simpang 1273-51"},{"Latitude":"4.8900485","Longitude":"114.8525384","Name":"Simpang 1273-55"},{"Latitude":"4.8896837","Longitude":"114.8520658","Name":"Simpang 1273-55-21"},{"Latitude":"4.8914252","Longitude":"114.8531224","Name":"Simpang 1273-67"},{"Latitude":"4.8054953","Longitude":"114.7663470","Name":"Simpang 1274"},{"Latitude":"4.8163282","Longitude":"114.7457079","Name":"Simpang 1275"},{"Latitude":"4.6945375","Longitude":"114.5161075","Name":"Simpang 1278"},{"Latitude":"4.8071160","Longitude":"114.7664862","Name":"Simpang 1279"},{"Latitude":"5.0193392","Longitude":"115.0570263","Name":"Simpang 128"},{"Latitude":"4.6030582","Longitude":"114.3157110","Name":"Simpang 128-1"},{"Latitude":"4.9218341","Longitude":"114.9147998","Name":"Simpang 128-11"},{"Latitude":"4.9192918","Longitude":"114.9164706","Name":"Simpang 128-11-10"},{"Latitude":"4.9185406","Longitude":"114.9149698","Name":"Simpang 128-11-15"},{"Latitude":"4.9185298","Longitude":"114.9166560","Name":"Simpang 128-11-2"},{"Latitude":"4.9179466","Longitude":"114.9154893","Name":"Simpang 128-11-9"},{"Latitude":"4.9208146","Longitude":"114.9176097","Name":"Simpang 128-17"},{"Latitude":"4.9193596","Longitude":"114.9175249","Name":"Simpang 128-17-25"},{"Latitude":"4.9214294","Longitude":"114.9183706","Name":"Simpang 128-17-54"},{"Latitude":"4.9214699","Longitude":"114.9190250","Name":"Simpang 128-17-54-23"},{"Latitude":"4.9214294","Longitude":"114.9183706","Name":"Simpang 128-17-54-7"},{"Latitude":"4.9188996","Longitude":"114.9183022","Name":"Simpang 128-21"},{"Latitude":"4.8269381","Longitude":"114.7257520","Name":"Simpang 128-4"},{"Latitude":"4.8892388","Longitude":"114.8589589","Name":"Simpang 1280"},{"Latitude":"4.6949017","Longitude":"114.5165223","Name":"Simpang 1283"},{"Latitude":"4.7810183","Longitude":"114.8207706","Name":"Simpang 1285"},{"Latitude":"4.8896978","Longitude":"114.8580969","Name":"Simpang 1286"},{"Latitude":"4.8972692","Longitude":"114.8368137","Name":"Simpang 129"},{"Latitude":"4.9396053","Longitude":"114.9562750","Name":"Simpang 129-13"},{"Latitude":"4.9397325","Longitude":"114.9570376","Name":"Simpang 129-14"},{"Latitude":"4.8906349","Longitude":"114.8588708","Name":"Simpang 1290"},{"Latitude":"4.8075150","Longitude":"114.7674715","Name":"Simpang 1296"},{"Latitude":"4.9714769","Longitude":"115.0237581","Name":"Simpang 13"},{"Latitude":"4.9418061","Longitude":"114.9085392","Name":"Simpang 13-1"},{"Latitude":"4.5996768","Longitude":"114.3354428","Name":"Simpang 13-17"},{"Latitude":"4.6001589","Longitude":"114.3345030","Name":"Simpang 13-17-7"},{"Latitude":"4.6008040","Longitude":"114.3363691","Name":"Simpang 13-17-8"},{"Latitude":"4.8962632","Longitude":"114.9174831","Name":"Simpang 13-18"},{"Latitude":"4.9516840","Longitude":"114.9626394","Name":"Simpang 13-20"},{"Latitude":"4.9411415","Longitude":"114.9078804","Name":"Simpang 13-4"},{"Latitude":"4.6620441","Longitude":"114.4522992","Name":"Simpang 130"},{"Latitude":"4.8733661","Longitude":"114.8983737","Name":"Simpang 130-15"},{"Latitude":"4.8741192","Longitude":"114.8976546","Name":"Simpang 130-22"},{"Latitude":"4.8722672","Longitude":"114.8978356","Name":"Simpang 130-23"},{"Latitude":"5.0053924","Longitude":"115.0076959","Name":"Simpang 130-30"},{"Latitude":"4.8735658","Longitude":"114.8991476","Name":"Simpang 130-5"},{"Latitude":"4.8746250","Longitude":"114.8987912","Name":"Simpang 130-6"},{"Latitude":"4.8911853","Longitude":"114.8575209","Name":"Simpang 1300"},{"Latitude":"4.7004451","Longitude":"114.5121288","Name":"Simpang 1307"},{"Latitude":"4.6840489","Longitude":"114.4887762","Name":"Simpang 131"},{"Latitude":"4.8918568","Longitude":"114.8575229","Name":"Simpang 1312"},{"Latitude":"4.8090995","Longitude":"114.7689760","Name":"Simpang 1313"},{"Latitude":"4.8914392","Longitude":"114.8559692","Name":"Simpang 1317"},{"Latitude":"4.8900778","Longitude":"114.8542373","Name":"Simpang 1317-47"},{"Latitude":"4.7570010","Longitude":"114.8198920","Name":"Simpang 132"},{"Latitude":"4.7571015","Longitude":"114.8187936","Name":"Simpang 132-15"},{"Latitude":"4.7776580","Longitude":"114.8216503","Name":"Simpang 1321"},{"Latitude":"4.7779495","Longitude":"114.8206002","Name":"Simpang 1321-21"},{"Latitude":"4.7782505","Longitude":"114.8212709","Name":"Simpang 1321-25"},{"Latitude":"4.7768943","Longitude":"114.8211275","Name":"Simpang 1321-32"},{"Latitude":"4.8918131","Longitude":"114.8551980","Name":"Simpang 1329"},{"Latitude":"4.8776512","Longitude":"114.8455844","Name":"Simpang 133"},{"Latitude":"4.8921428","Longitude":"114.8548609","Name":"Simpang 1333"},{"Latitude":"4.8929172","Longitude":"114.8547368","Name":"Simpang 1339"},{"Latitude":"4.8931693","Longitude":"114.8544820","Name":"Simpang 1339-6"},{"Latitude":"4.9333846","Longitude":"114.8938538","Name":"Simpang 134"},{"Latitude":"4.9335704","Longitude":"114.8933904","Name":"Simpang 134-5"},{"Latitude":"4.9350126","Longitude":"114.8945140","Name":"Simpang 134-8"},{"Latitude":"4.9346031","Longitude":"114.8938850","Name":"Simpang 134-8-19"},{"Latitude":"4.9351810","Longitude":"114.8938992","Name":"Simpang 134-8-23"},{"Latitude":"4.9342437","Longitude":"114.8933520","Name":"Simpang 134-9"},{"Latitude":"4.9359834","Longitude":"114.8928522","Name":"Simpang 134-9-31"},{"Latitude":"4.9368972","Longitude":"114.8933274","Name":"Simpang 134-9-34"},{"Latitude":"4.8566512","Longitude":"114.8462363","Name":"Simpang 135"},{"Latitude":"4.9310816","Longitude":"114.8944168","Name":"Simpang 135-23"},{"Latitude":"4.9329760","Longitude":"114.8943390","Name":"Simpang 135-23-7"},{"Latitude":"4.9322005","Longitude":"114.8939548","Name":"Simpang 135-24"},{"Latitude":"4.9301055","Longitude":"114.8937578","Name":"Simpang 135-24-19"},{"Latitude":"4.9301055","Longitude":"114.8937578","Name":"Simpang 135-24-25"},{"Latitude":"4.9322558","Longitude":"114.8932435","Name":"Simpang 135-24-8"},{"Latitude":"4.9644308","Longitude":"115.0305858","Name":"Simpang 136"},{"Latitude":"4.8978439","Longitude":"114.8381351","Name":"Simpang 136-12"},{"Latitude":"4.8997504","Longitude":"114.8394106","Name":"Simpang 136-27"},{"Latitude":"4.8994992","Longitude":"114.8403977","Name":"Simpang 136-35"},{"Latitude":"5.0268393","Longitude":"115.0167584","Name":"Simpang 136-4"},{"Latitude":"4.9642307","Longitude":"115.0317544","Name":"Simpang 136-5"},{"Latitude":"4.9002695","Longitude":"114.8417851","Name":"Simpang 136-53"},{"Latitude":"4.9012223","Longitude":"114.8410319","Name":"Simpang 136-53-39"},{"Latitude":"4.9012599","Longitude":"114.8401330","Name":"Simpang 136-53-39-4"},{"Latitude":"4.9018249","Longitude":"114.8401344","Name":"Simpang 136-53-40"},{"Latitude":"4.9643091","Longitude":"115.0312985","Name":"Simpang 136-6"},{"Latitude":"4.7758946","Longitude":"114.8164251","Name":"Simpang 1360"},{"Latitude":"4.7740939","Longitude":"114.8193708","Name":"Simpang 1369"},{"Latitude":"4.9058013","Longitude":"114.9186006","Name":"Simpang 137"},{"Latitude":"4.7744670","Longitude":"114.8161432","Name":"Simpang 1374"},{"Latitude":"4.8729203","Longitude":"114.8475176","Name":"Simpang 138"},{"Latitude":"4.8946059","Longitude":"114.8509838","Name":"Simpang 1389"},{"Latitude":"4.8894034","Longitude":"114.9607657","Name":"Simpang 139"},{"Latitude":"4.9530632","Longitude":"114.9446756","Name":"Simpang 139-11"},{"Latitude":"4.9522488","Longitude":"114.9422026","Name":"Simpang 139-18"},{"Latitude":"4.9811550","Longitude":"114.9656984","Name":"Simpang 14"},{"Latitude":"5.0043815","Longitude":"115.0090733","Name":"Simpang 14-12"},{"Latitude":"4.8937414","Longitude":"114.9163865","Name":"Simpang 14-16"},{"Latitude":"4.8937874","Longitude":"114.9153583","Name":"Simpang 14-18"},{"Latitude":"4.8932733","Longitude":"114.9155850","Name":"Simpang 14-22"},{"Latitude":"4.8054351","Longitude":"114.6526089","Name":"Simpang 14-35"},{"Latitude":"4.8054351","Longitude":"114.6526089","Name":"Simpang 14-37"},{"Latitude":"4.8061085","Longitude":"114.6513480","Name":"Simpang 14-38"},{"Latitude":"4.8056242","Longitude":"114.6501499","Name":"Simpang 14-38-29"},{"Latitude":"4.9658267","Longitude":"114.9045923","Name":"Simpang 14-5"},{"Latitude":"4.9762210","Longitude":"114.9762730","Name":"Simpang 14-6"},{"Latitude":"4.8943453","Longitude":"114.9166374","Name":"Simpang 14-8"},{"Latitude":"4.9844711","Longitude":"115.0209985","Name":"Simpang 140"},{"Latitude":"4.9560655","Longitude":"114.9569065","Name":"Simpang 140-13"},{"Latitude":"4.9170019","Longitude":"114.8990381","Name":"Simpang 140-14"},{"Latitude":"4.9167532","Longitude":"114.8982737","Name":"Simpang 140-19"},{"Latitude":"4.9176628","Longitude":"114.8987375","Name":"Simpang 140-22"},{"Latitude":"4.9177828","Longitude":"114.8980146","Name":"Simpang 140-28"},{"Latitude":"4.9188753","Longitude":"114.8980625","Name":"Simpang 140-36"},{"Latitude":"4.6637092","Longitude":"114.4528024","Name":"Simpang 141"},{"Latitude":"4.8728298","Longitude":"114.9010020","Name":"Simpang 141-12"},{"Latitude":"4.8728565","Longitude":"114.9015854","Name":"Simpang 141-18"},{"Latitude":"4.8893118","Longitude":"114.9048371","Name":"Simpang 141-6"},{"Latitude":"4.8910636","Longitude":"114.8521320","Name":"Simpang 1411-43"},{"Latitude":"4.8894864","Longitude":"114.8515016","Name":"Simpang 1411-43-38"},{"Latitude":"4.8907473","Longitude":"114.8510569","Name":"Simpang 1411-43-47"},{"Latitude":"4.8914335","Longitude":"114.8516344","Name":"Simpang 1411-43-57"},{"Latitude":"4.8914335","Longitude":"114.8516344","Name":"Simpang 1411-43-57-1"},{"Latitude":"4.8926808","Longitude":"114.8523681","Name":"Simpang 1411-43-65"},{"Latitude":"4.7040483","Longitude":"114.5254206","Name":"Simpang 1415"},{"Latitude":"4.7975525","Longitude":"114.7660396","Name":"Simpang 142"},{"Latitude":"4.9741930","Longitude":"115.0097228","Name":"Simpang 142-5"},{"Latitude":"4.9741930","Longitude":"115.0097228","Name":"Simpang 142-6"},{"Latitude":"5.0287751","Longitude":"115.0572529","Name":"Simpang 143"},{"Latitude":"4.8677988","Longitude":"114.8490400","Name":"Simpang 143-16"},{"Latitude":"4.8670548","Longitude":"114.8492413","Name":"Simpang 143-24"},{"Latitude":"4.9568453","Longitude":"114.9578623","Name":"Simpang 144"},{"Latitude":"4.8878557","Longitude":"114.9049695","Name":"Simpang 144-14"},{"Latitude":"4.8881485","Longitude":"114.9056102","Name":"Simpang 144-24"},{"Latitude":"4.8883593","Longitude":"114.9061301","Name":"Simpang 144-26"},{"Latitude":"4.8925072","Longitude":"114.8468189","Name":"Simpang 1448"},{"Latitude":"4.9720081","Longitude":"114.9610500","Name":"Simpang 145"},{"Latitude":"4.9714671","Longitude":"114.9599791","Name":"Simpang 145-15"},{"Latitude":"4.9708009","Longitude":"114.9621876","Name":"Simpang 145-6"},{"Latitude":"4.8907633","Longitude":"114.9246626","Name":"Simpang 146"},{"Latitude":"4.7667958","Longitude":"114.8196951","Name":"Simpang 1462"},{"Latitude":"4.7675087","Longitude":"114.8203827","Name":"Simpang 1462-7"},{"Latitude":"4.6638342","Longitude":"114.4539247","Name":"Simpang 147"},{"Latitude":"4.8904323","Longitude":"114.8453882","Name":"Simpang 1471"},{"Latitude":"4.9686120","Longitude":"114.9085387","Name":"Simpang 148"},{"Latitude":"4.8710575","Longitude":"114.8987491","Name":"Simpang 148-15"},{"Latitude":"4.8715212","Longitude":"114.8983709","Name":"Simpang 148-16"},{"Latitude":"4.9675920","Longitude":"114.9103727","Name":"Simpang 148-3"},{"Latitude":"4.9680594","Longitude":"114.9093408","Name":"Simpang 148-3-8"},{"Latitude":"4.8713553","Longitude":"114.8992544","Name":"Simpang 148-6"},{"Latitude":"4.5085280","Longitude":"114.4604735","Name":"Simpang 1486"},{"Latitude":"4.5110901","Longitude":"114.4590389","Name":"Simpang 1486-114"},{"Latitude":"4.8755821","Longitude":"114.8019120","Name":"Simpang 149"},{"Latitude":"4.8889974","Longitude":"114.8442966","Name":"Simpang 1493"},{"Latitude":"4.8882703","Longitude":"114.8441042","Name":"Simpang 1495"},{"Latitude":"4.9568199","Longitude":"114.9021421","Name":"Simpang 15"},{"Latitude":"4.5824320","Longitude":"114.2173671","Name":"Simpang 15-10"},{"Latitude":"4.5818288","Longitude":"114.2185613","Name":"Simpang 15-13"},{"Latitude":"4.8966391","Longitude":"114.9184451","Name":"Simpang 15-22"},{"Latitude":"4.5809802","Longitude":"114.2184819","Name":"Simpang 15-23"},{"Latitude":"4.9555200","Longitude":"114.9030729","Name":"Simpang 15-3"},{"Latitude":"4.9192374","Longitude":"114.9239498","Name":"Simpang 15-36-25"},{"Latitude":"4.9030315","Longitude":"114.8754602","Name":"Simpang 15-38"},{"Latitude":"4.9028240","Longitude":"114.8748322","Name":"Simpang 15-44"},{"Latitude":"4.9008862","Longitude":"114.8755323","Name":"Simpang 15-47"},{"Latitude":"4.9008942","Longitude":"114.8770380","Name":"Simpang 15-5"},{"Latitude":"4.5825502","Longitude":"114.2186492","Name":"Simpang 15-7"},{"Latitude":"4.9604998","Longitude":"114.9189036","Name":"Simpang 150"},{"Latitude":"4.9029234","Longitude":"114.9224547","Name":"Simpang 150-17"},{"Latitude":"4.9691738","Longitude":"114.9620146","Name":"Simpang 150-6"},{"Latitude":"4.8889149","Longitude":"114.8431966","Name":"Simpang 1500"},{"Latitude":"4.8880691","Longitude":"114.8431159","Name":"Simpang 1501"},{"Latitude":"4.8875649","Longitude":"114.8436035","Name":"Simpang 1505"},{"Latitude":"5.0064383","Longitude":"115.0044012","Name":"Simpang 151"},{"Latitude":"4.5708900","Longitude":"114.2649438","Name":"Simpang 151-11"},{"Latitude":"4.5710631","Longitude":"114.2661857","Name":"Simpang 151-123"},{"Latitude":"4.5710374","Longitude":"114.2655511","Name":"Simpang 151-17"},{"Latitude":"4.5707509","Longitude":"114.2643544","Name":"Simpang 151-5"},{"Latitude":"4.5705978","Longitude":"114.2644157","Name":"Simpang 151-6"},{"Latitude":"4.8871894","Longitude":"114.8431881","Name":"Simpang 1511"},{"Latitude":"4.8866379","Longitude":"114.8425991","Name":"Simpang 1517"},{"Latitude":"4.9413585","Longitude":"114.9538936","Name":"Simpang 152"},{"Latitude":"4.8870357","Longitude":"114.9070395","Name":"Simpang 152-27"},{"Latitude":"4.8876954","Longitude":"114.9090771","Name":"Simpang 152-69"},{"Latitude":"4.8860865","Longitude":"114.9102347","Name":"Simpang 152-81"},{"Latitude":"4.9624318","Longitude":"114.9035375","Name":"Simpang 153"},{"Latitude":"5.0257162","Longitude":"115.0163919","Name":"Simpang 153-1"},{"Latitude":"4.9621001","Longitude":"114.9030715","Name":"Simpang 153-11"},{"Latitude":"4.9622431","Longitude":"114.9040210","Name":"Simpang 153-16"},{"Latitude":"5.0251145","Longitude":"115.0158411","Name":"Simpang 153-2"},{"Latitude":"4.8388735","Longitude":"114.8745351","Name":"Simpang 153-36"},{"Latitude":"4.9618035","Longitude":"114.9036643","Name":"Simpang 153-8"},{"Latitude":"4.8878208","Longitude":"114.8401679","Name":"Simpang 1530"},{"Latitude":"4.7620981","Longitude":"115.1841322","Name":"Simpang 1533"},{"Latitude":"4.7700581","Longitude":"114.8265065","Name":"Simpang 1535"},{"Latitude":"4.9880052","Longitude":"114.9745828","Name":"Simpang 154"},{"Latitude":"4.9873281","Longitude":"114.9748402","Name":"Simpang 154-6"},{"Latitude":"4.8933928","Longitude":"114.8763487","Name":"Simpang 155"},{"Latitude":"5.0206749","Longitude":"115.0335664","Name":"Simpang 155-12"},{"Latitude":"5.0208108","Longitude":"115.0340048","Name":"Simpang 155-18"},{"Latitude":"5.0209633","Longitude":"115.0343995","Name":"Simpang 155-24"},{"Latitude":"5.0215029","Longitude":"115.0344077","Name":"Simpang 155-30"},{"Latitude":"5.0218112","Longitude":"115.0347005","Name":"Simpang 155-36"},{"Latitude":"5.0206711","Longitude":"115.0331519","Name":"Simpang 155-6"},{"Latitude":"4.7704523","Longitude":"114.8300064","Name":"Simpang 1559"},