[{"Latitude":"52.6483970","Longitude":"-8.6411451","Name":" Lifford Park"},{"Latitude":"53.4269440","Longitude":"-6.3704873","Name":"\"The Swing\", Hollystown"},{"Latitude":"53.8197630","Longitude":"-6.4064546","Name":".Collon Road"},{"Latitude":"54.2154927","Longitude":"-9.2621460","Name":"1"},{"Latitude":"52.6349442","Longitude":"-8.6696440","Name":"1 - 13 Aisling Geal"},{"Latitude":"51.8786714","Longitude":"-8.4933774","Name":"1-12 Shournagh Lawn"},{"Latitude":"51.9057442","Longitude":"-8.4699255","Name":"1-43 Landsdowne Court"},{"Latitude":"51.9131052","Longitude":"-8.4617882","Name":"1-6 Imaal Court"},{"Latitude":"51.9131228","Longitude":"-8.4599743","Name":"14-2 Coolamber Dr"},{"Latitude":"53.3704639","Longitude":"-6.2086219","Name":"150 Howth Road"},{"Latitude":"52.3435380","Longitude":"-6.4666758","Name":"1798 Street"},{"Latitude":"52.7991640","Longitude":"-6.1505291","Name":"19 Arches"},{"Latitude":"53.2927263","Longitude":"-6.4280455","Name":"3 - Brownsbarn Roundabout"},{"Latitude":"52.6332189","Longitude":"-8.6675702","Name":"39   - 42"},{"Latitude":"52.5905009","Longitude":"-6.4553693","Name":"40 Lane"},{"Latitude":"53.6618909","Longitude":"-8.0495616","Name":"6110"},{"Latitude":"51.8895439","Longitude":"-8.4136385","Name":"7-1 Skehard Lawn"},{"Latitude":"51.8798948","Longitude":"-8.4951969","Name":"7-12 Ilen Court"},{"Latitude":"53.2788972","Longitude":"-6.4181954","Name":"7A"},{"Latitude":"51.8933043","Longitude":"-8.4833587","Name":"98 Street"},{"Latitude":"53.3278594","Longitude":"-6.3956204","Name":"9th Lock Road"},{"Latitude":"53.3860154","Longitude":"-6.1528731","Name":"?"},{"Latitude":"53.6179254","Longitude":"-9.6709833","Name":"Aasleagh Falls Bridge"},{"Latitude":"53.2475737","Longitude":"-6.1225190","Name":"Abberley"},{"Latitude":"53.2880796","Longitude":"-6.3658557","Name":"Abberley Square East"},{"Latitude":"53.2882238","Longitude":"-6.3671219","Name":"Abberley Square North"},{"Latitude":"53.2880468","Longitude":"-6.3671003","Name":"Abberley Square West"},{"Latitude":"53.4337253","Longitude":"-8.6670026","Name":"Abbert Bridge"},{"Latitude":"53.4400768","Longitude":"-8.7491616","Name":"Abbey Bridge"},{"Latitude":"53.3652859","Longitude":"-7.4970390","Name":"Abbey Brook"},{"Latitude":"51.7073547","Longitude":"-8.5321308","Name":"Abbey Court"},{"Latitude":"52.8316273","Longitude":"-8.9743452","Name":"Abbey Court Abbeyville"},{"Latitude":"52.9201409","Longitude":"-7.3430912","Name":"Abbey Crescent"},{"Latitude":"53.3713964","Longitude":"-6.3121674","Name":"Abbey Drive"},{"Latitude":"53.3323330","Longitude":"-6.5516616","Name":"Abbey Farm"},{"Latitude":"52.9809143","Longitude":"-6.0488499","Name":"Abbey Fields"},{"Latitude":"51.7124786","Longitude":"-8.5294281","Name":"Abbey Fort"},{"Latitude":"53.2962394","Longitude":"-8.7418989","Name":"Abbey Glen"},{"Latitude":"52.2625280","Longitude":"-7.0830129","Name":"Abbey Grove"},{"Latitude":"52.3965502","Longitude":"-6.9410179","Name":"Abbey Hall"},{"Latitude":"53.7607008","Longitude":"-8.7653352","Name":"Abbey Height"},{"Latitude":"51.5572880","Longitude":"-9.2989381","Name":"Abbey Heights"},{"Latitude":"52.9840059","Longitude":"-6.0690852","Name":"Abbey Hill"},{"Latitude":"53.6574484","Longitude":"-6.6815651","Name":"Abbey Lane"},{"Latitude":"53.2856191","Longitude":"-6.1609170","Name":"Abbey Park"},{"Latitude":"53.2907216","Longitude":"-6.6776620","Name":"Abbey Park Court"},{"Latitude":"53.2929965","Longitude":"-6.6776271","Name":"Abbey Park Glen"},{"Latitude":"53.2919521","Longitude":"-6.6783025","Name":"Abbey Park Green"},{"Latitude":"53.2920059","Longitude":"-6.6770246","Name":"Abbey Park Grove"},{"Latitude":"53.2914320","Longitude":"-6.6753990","Name":"Abbey Park Orchard"},{"Latitude":"53.2943027","Longitude":"-6.6795068","Name":"Abbey Park View"},{"Latitude":"52.5016785","Longitude":"-6.5659016","Name":"Abbey Quay"},{"Latitude":"53.2831144","Longitude":"-6.1592241","Name":"Abbey Road"},{"Latitude":"53.2985448","Longitude":"-8.7450796","Name":"Abbey Row"},{"Latitude":"52.6535661","Longitude":"-7.2580416","Name":"Abbey Square"},{"Latitude":"53.3872364","Longitude":"-6.0655199","Name":"Abbey Street"},{"Latitude":"53.3491973","Longitude":"-6.2549396","Name":"Abbey Street Lower"},{"Latitude":"53.9732861","Longitude":"-8.2976118","Name":"Abbey Terrace"},{"Latitude":"53.7630143","Longitude":"-8.7590729","Name":"Abbey Vale"},{"Latitude":"51.7059750","Longitude":"-8.5296726","Name":"Abbey View"},{"Latitude":"53.2828577","Longitude":"-6.1581100","Name":"Abbey View Court"},{"Latitude":"52.9847471","Longitude":"-6.0682070","Name":"Abbey Way"},{"Latitude":"53.2938910","Longitude":"-6.6813021","Name":"Abbey Wood"},{"Latitude":"53.7358436","Longitude":"-7.7959219","Name":"Abbeycartron Lane"},{"Latitude":"52.6363986","Longitude":"-8.6635900","Name":"Abbeycourt"},{"Latitude":"52.6369886","Longitude":"-8.6635502","Name":"Abbeycourt  1 - 5"},{"Latitude":"52.6356151","Longitude":"-8.6644930","Name":"Abbeycourt  68 - 94"},{"Latitude":"52.6364547","Longitude":"-8.6629887","Name":"Abbeycourt 12 - 36"},{"Latitude":"52.7004208","Longitude":"-6.6307592","Name":"Abbeydown Bridge"},{"Latitude":"53.3778417","Longitude":"-6.2022242","Name":"Abbeyfield"},{"Latitude":"53.2053729","Longitude":"-8.5727733","Name":"Abbeyfields"},{"Latitude":"53.1390218","Longitude":"-7.0570698","Name":"Abbeygate"},{"Latitude":"52.1457298","Longitude":"-7.8376948","Name":"Abbeyglen"},{"Latitude":"53.3984984","Longitude":"-7.7133947","Name":"Abbeygrange"},{"Latitude":"53.6646198","Longitude":"-6.6920348","Name":"Abbeygrove"},{"Latitude":"53.5287161","Longitude":"-6.1601861","Name":"Abbeylands"},{"Latitude":"53.6581475","Longitude":"-6.6830817","Name":"Abbeylands Crescent"},{"Latitude":"52.8168895","Longitude":"-8.9773562","Name":"Abbeylawn"},{"Latitude":"53.4632643","Longitude":"-6.2339269","Name":"Abbeylea Avenue"},{"Latitude":"53.4639651","Longitude":"-6.2346921","Name":"Abbeylea Close"},{"Latitude":"53.4623883","Longitude":"-6.2325701","Name":"Abbeylea Drive"},{"Latitude":"53.4634231","Longitude":"-6.2349477","Name":"Abbeylea Green"},{"Latitude":"53.0274209","Longitude":"-7.3006708","Name":"Abbeyleix Road"},{"Latitude":"53.0322864","Longitude":"-7.3020727","Name":"Abbeyleix Road Roundabout"},{"Latitude":"53.3084464","Longitude":"-6.9220395","Name":"Abbeyloagh Bridge"},{"Latitude":"52.6701716","Longitude":"-8.6089278","Name":"Abbeylock"},{"Latitude":"53.7562112","Longitude":"-8.7630779","Name":"Abbeyquarter"},{"Latitude":"53.5818064","Longitude":"-7.6570564","Name":"Abbeyshrule Bridge"},{"Latitude":"52.5161775","Longitude":"-7.8835754","Name":"Abbeyside"},{"Latitude":"51.6439356","Longitude":"-8.7643771","Name":"Abbeysite"},{"Latitude":"53.5011738","Longitude":"-9.0527875","Name":"Abbeytown"},{"Latitude":"53.6223754","Longitude":"-8.1964610","Name":"Abbeyvale"},{"Latitude":"53.4615245","Longitude":"-6.2524087","Name":"Abbeyvale Avenue"},{"Latitude":"53.4620009","Longitude":"-6.2509052","Name":"Abbeyvale Close"},{"Latitude":"53.4620377","Longitude":"-6.2528105","Name":"Abbeyvale Court"},{"Latitude":"53.4627191","Longitude":"-6.2515301","Name":"Abbeyvale Crescent"},{"Latitude":"53.4607643","Longitude":"-6.2534544","Name":"Abbeyvale Drive"},{"Latitude":"53.4597537","Longitude":"-6.2514992","Name":"Abbeyvale Green"},{"Latitude":"53.4633813","Longitude":"-6.2518829","Name":"Abbeyvale Grove"},{"Latitude":"53.4611468","Longitude":"-6.2514566","Name":"Abbeyvale Lawn"},{"Latitude":"53.4613979","Longitude":"-6.2533556","Name":"Abbeyvale Place"},{"Latitude":"53.4606927","Longitude":"-6.2528621","Name":"Abbeyvale Rise"},{"Latitude":"53.4595664","Longitude":"-6.2523869","Name":"Abbeyvale Roundabout"},{"Latitude":"53.4604258","Longitude":"-6.2515933","Name":"Abbeyvale View"},{"Latitude":"53.4601766","Longitude":"-6.2537805","Name":"Abbeyvale Way"},{"Latitude":"53.9062675","Longitude":"-8.5727396","Name":"Abbeyview"},{"Latitude":"52.8315080","Longitude":"-8.9736710","Name":"Abbeyville"},{"Latitude":"54.2705608","Longitude":"-8.4655578","Name":"Abbeyville Park"},{"Latitude":"53.2831592","Longitude":"-6.1399681","Name":"Abbot Drive"},{"Latitude":"52.0943919","Longitude":"-7.5969132","Name":"Abbot's Close"},{"Latitude":"53.2712785","Longitude":"-6.3232601","Name":"Abbot's Grove"},{"Latitude":"53.2712591","Longitude":"-6.3233562","Name":"Abbot's Grove Avenue"},{"Latitude":"53.1038858","Longitude":"-7.0142103","Name":"Abbots Wood"},{"Latitude":"51.8715352","Longitude":"-8.3921558","Name":"Abbotswood Avenue"},{"Latitude":"51.8722597","Longitude":"-8.3895459","Name":"Abbotswood Downs"},{"Latitude":"53.2929609","Longitude":"-6.6993294","Name":"Abbottfield"},{"Latitude":"52.3542079","Longitude":"-7.7334719","Name":"Abby Meadows"},{"Latitude":"54.9502790","Longitude":"-7.6230585","Name":"Abby Villas"},{"Latitude":"53.3510075","Longitude":"-6.2362440","Name":"Abercorn Road"},{"Latitude":"53.3389327","Longitude":"-6.3260397","Name":"Abercorn Square"},{"Latitude":"53.3397321","Longitude":"-6.3251656","Name":"Abercorn Terrace"},{"Latitude":"52.1412852","Longitude":"-8.2760995","Name":"Abercrombie Place"},{"Latitude":"53.3513967","Longitude":"-6.2966812","Name":"Aberdeen Street"},{"Latitude":"52.1393063","Longitude":"-10.2697251","Name":"Abha na Dála"},{"Latitude":"53.6996854","Longitude":"-7.6162398","Name":"Abhainn Glas"},{"Latitude":"54.1784533","Longitude":"-8.4947000","Name":"Abhainn Mór"},{"Latitude":"53.4299843","Longitude":"-9.3190307","Name":"Abhainn Ruibhe"},{"Latitude":"52.5447282","Longitude":"-7.3943487","Name":"Abhainn Rí"},{"Latitude":"53.2680518","Longitude":"-8.9270686","Name":"Abhainn na Rí"},{"Latitude":"52.6214628","Longitude":"-7.4213042","Name":"Abhaínn Rí"},{"Latitude":"53.4445911","Longitude":"-6.1778761","Name":"Abington"},{"Latitude":"52.3523153","Longitude":"-7.7206395","Name":"Abraham's Lane"},{"Latitude":"51.8987011","Longitude":"-8.4729113","Name":"Academy Street"},{"Latitude":"52.8454203","Longitude":"-6.6651564","Name":"Acaun Bridge"},{"Latitude":"53.3652286","Longitude":"-6.5083027","Name":"Accommodation Road"},{"Latitude":"52.8590764","Longitude":"-9.0108923","Name":"Acha Bhile"},{"Latitude":"53.2470512","Longitude":"-6.1243090","Name":"Achill Road"},{"Latitude":"53.3930172","Longitude":"-6.3673390","Name":"Achill Square"},{"Latitude":"54.2203831","Longitude":"-9.9902142","Name":"Achill View"},{"Latitude":"52.6868324","Longitude":"-6.7472960","Name":"Aclare Bridge"},{"Latitude":"53.2839010","Longitude":"-6.2516367","Name":"Acorn Drive"},{"Latitude":"53.2831706","Longitude":"-6.2514534","Name":"Acorn Road"},{"Latitude":"53.7109291","Longitude":"-6.3265574","Name":"Acorn Way"},{"Latitude":"53.2587760","Longitude":"-9.1020838","Name":"Acres"},{"Latitude":"53.3279584","Longitude":"-6.2231823","Name":"Adair"},{"Latitude":"53.3549477","Longitude":"-6.4496394","Name":"Adam's Town Court"},{"Latitude":"53.2642717","Longitude":"-7.5070658","Name":"Adams Villas"},{"Latitude":"53.3377604","Longitude":"-6.4591342","Name":"Adamstown Avenue"},{"Latitude":"53.3393649","Longitude":"-6.4693436","Name":"Adamstown Boulevard"},{"Latitude":"52.3889656","Longitude":"-6.7269512","Name":"Adamstown Bridge"},{"Latitude":"53.3382015","Longitude":"-6.4661526","Name":"Adamstown Park"},{"Latitude":"53.3484223","Longitude":"-6.4507910","Name":"Adamstown Road"},{"Latitude":"53.3386319","Longitude":"-6.4628787","Name":"Adamstown Way"},{"Latitude":"53.3966868","Longitude":"-6.2093250","Name":"Adare Avenue"},{"Latitude":"53.1349697","Longitude":"-6.0784390","Name":"Adare Close"},{"Latitude":"53.3945983","Longitude":"-6.2097641","Name":"Adare Drive"},{"Latitude":"53.3948964","Longitude":"-6.2068880","Name":"Adare Green"},{"Latitude":"53.3953556","Longitude":"-6.2078219","Name":"Adare Park"},{"Latitude":"53.3958563","Longitude":"-6.2056802","Name":"Adare Road"},{"Latitude":"53.3608767","Longitude":"-9.0175404","Name":"Addergoole Bridge"},{"Latitude":"53.3770506","Longitude":"-6.2782191","Name":"Addison Avenue"},{"Latitude":"53.3766069","Longitude":"-6.2775334","Name":"Addison Drive"},{"Latitude":"53.3775877","Longitude":"-6.2773473","Name":"Addison Park"},{"Latitude":"53.3721229","Longitude":"-6.2678521","Name":"Addison Place"},{"Latitude":"53.3620755","Longitude":"-6.2385196","Name":"Addison Road"},{"Latitude":"52.9386394","Longitude":"-8.9546046","Name":"Addroon Bridge"},{"Latitude":"53.3226469","Longitude":"-6.2078580","Name":"Adelaide"},{"Latitude":"51.9051006","Longitude":"-8.4572760","Name":"Adelaide Place"},{"Latitude":"53.3322475","Longitude":"-6.2534036","Name":"Adelaide Road"},{"Latitude":"53.2914748","Longitude":"-6.1315491","Name":"Adelaide Street"},{"Latitude":"53.2058253","Longitude":"-6.1133308","Name":"Adelaide Villas"},{"Latitude":"52.2601465","Longitude":"-7.1038975","Name":"Adelphi Quay"},{"Latitude":"53.9789494","Longitude":"-9.1115487","Name":"Admiral Brown Road"},{"Latitude":"53.3447244","Longitude":"-6.2397591","Name":"Admiral Brown Street"},{"Latitude":"53.3974638","Longitude":"-6.1326629","Name":"Admiral Park"},{"Latitude":"51.7086511","Longitude":"-8.5165895","Name":"Admirals Walk"},{"Latitude":"54.8115773","Longitude":"-7.7662107","Name":"Admiran Park"},{"Latitude":"53.3180083","Longitude":"-6.2829296","Name":"Adrian Avenue"},{"Latitude":"51.6947246","Longitude":"-9.7205546","Name":"Adrigole Bridge"},{"Latitude":"53.2899226","Longitude":"-6.4671134","Name":"Aerodrome Roundabout"},{"Latitude":"53.2409874","Longitude":"-6.9473244","Name":"Agar Bridge"},{"Latitude":"54.0472205","Longitude":"-7.9261058","Name":"Aghacashlaun Bridge"},{"Latitude":"53.9225896","Longitude":"-7.3665668","Name":"Aghaconny Bridge"},{"Latitude":"52.7587301","Longitude":"-6.7295927","Name":"Aghade Bridge"},{"Latitude":"54.5748364","Longitude":"-8.1179988","Name":"Aghadullagh Bridge"},{"Latitude":"53.7638318","Longitude":"-7.7257762","Name":"Aghaga Bridge"},{"Latitude":"54.0587712","Longitude":"-8.0034747","Name":"Aghagran Bridge"},{"Latitude":"53.0585873","Longitude":"-7.7465132","Name":"Aghagurty Bridge"},{"Latitude":"53.9765301","Longitude":"-7.3038902","Name":"Aghalacken"},{"Latitude":"53.8852213","Longitude":"-8.5678787","Name":"Aghalustia Bridge"},{"Latitude":"53.9854808","Longitude":"-6.3821218","Name":"Aghameen Park"},{"Latitude":"54.1941273","Longitude":"-6.8932840","Name":"Aghananimy Road"},{"Latitude":"53.6830831","Longitude":"-7.8463362","Name":"Aghantrah Bridge"},{"Latitude":"52.8653488","Longitude":"-9.3976579","Name":"Aghataggart Bridge"},{"Latitude":"52.9060812","Longitude":"-6.0735658","Name":"Aghatruhan Bridge"},{"Latitude":"51.8788710","Longitude":"-10.2014053","Name":"Aghatubrid Bridge"},{"Latitude":"52.9157602","Longitude":"-6.4315538","Name":"Aghavanagh Bridge"},{"Latitude":"54.4135013","Longitude":"-8.2193766","Name":"Aghavoghil"},{"Latitude":"51.8321842","Longitude":"-8.8881457","Name":"Aghboy Bridge"},{"Latitude":"53.2363925","Longitude":"-6.4541276","Name":"Aghfarrell Road"},{"Latitude":"52.8299433","Longitude":"-6.6473979","Name":"Aghinree Bridge"},{"Latitude":"54.6573240","Longitude":"-8.0200552","Name":"Aghlem Bridge"},{"Latitude":"54.0702798","Longitude":"-7.9010477","Name":"Aghlin Bridge"},{"Latitude":"52.8160352","Longitude":"-7.5107599","Name":"Aghmacart Bridge"},{"Latitude":"52.8485088","Longitude":"-7.9573048","Name":"Aghmore Bridge"},{"Latitude":"52.7897293","Longitude":"-6.7935004","Name":"Aghmorough Bridge"},{"Latitude":"51.8545141","Longitude":"-8.6419411","Name":"Aghnageeragh Bridge"},{"Latitude":"51.7732788","Longitude":"-8.7852371","Name":"Aghnagire Bridge"},{"Latitude":"52.0824566","Longitude":"-8.2320448","Name":"Aghnagranagh Bridge"},{"Latitude":"53.0313029","Longitude":"-7.2824922","Name":"Aghnaharna"},{"Latitude":"53.0328449","Longitude":"-7.2789231","Name":"Aghnaharna Court"},{"Latitude":"52.6376875","Longitude":"-6.9162771","Name":"Aghnamannoge Bridge"},{"Latitude":"52.8488628","Longitude":"-7.9756813","Name":"Aghnameadle Bridge"},{"Latitude":"51.9223267","Longitude":"-8.6501815","Name":"Aghnamuck Bridge"},{"Latitude":"52.3862902","Longitude":"-6.4980068","Name":"Aghnanure Bridge"},{"Latitude":"51.9542737","Longitude":"-9.3893741","Name":"Aghnanus Bridge"},{"Latitude":"51.8325958","Longitude":"-8.8747216","Name":"Aghnareloge Bridge"},{"Latitude":"53.6841073","Longitude":"-7.8686853","Name":"Aghnaskea Bridge"},{"Latitude":"51.7946414","Longitude":"-8.7749428","Name":"Aghphona Bridge"},{"Latitude":"51.8761533","Longitude":"-8.8875605","Name":"Aghthying Bridge"},{"Latitude":"53.8477631","Longitude":"-9.3002400","Name":"Aglish Estate"},{"Latitude":"53.1111253","Longitude":"-7.3131445","Name":"Agracar"},{"Latitude":"52.1669388","Longitude":"-8.2205402","Name":"Agraglin Bridge"},{"Latitude":"52.7988813","Longitude":"-8.7052057","Name":"Ahaclare Bridge"},{"Latitude":"52.0702520","Longitude":"-8.2951117","Name":"Ahaclareen Bridge"},{"Latitude":"51.6358848","Longitude":"-8.9632397","Name":"Ahagilla"},{"Latitude":"51.6004898","Longitude":"-9.6344998","Name":"Ahakista Bridge"},{"Latitude":"51.8099200","Longitude":"-8.8559025","Name":"Ahalarick Bridge"},{"Latitude":"51.6725603","Longitude":"-9.2606525","Name":"Ahanafunsion Bridge"},{"Latitude":"52.0961400","Longitude":"-9.1326936","Name":"Ahane Bridge"},{"Latitude":"52.7166752","Longitude":"-6.1878407","Name":"Ahare Bridge"},{"Latitude":"52.4777354","Longitude":"-9.3706301","Name":"Ahavoher Bridge"},{"Latitude":"52.0377193","Longitude":"-8.6836971","Name":"Ahecanna Bridge"},{"Latitude":"52.6802554","Longitude":"-8.6595093","Name":"Aherlow Close"},{"Latitude":"51.8548581","Longitude":"-8.2966580","Name":"Aherne Place"},{"Latitude":"52.6684967","Longitude":"-8.6193093","Name":"Aherne's Row"},{"Latitude":"52.4754971","Longitude":"-8.4216547","Name":"Ahnageeragh Bridge"},{"Latitude":"53.8518243","Longitude":"-8.9975276","Name":"Aidan Street Rear"},{"Latitude":"53.3155555","Longitude":"-6.2931093","Name":"Aideen Avenue"},{"Latitude":"53.3146815","Longitude":"-6.2931738","Name":"Aideen Drive"},{"Latitude":"53.3156340","Longitude":"-6.2917804","Name":"Aideen Place"},{"Latitude":"53.8522549","Longitude":"-8.9967262","Name":"Aiden Street"},{"Latitude":"53.3389161","Longitude":"-6.2265864","Name":"Aikenhead Terrace"},{"Latitude":"55.1307010","Longitude":"-7.4607895","Name":"Aileach Road"},{"Latitude":"53.3191564","Longitude":"-6.2299930","Name":"Ailesbury Close"},{"Latitude":"53.3205764","Longitude":"-6.2292534","Name":"Ailesbury Drive"},{"Latitude":"53.3207642","Longitude":"-6.2110774","Name":"Ailesbury Gardens"},{"Latitude":"53.2865832","Longitude":"-6.2490446","Name":"Ailesbury Grove"},{"Latitude":"53.2846866","Longitude":"-6.2474703","Name":"Ailesbury Lawn"},{"Latitude":"53.3189314","Longitude":"-6.2084623","Name":"Ailesbury Mews"},{"Latitude":"53.1915484","Longitude":"-6.7974585","Name":"Ailesbury Park"},{"Latitude":"53.3195087","Longitude":"-6.2311576","Name":"Ailesbury Road"},{"Latitude":"53.3201396","Longitude":"-6.2201094","Name":"Ailesbury Wood"},{"Latitude":"53.2536337","Longitude":"-9.2271209","Name":"Aill An Phréacháin agius Saor Sinn"},{"Latitude":"52.8076426","Longitude":"-8.4452498","Name":"Aillebaun Holiday Cottages"},{"Latitude":"52.3592905","Longitude":"-7.7028943","Name":"Air Hill"},{"Latitude":"53.3140711","Longitude":"-6.2289458","Name":"Airfield Court"},{"Latitude":"53.3134236","Longitude":"-6.2283880","Name":"Airfield Manor"},{"Latitude":"53.3143600","Longitude":"-6.2272501","Name":"Airfield Park"},{"Latitude":"52.1505742","Longitude":"-7.0090659","Name":"Airfield Point"},{"Latitude":"53.3132646","Longitude":"-6.2751966","Name":"Airfield Road"},{"Latitude":"53.3139709","Longitude":"-6.2279554","Name":"Airfield Terrace"},{"Latitude":"53.3502040","Longitude":"-6.4668895","Name":"Airlie Heights"},{"Latitude":"52.2623634","Longitude":"-7.1250128","Name":"Airmount Villas"},{"Latitude":"53.2746619","Longitude":"-6.3064255","Name":"Airpark Avenue"},{"Latitude":"53.2751068","Longitude":"-6.3072075","Name":"Airpark Close"},{"Latitude":"53.2751886","Longitude":"-6.3062310","Name":"Airpark Court"},{"Latitude":"53.2747618","Longitude":"-6.3034971","Name":"Airpark Rise"},{"Latitude":"53.2746400","Longitude":"-6.3057427","Name":"Airpark Square"},{"Latitude":"51.8479067","Longitude":"-8.4831920","Name":"Airport Business Park"},{"Latitude":"52.2449797","Longitude":"-7.1091731","Name":"Airport Road"},{"Latitude":"52.2339489","Longitude":"-7.1039078","Name":"Airport Road Roundabout"},{"Latitude":"53.4281705","Longitude":"-6.2301544","Name":"Airport Roundabout"},{"Latitude":"53.4447058","Longitude":"-6.2196950","Name":"Airside Enterprise Centre"},{"Latitude":"53.4457560","Longitude":"-6.2218194","Name":"Airside Motor Park"},{"Latitude":"53.4474161","Longitude":"-6.2205190","Name":"Airside Roundabout"},{"Latitude":"53.4447869","Longitude":"-6.2240800","Name":"Airside South Quarter"},{"Latitude":"53.2937198","Longitude":"-6.3623738","Name":"Airton Road"},{"Latitude":"53.4080411","Longitude":"-6.2357522","Name":"Airways Industrial Estate"},{"Latitude":"53.2752117","Longitude":"-9.0133305","Name":"Aishling Court"},{"Latitude":"52.8482387","Longitude":"-9.0156028","Name":"Aisling"},{"Latitude":"51.8674225","Longitude":"-8.4948403","Name":"Aisling Close"},{"Latitude":"52.6721548","Longitude":"-8.6519700","Name":"Aisling Drive"},{"Latitude":"51.9406078","Longitude":"-8.5571211","Name":"Aisling Geal"},{"Latitude":"52.6279212","Longitude":"-8.6488710","Name":"Aisling Heights"},{"Latitude":"53.6636511","Longitude":"-6.6769940","Name":"Aisling Place"},{"Latitude":"53.2517110","Longitude":"-6.1215889","Name":"Albany"},{"Latitude":"53.2950089","Longitude":"-6.1577423","Name":"Albany Avenue"},{"Latitude":"53.2500216","Longitude":"-6.1225614","Name":"Albany Court"},{"Latitude":"53.3183209","Longitude":"-6.2526918","Name":"Albany Road"},{"Latitude":"53.2027575","Longitude":"-6.1011355","Name":"Albert Avenue"},{"Latitude":"53.2826804","Longitude":"-6.1193509","Name":"Albert Close"},{"Latitude":"53.3863407","Longitude":"-6.2624228","Name":"Albert College Avenue"},{"Latitude":"53.3856197","Longitude":"-6.2643054","Name":"Albert College Crescent"},{"Latitude":"53.3872521","Longitude":"-6.2634245","Name":"Albert College Drive"},{"Latitude":"53.3862372","Longitude":"-6.2634866","Name":"Albert College Grove"},{"Latitude":"53.3850465","Longitude":"-6.2626355","Name":"Albert College Lawn"},{"Latitude":"53.3875883","Longitude":"-6.2609882","Name":"Albert College Park"},{"Latitude":"53.3393538","Longitude":"-6.2420214","Name":"Albert Court East"},{"Latitude":"53.2852190","Longitude":"-6.1202338","Name":"Albert Park"},{"Latitude":"53.3398177","Longitude":"-6.2422326","Name":"Albert Place East"},{"Latitude":"53.3318494","Longitude":"-6.2611357","Name":"Albert Place West"},{"Latitude":"51.8978091","Longitude":"-8.4643651","Name":"Albert Quay"},{"Latitude":"51.8982131","Longitude":"-8.4623911","Name":"Albert Quay East"},{"Latitude":"51.8964952","Longitude":"-8.4606349","Name":"Albert Road"},{"Latitude":"53.2827301","Longitude":"-6.1198176","Name":"Albert Road Lower"},{"Latitude":"52.3527843","Longitude":"-7.7108306","Name":"Albert Street"},{"Latitude":"53.3320601","Longitude":"-6.2610009","Name":"Albert Terrace"},{"Latitude":"53.3882544","Longitude":"-6.3155535","Name":"Albertstown Road"},{"Latitude":"51.7661658","Longitude":"-8.7950092","Name":"Alcock's Bridge"},{"Latitude":"52.9143309","Longitude":"-6.6790728","Name":"Aldborough Bridge"},{"Latitude":"53.3548723","Longitude":"-6.2455363","Name":"Aldborough Court"},{"Latitude":"51.8728885","Longitude":"-8.4509507","Name":"Alden"},{"Latitude":"53.3880532","Longitude":"-6.1481842","Name":"Alden Drive"},{"Latitude":"53.3889524","Longitude":"-6.1483890","Name":"Alden Park"},{"Latitude":"53.3895993","Longitude":"-6.1498973","Name":"Alden Road"},{"Latitude":"53.6615777","Longitude":"-6.6839656","Name":"Alder Close"},{"Latitude":"51.9126262","Longitude":"-8.2490953","Name":"Alder Grove"},{"Latitude":"53.6445413","Longitude":"-6.6615410","Name":"Alder Walk"},{"Latitude":"53.2609210","Longitude":"-9.0817348","Name":"Alderbrook"},{"Latitude":"53.5045293","Longitude":"-6.3950529","Name":"Alderbrook Downs"},{"Latitude":"53.5058847","Longitude":"-6.3946599","Name":"Alderbrook Glen"},{"Latitude":"53.5038724","Longitude":"-6.3935532","Name":"Alderbrook Heath"},{"Latitude":"53.5046575","Longitude":"-6.3923093","Name":"Alderbrook Park"},{"Latitude":"53.5045673","Longitude":"-6.3963756","Name":"Alderbrook Rise"},{"Latitude":"53.5049657","Longitude":"-6.3940060","Name":"Alderbrook Road"},{"Latitude":"53.5055433","Longitude":"-6.3934460","Name":"Alderbrook Vale"},{"Latitude":"52.2433276","Longitude":"-7.0734438","Name":"Alderbury Close"},{"Latitude":"52.2434441","Longitude":"-7.0726833","Name":"Alderbury Grove"},{"Latitude":"53.2660123","Longitude":"-6.2233832","Name":"Alderman Road"},{"Latitude":"53.3872338","Longitude":"-6.4271895","Name":"Aldermere Close"},{"Latitude":"53.3878361","Longitude":"-6.4269374","Name":"Aldermere Drive"},{"Latitude":"53.2853723","Longitude":"-6.3775990","Name":"Alderpark Court"},{"Latitude":"51.8788135","Longitude":"-8.4493852","Name":"Alderwood"},{"Latitude":"53.2859442","Longitude":"-6.3816419","Name":"Alderwood Avenue"},{"Latitude":"53.2890462","Longitude":"-6.3822305","Name":"Alderwood Close"},{"Latitude":"53.2871841","Longitude":"-6.3818092","Name":"Alderwood Court"},{"Latitude":"53.2857233","Longitude":"-6.3789528","Name":"Alderwood Drive"},{"Latitude":"53.2898762","Longitude":"-6.3813969","Name":"Alderwood Green"},{"Latitude":"53.2857972","Longitude":"-6.3790343","Name":"Alderwood Grove"},{"Latitude":"53.2884240","Longitude":"-6.3821558","Name":"Alderwood Lawn"},{"Latitude":"53.2857004","Longitude":"-6.3801535","Name":"Alderwood Park"},{"Latitude":"53.2878259","Longitude":"-6.3819457","Name":"Alderwood Rise"},{"Latitude":"52.2953327","Longitude":"-9.6635058","Name":"Alderwood Road"},{"Latitude":"53.2858696","Longitude":"-6.3811982","Name":"Alderwood Way"},{"Latitude":"53.3921019","Longitude":"-6.2099977","Name":"Aldrin Walk"},{"Latitude":"52.1409540","Longitude":"-8.6315935","Name":"Aldworth Heights"},{"Latitude":"53.4023627","Longitude":"-6.9070875","Name":"Aleckafin Bridge"},{"Latitude":"52.2593352","Longitude":"-7.1127457","Name":"Alexander Street"},{"Latitude":"53.2864744","Longitude":"-6.6811799","Name":"Alexandra Bridge"},{"Latitude":"51.9048167","Longitude":"-8.4584973","Name":"Alexandra Court"},{"Latitude":"53.2880377","Longitude":"-6.6806054","Name":"Alexandra Manor"},{"Latitude":"53.2898111","Longitude":"-6.6788764","Name":"Alexandra Park"},{"Latitude":"51.9042978","Longitude":"-8.4586010","Name":"Alexandra Place"},{"Latitude":"51.9056191","Longitude":"-8.4586697","Name":"Alexandra Road"},{"Latitude":"53.3502421","Longitude":"-6.1961105","Name":"Alexandra Road Extension"},{"Latitude":"51.9056191","Longitude":"-8.4586697","Name":"Alexandra Terrace"},{"Latitude":"51.9058665","Longitude":"-8.4605833","Name":"Alexandra Villas"},{"Latitude":"53.2896148","Longitude":"-6.6755548","Name":"Alexandra Walk"},{"Latitude":"53.3580353","Longitude":"-6.2340201","Name":"Alfie Byrne Road"},{"Latitude":"51.9012536","Longitude":"-8.4611265","Name":"Alfred Street"},{"Latitude":"53.3727677","Longitude":"-6.2505069","Name":"All Hallows Green"},{"Latitude":"53.3720310","Longitude":"-6.2509627","Name":"All Hallows Square"},{"Latitude":"53.1531072","Longitude":"-7.9613656","Name":"All Saints Bridge"},{"Latitude":"53.3781915","Longitude":"-6.1788173","Name":"All Saints Drive"},{"Latitude":"53.3768614","Longitude":"-6.1793357","Name":"All Saints Park"},{"Latitude":"53.3750322","Longitude":"-6.1819373","Name":"All Saints Road"},{"Latitude":"53.0132370","Longitude":"-9.3571677","Name":"Alla Bridge"},{"Latitude":"53.2304779","Longitude":"-6.3613619","Name":"Allagour Lane"},{"Latitude":"53.2255207","Longitude":"-6.3466352","Name":"Allagour Road"},{"Latitude":"53.5847010","Longitude":"-7.6971685","Name":"Allards Bridge"},{"Latitude":"53.4054456","Longitude":"-6.6797441","Name":"Allen Bridge"},{"Latitude":"53.2391505","Longitude":"-6.8577996","Name":"Allen Court"},{"Latitude":"53.2464519","Longitude":"-6.8434363","Name":"Allen Manor"},{"Latitude":"53.2872800","Longitude":"-6.2021178","Name":"Allen Park Drive"},{"Latitude":"53.2865671","Longitude":"-6.2024486","Name":"Allen Park Road"},{"Latitude":"51.7469453","Longitude":"-8.7436502","Name":"Allen Square"},{"Latitude":"52.3370864","Longitude":"-6.4620341","Name":"Allen Street"},{"Latitude":"52.1421276","Longitude":"-8.2722892","Name":"Allen's Walk"},{"Latitude":"51.9037254","Longitude":"-8.4810190","Name":"Allena Square"},{"Latitude":"53.7448046","Longitude":"-7.7536514","Name":"Allenagh Roundabout"},{"Latitude":"53.7201540","Longitude":"-6.8450590","Name":"Allendale"},{"Latitude":"51.8800794","Longitude":"-8.5287669","Name":"Allendale Avenue"},{"Latitude":"53.3904968","Longitude":"-6.4272723","Name":"Allendale Close"},{"Latitude":"53.3912466","Longitude":"-6.4283207","Name":"Allendale Copse"},{"Latitude":"53.3914489","Longitude":"-6.4296876","Name":"Allendale Court"},{"Latitude":"53.3921586","Longitude":"-6.4300381","Name":"Allendale Drive"},{"Latitude":"53.3912515","Longitude":"-6.4268938","Name":"Allendale Elms"},{"Latitude":"53.3924749","Longitude":"-6.4288889","Name":"Allendale Glade"},{"Latitude":"53.3932635","Longitude":"-6.4277566","Name":"Allendale Glen"},{"Latitude":"53.3919680","Longitude":"-6.4262726","Name":"Allendale Green"},{"Latitude":"53.3939377","Longitude":"-6.4269618","Name":"Allendale Grove"},{"Latitude":"53.3926634","Longitude":"-6.4266882","Name":"Allendale Lawn"},{"Latitude":"53.3913351","Longitude":"-6.4276228","Name":"Allendale Place"},{"Latitude":"53.3938644","Longitude":"-6.4284127","Name":"Allendale Rise"},{"Latitude":"53.3909344","Longitude":"-6.4316721","Name":"Allendale Roundabout"},{"Latitude":"53.3891362","Longitude":"-6.4284817","Name":"Allendale Square"},{"Latitude":"53.3914287","Longitude":"-6.4255630","Name":"Allendale Terrace"},{"Latitude":"53.3938021","Longitude":"-6.4307942","Name":"Allendale View"},{"Latitude":"53.3918059","Longitude":"-6.4285611","Name":"Allendale Walk"},{"Latitude":"53.2728877","Longitude":"-6.3538732","Name":"Allenton Avenue"},{"Latitude":"53.2747633","Longitude":"-6.3528863","Name":"Allenton Crescent"},{"Latitude":"53.2713310","Longitude":"-6.3532386","Name":"Allenton Drive"},{"Latitude":"53.2723884","Longitude":"-6.3522113","Name":"Allenton Gardens"},{"Latitude":"53.2723986","Longitude":"-6.3537449","Name":"Allenton Green"},{"Latitude":"53.2735676","Longitude":"-6.3551377","Name":"Allenton Lawns"},{"Latitude":"53.2736581","Longitude":"-6.3540585","Name":"Allenton Park"},{"Latitude":"53.2741316","Longitude":"-6.3522811","Name":"Allenton Road"},{"Latitude":"53.2717303","Longitude":"-6.3544186","Name":"Allenton Way"},{"Latitude":"52.6803768","Longitude":"-6.2965910","Name":"Allenwood Drive"},{"Latitude":"53.2154835","Longitude":"-6.1316185","Name":"Allies River Road"},{"Latitude":"51.9551515","Longitude":"-7.8465390","Name":"Allin's Quay"},{"Latitude":"51.9068366","Longitude":"-8.4751744","Name":"Allinett's Lane"},{"Latitude":"54.5026235","Longitude":"-8.1986656","Name":"Allingham Avenue"},{"Latitude":"53.3389677","Longitude":"-6.2838606","Name":"Allingham Street"},{"Latitude":"53.3253550","Longitude":"-6.2597657","Name":"Alma Court"},{"Latitude":"53.2927973","Longitude":"-6.1534032","Name":"Alma Place"},{"Latitude":"53.2968221","Longitude":"-6.1660914","Name":"Alma Road"},{"Latitude":"53.3252629","Longitude":"-6.2597710","Name":"Alma Terrace"},{"Latitude":"52.2934894","Longitude":"-8.1654131","Name":"Almaseed Bridge"},{"Latitude":"53.3398525","Longitude":"-6.3028162","Name":"Almeida Avenue"},{"Latitude":"53.3396756","Longitude":"-6.3032284","Name":"Almeida Terrace"},{"Latitude":"53.3246869","Longitude":"-6.4082984","Name":"Alpine Heights"},{"Latitude":"53.2960429","Longitude":"-6.3863158","Name":"Alpine Rise"},{"Latitude":"54.7736792","Longitude":"-7.5779651","Name":"Alt Bridge"},{"Latitude":"54.4180660","Longitude":"-7.0660046","Name":"Altadaven Road"},{"Latitude":"53.2785558","Longitude":"-6.1301258","Name":"Altadore"},{"Latitude":"52.6730885","Longitude":"-8.6326206","Name":"Altamira Court"},{"Latitude":"53.7951154","Longitude":"-9.5070917","Name":"Altamont Street"},{"Latitude":"52.6505822","Longitude":"-7.2288936","Name":"Altamount Park"},{"Latitude":"53.8289610","Longitude":"-6.7965322","Name":"Altmush Bridge"},{"Latitude":"53.4222439","Longitude":"-7.8953867","Name":"Altown"},{"Latitude":"53.6819101","Longitude":"-6.2442255","Name":"Alverno Court"},{"Latitude":"53.4135329","Longitude":"-7.9043939","Name":"Alverno Drive"},{"Latitude":"54.1107910","Longitude":"-9.1503850","Name":"Amana Estate"},{"Latitude":"53.9502853","Longitude":"-8.0836613","Name":"Amber Court"},{"Latitude":"51.8687640","Longitude":"-8.4539740","Name":"Amberlay Way"},{"Latitude":"51.8684910","Longitude":"-8.4518034","Name":"Amberley"},{"Latitude":"51.8693227","Longitude":"-8.4537114","Name":"Amberley Avenue"},{"Latitude":"51.8699320","Longitude":"-8.4540822","Name":"Amberley Court"},{"Latitude":"51.8681722","Longitude":"-8.4541718","Name":"Amberley Drive"},{"Latitude":"51.8705818","Longitude":"-8.4529533","Name":"Amberley Green"},{"Latitude":"51.8713616","Longitude":"-8.4534456","Name":"Amberley Heights"},{"Latitude":"51.8705023","Longitude":"-8.4543322","Name":"Amberley Lawn"},{"Latitude":"51.8688017","Longitude":"-8.4513414","Name":"Amberley Park"},{"Latitude":"53.2934570","Longitude":"-6.3861379","Name":"Ambervale"},{"Latitude":"51.9039999","Longitude":"-9.4351055","Name":"Amelio Mews"},{"Latitude":"54.2242616","Longitude":"-9.9877073","Name":"American Street"},{"Latitude":"53.3501058","Longitude":"-6.2508232","Name":"Amiens Street"},{"Latitude":"54.3083870","Longitude":"-8.1840350","Name":"Amorset"},{"Latitude":"53.0934005","Longitude":"-8.2230631","Name":"An Baile Glas"},{"Latitude":"53.2936431","Longitude":"-9.0987468","Name":"An Bealach"},{"Latitude":"53.2817182","Longitude":"-9.1345554","Name":"An Bhuaile Bheag"},{"Latitude":"53.4704396","Longitude":"-7.1024673","Name":"An Boreen Bradagh"},{"Latitude":"53.2558469","Longitude":"-9.6129847","Name":"An Bothar Buí"},{"Latitude":"52.6728485","Longitude":"-8.6318389","Name":"An Bother Trasna"},{"Latitude":"52.6389832","Longitude":"-6.2378862","Name":"An Bán"},{"Latitude":"53.2525954","Longitude":"-9.3727116","Name":"An Bóthar Buí"},{"Latitude":"52.1391463","Longitude":"-10.2727291","Name":"An Bóthar Isarainn"},{"Latitude":"53.0840027","Longitude":"-9.5905795","Name":"An Bóthar Mór"},{"Latitude":"52.4024904","Longitude":"-6.9299943","Name":"An Caislean Maol"},{"Latitude":"53.2803801","Longitude":"-8.9807186","Name":"An Castan"},{"Latitude":"53.2938205","Longitude":"-8.7479898","Name":"An Chlárin"},{"Latitude":"52.1399385","Longitude":"-10.2815812","Name":"An Choill"},{"Latitude":"52.6830482","Longitude":"-7.0316926","Name":"An Choill Rua"},{"Latitude":"53.2454441","Longitude":"-9.3484642","Name":"An Choill Rua Thoir"},{"Latitude":"53.8673175","Longitude":"-8.4102355","Name":"An Choirrseach"},{"Latitude":"53.2867311","Longitude":"-9.1446714","Name":"An Chorrbhuaile (Lynch)"},{"Latitude":"53.2494101","Longitude":"-9.3240950","Name":"An Chré Dhubh"},{"Latitude":"53.2637956","Longitude":"-9.1218276","Name":"An Cimín Mór"},{"Latitude":"54.6969513","Longitude":"-8.7706221","Name":"An Clachan Gailf"},{"Latitude":"53.5832151","Longitude":"-6.1260927","Name":"An Claddagh"},{"Latitude":"53.6314509","Longitude":"-9.2344159","Name":"An Cladrach"},{"Latitude":"52.2187665","Longitude":"-8.5895779","Name":"An Clochar"},{"Latitude":"52.0851969","Longitude":"-7.6287010","Name":"An Cluain"},{"Latitude":"52.2431270","Longitude":"-6.3408833","Name":"An Cnocan"},{"Latitude":"53.2461779","Longitude":"-9.3170164","Name":"An Cnocán Glas"},{"Latitude":"53.2428760","Longitude":"-9.3176725","Name":"An Cnocán Glas (Theas)"},{"Latitude":"53.2424072","Longitude":"-9.3197317","Name":"An Cnocán Glas (Thiar Theas)"},{"Latitude":"52.9438100","Longitude":"-8.0383043","Name":"An Cosán Cúil"},{"Latitude":"53.1990698","Longitude":"-8.5839974","Name":"An Crannóg"},{"Latitude":"53.2884613","Longitude":"-6.6839160","Name":"An Crocán"},{"Latitude":"51.9057592","Longitude":"-8.3534047","Name":"An Crompán"},{"Latitude":"53.2636127","Longitude":"-9.6118459","Name":"An Cuileáin"},{"Latitude":"53.2805238","Longitude":"-9.0070767","Name":"An Culan"},{"Latitude":"51.4378268","Longitude":"-9.5048752","Name":"An Cumar"},{"Latitude":"52.1374613","Longitude":"-10.2714505","Name":"An Cúilín"},{"Latitude":"52.1796187","Longitude":"-7.3318090","Name":"An Dallan"},{"Latitude":"53.5693706","Longitude":"-7.7759143","Name":"An Draighneán"},{"Latitude":"53.4377853","Longitude":"-8.8703325","Name":"An Dúnán"},{"Latitude":"51.6836751","Longitude":"-9.4447822","Name":"An Fanan"},{"Latitude":"53.2805771","Longitude":"-8.9825488","Name":"An Fiodán"},{"Latitude":"53.2794104","Longitude":"-8.9846253","Name":"An Fiodán Beag"},{"Latitude":"53.9052539","Longitude":"-8.5742536","Name":"An Garran"},{"Latitude":"53.2070446","Longitude":"-8.5730535","Name":"An Ghairdín Cúil"},{"Latitude":"51.5159147","Longitude":"-9.1956823","Name":"An Glaisín Álainn"},{"Latitude":"52.5139365","Longitude":"-6.5804522","Name":"An Glasan"},{"Latitude":"52.8380964","Longitude":"-8.9622298","Name":"An Gleann"},{"Latitude":"52.1468152","Longitude":"-8.3997141","Name":"An Gleann Úll"},{"Latitude":"53.5668769","Longitude":"-8.2526670","Name":"An Graig"},{"Latitude":"53.6311418","Longitude":"-9.2335878","Name":"An Lantan"},{"Latitude":"53.2519085","Longitude":"-9.1533499","Name":"An Leac Lian"},{"Latitude":"53.2702749","Longitude":"-9.0959488","Name":"An Logán"},{"Latitude":"53.2906870","Longitude":"-8.9925941","Name":"An Luasán"},{"Latitude":"52.0514031","Longitude":"-7.8898156","Name":"An Maoilin"},{"Latitude":"52.1402803","Longitude":"-10.2678967","Name":"An Meal"},{"Latitude":"53.3441465","Longitude":"-8.9419519","Name":"An Mhainistir"},{"Latitude":"52.8372030","Longitude":"-8.9591550","Name":"An Pairc"},{"Latitude":"54.2238056","Longitude":"-9.9884416","Name":"An Phríomh Shraíd"},{"Latitude":"53.2955463","Longitude":"-9.0104760","Name":"An Páirc Mór"},{"Latitude":"51.8635552","Longitude":"-8.4158249","Name":"An Radharc"},{"Latitude":"51.8624832","Longitude":"-8.4167961","Name":"An Radharc Upper"},{"Latitude":"53.2448131","Longitude":"-9.6166580","Name":"An Rinn"},{"Latitude":"51.9148748","Longitude":"-8.2533859","Name":"An Rodan"},{"Latitude":"51.5104224","Longitude":"-9.2174714","Name":"An Scoth Bhán / Scobaun"},{"Latitude":"53.2873003","Longitude":"-8.9830563","Name":"An Sean Bhaile"},{"Latitude":"52.8582116","Longitude":"-8.9566333","Name":"An Sean Dun"},{"Latitude":"53.2498287","Longitude":"-9.2809477","Name":"An Sián"},{"Latitude":"52.0477811","Longitude":"-8.7301581","Name":"An Sraide Bhaile"},{"Latitude":"53.1968414","Longitude":"-8.5603888","Name":"An Sruthán"},{"Latitude":"52.5928859","Longitude":"-6.2790594","Name":"An Tardan"},{"Latitude":"53.9053843","Longitude":"-6.8157881","Name":"An Tor Aonarach"},{"Latitude":"53.2965428","Longitude":"-9.0305475","Name":"An Triantán"},{"Latitude":"51.8614386","Longitude":"-7.9988614","Name":"An Trá Geal"},{"Latitude":"53.2439446","Longitude":"-9.3578117","Name":"An Trá Mór"},{"Latitude":"53.2904836","Longitude":"-9.5951611","Name":"An Tuairín"},{"Latitude":"53.2454183","Longitude":"-9.3215458","Name":"An Tuar Beag"},{"Latitude":"53.2456527","Longitude":"-9.3050355","Name":"An Tulán Cleasach"},{"Latitude":"54.2629716","Longitude":"-8.4707623","Name":"An tArd"},{"Latitude":"52.6782662","Longitude":"-6.3943510","Name":"An tOileán"},{"Latitude":"52.1428137","Longitude":"-10.2707674","Name":"An tSráid Mhór"},{"Latitude":"53.4939279","Longitude":"-7.0689481","Name":"Anadruce Bridge"},{"Latitude":"53.8260849","Longitude":"-8.6274995","Name":"Anagalliagh Bridge"},{"Latitude":"54.1779699","Longitude":"-7.2305564","Name":"Analore Street"},{"Latitude":"53.0311885","Longitude":"-6.2521641","Name":"Anamoe Bridge"},{"Latitude":"53.2753433","Longitude":"-6.0994011","Name":"Anastasia Lane"},{"Latitude":"52.9812092","Longitude":"-7.5623010","Name":"Anatrim Bridge"},{"Latitude":"54.0586988","Longitude":"-6.3333739","Name":"Anaverna Bridge"},{"Latitude":"51.8995742","Longitude":"-8.4639404","Name":"Anderson's Quay"},{"Latitude":"51.8994029","Longitude":"-8.4648624","Name":"Anderson's Street"},{"Latitude":"54.7821590","Longitude":"-7.7845745","Name":"Andie's Lane"},{"Latitude":"52.2591812","Longitude":"-7.1186189","Name":"Andrew Street"},{"Latitude":"52.2587306","Longitude":"-7.1187209","Name":"Andrew's Court"},{"Latitude":"52.8405275","Longitude":"-6.9318581","Name":"Andy Murphy Road"},{"Latitude":"52.8320496","Longitude":"-6.9213692","Name":"Angels Walk"},{"Latitude":"53.2980537","Longitude":"-6.1805110","Name":"Angelsea Avenue"},{"Latitude":"52.6681400","Longitude":"-8.5954087","Name":"Angler's Walk"},{"Latitude":"53.3219808","Longitude":"-6.2315401","Name":"Anglesea"},{"Latitude":"53.2716557","Longitude":"-6.1189904","Name":"Anglesea Park"},{"Latitude":"51.8954075","Longitude":"-8.4654975","Name":"Anglesea Place"},{"Latitude":"53.3196096","Longitude":"-6.2313910","Name":"Anglesea Road"},{"Latitude":"53.3491248","Longitude":"-6.2697543","Name":"Anglesea Row"},{"Latitude":"51.8947516","Longitude":"-8.4649177","Name":"Anglesea Street"},{"Latitude":"51.8947463","Longitude":"-8.4648434","Name":"Anglesea Terrace"},{"Latitude":"53.3193272","Longitude":"-6.2322337","Name":"Anglesey Bridge"},{"Latitude":"52.6516915","Longitude":"-8.0942058","Name":"Anglesey Road"},{"Latitude":"53.0897071","Longitude":"-6.2205534","Name":"Anna Carter Bridge"},{"Latitude":"53.3774356","Longitude":"-6.4397016","Name":"Anna Liffey Mills Road"},{"Latitude":"53.3478416","Longitude":"-6.3458200","Name":"Anna Livia Bridge"},{"Latitude":"53.3223217","Longitude":"-6.2510974","Name":"Anna Villa"},{"Latitude":"52.1402398","Longitude":"-8.6606267","Name":"Annabella Court"},{"Latitude":"52.1413303","Longitude":"-8.6619767","Name":"Annabella Park"},{"Latitude":"52.8501716","Longitude":"-8.4812792","Name":"Annacarriga Bridge"},{"Latitude":"52.5653418","Longitude":"-8.1113323","Name":"Annacarty Court"},{"Latitude":"52.6678194","Longitude":"-8.5367024","Name":"Annacotty Roundabout"},{"Latitude":"52.6677677","Longitude":"-8.5290675","Name":"Annacotty Square"},{"Latitude":"52.8403537","Longitude":"-6.3552564","Name":"Annacurragh Bridge"},{"Latitude":"53.2946530","Longitude":"-6.2552219","Name":"Annadale"},{"Latitude":"53.3666502","Longitude":"-6.2402824","Name":"Annadale Avenue"},{"Latitude":"53.3709947","Longitude":"-6.2396756","Name":"Annadale Crescent"},{"Latitude":"53.3699764","Longitude":"-6.2404372","Name":"Annadale Drive"},{"Latitude":"52.1039693","Longitude":"-9.7833157","Name":"Annadale Road"},{"Latitude":"54.0016161","Longitude":"-6.9579399","Name":"Annafarney Bridge"},{"Latitude":"52.7810026","Longitude":"-9.4364510","Name":"Annageeragh Bridge"},{"Latitude":"53.9119650","Longitude":"-6.8079857","Name":"Annagh"},{"Latitude":"52.8276416","Longitude":"-9.4115792","Name":"Annagh Bridge"},{"Latitude":"52.6761819","Longitude":"-6.2960717","Name":"Annagh Close"},{"Latitude":"53.3945714","Longitude":"-6.3742488","Name":"Annagh Court"},{"Latitude":"52.8748522","Longitude":"-9.1785069","Name":"Annagh Dun"},{"Latitude":"52.5792356","Longitude":"-6.2883214","Name":"Annagh Lane"},{"Latitude":"52.9151484","Longitude":"-8.2522249","Name":"Annaghbeg Bridge"},{"Latitude":"53.1986000","Longitude":"-8.4638234","Name":"Annaghbride"},{"Latitude":"53.4213327","Longitude":"-9.2837138","Name":"Annaghkeelaun"},{"Latitude":"52.8934939","Longitude":"-8.6581984","Name":"Annaghneal Bridge"},{"Latitude":"54.3383034","Longitude":"-6.8755500","Name":"Annaghroe Bridge"},{"Latitude":"54.3446816","Longitude":"-6.8513062","Name":"Annaghroe Road"},{"Latitude":"53.0301770","Longitude":"-6.1806100","Name":"Annagolan Bridge"},{"Latitude":"52.7573406","Longitude":"-8.7756081","Name":"Annagore Bridge"},{"Latitude":"52.2244803","Longitude":"-8.7293557","Name":"Annagorp Bridge"},{"Latitude":"54.2507229","Longitude":"-6.9504630","Name":"Annahagh Lane"},{"Latitude":"52.9389365","Longitude":"-9.0996797","Name":"Annalabba Bridge"},{"Latitude":"53.0571282","Longitude":"-6.4255581","Name":"Annalecka Bridge"},{"Latitude":"51.9053061","Longitude":"-8.4505743","Name":"Annalee Grove"},{"Latitude":"53.3919375","Longitude":"-6.4352414","Name":"Annaly Close"},{"Latitude":"53.3924178","Longitude":"-6.4350725","Name":"Annaly Court"},{"Latitude":"53.3920488","Longitude":"-6.4338001","Name":"Annaly Drive"},{"Latitude":"53.3918214","Longitude":"-6.4338046","Name":"Annaly Grove"},{"Latitude":"53.7273744","Longitude":"-7.8042063","Name":"Annaly Park"},{"Latitude":"53.3636311","Longitude":"-6.2875296","Name":"Annaly Road"},{"Latitude":"53.3920464","Longitude":"-6.4331963","Name":"Annaly Terrace"},{"Latitude":"53.3588335","Longitude":"-6.2856084","Name":"Annamoe Drive"},{"Latitude":"53.3595820","Longitude":"-6.2854751","Name":"Annamoe Park"},{"Latitude":"53.3601194","Longitude":"-6.2894552","Name":"Annamoe Road"},{"Latitude":"53.3600202","Longitude":"-6.2866358","Name":"Annamoe Terrace"},{"Latitude":"53.9803995","Longitude":"-6.3727106","Name":"Annaville"},{"Latitude":"53.2874187","Longitude":"-6.1771704","Name":"Annaville Avenue"},{"Latitude":"53.2990968","Longitude":"-6.2448743","Name":"Annaville Grove"},{"Latitude":"53.2984349","Longitude":"-6.2435702","Name":"Annaville Lodge"},{"Latitude":"53.2983594","Longitude":"-6.2451084","Name":"Annaville Park"},{"Latitude":"52.8618613","Longitude":"-8.2074086","Name":"Annbrook Heights"},{"Latitude":"53.2906173","Longitude":"-6.3018538","Name":"Anne Devlin Avenue"},{"Latitude":"53.2910388","Longitude":"-6.3031166","Name":"Anne Devlin Drive"},{"Latitude":"53.2894255","Longitude":"-6.2992304","Name":"Anne Devlin Park"},{"Latitude":"53.2917538","Longitude":"-6.3045710","Name":"Anne Devlin Road"},{"Latitude":"52.2624518","Longitude":"-7.1187839","Name":"Anne Street"},{"Latitude":"53.3496930","Longitude":"-6.2724482","Name":"Anne Street North"},{"Latitude":"53.3410213","Longitude":"-6.2590185","Name":"Anne Street South"},{"Latitude":"52.2105943","Longitude":"-9.0115696","Name":"Anne's Bridge"},{"Latitude":"52.1667644","Longitude":"-7.5194075","Name":"Anne's Court"},{"Latitude":"53.3406887","Longitude":"-6.2596319","Name":"Anne's Lane"},{"Latitude":"53.0338084","Longitude":"-7.2917047","Name":"Annebrook"},{"Latitude":"51.7335148","Longitude":"-9.2195046","Name":"Annees Bridge"},{"Latitude":"52.7129870","Longitude":"-8.5802435","Name":"Annegrove Bridge"},{"Latitude":"53.3385197","Longitude":"-6.3112707","Name":"Anner Road"},{"Latitude":"53.3597837","Longitude":"-6.2418726","Name":"Annesley Avenue"},{"Latitude":"53.3608653","Longitude":"-6.2387285","Name":"Annesley Bridge"},{"Latitude":"53.3617555","Longitude":"-6.2376588","Name":"Annesley Bridge Road"},{"Latitude":"53.3602459","Longitude":"-6.2423670","Name":"Annesley Close"},{"Latitude":"53.3205178","Longitude":"-6.2569861","Name":"Annesley Park"},{"Latitude":"53.3604491","Longitude":"-6.2405333","Name":"Annesley Place"},{"Latitude":"51.8943809","Longitude":"-8.4966854","Name":"Anneville"},{"Latitude":"53.7219451","Longitude":"-6.3574254","Name":"Anneville Crescent"},{"Latitude":"53.7221948","Longitude":"-6.3567818","Name":"Anneville House"},{"Latitude":"53.3728842","Longitude":"-6.4057300","Name":"Annfied Lawn"},{"Latitude":"52.7105594","Longitude":"-7.9402634","Name":"Annfield Bridge"},{"Latitude":"53.3753037","Longitude":"-6.4043658","Name":"Annfield Close"},{"Latitude":"53.3740943","Longitude":"-6.4050834","Name":"Annfield Court"},{"Latitude":"53.3744266","Longitude":"-6.4071255","Name":"Annfield Crescent"},{"Latitude":"53.3750116","Longitude":"-6.4055610","Name":"Annfield Drive"},{"Latitude":"53.3736019","Longitude":"-6.4070544","Name":"Annfield View"},{"Latitude":"54.2701875","Longitude":"-9.7225088","Name":"Annie Brady Bridge"},{"Latitude":"54.1465683","Longitude":"-7.2628117","Name":"Annies Bridge"},{"Latitude":"51.9140442","Longitude":"-8.3342678","Name":"Annmount"},{"Latitude":"53.2207182","Longitude":"-7.0029836","Name":"Annsboro View"},{"Latitude":"53.2674074","Longitude":"-6.8184312","Name":"Annsborough Court"},{"Latitude":"53.3093082","Longitude":"-6.2368752","Name":"Annsbrook"},{"Latitude":"53.4257995","Longitude":"-7.9624306","Name":"Annsfield Woods"},{"Latitude":"53.2870565","Longitude":"-6.2149335","Name":"Annville Drive"},{"Latitude":"52.3292644","Longitude":"-6.4490662","Name":"Antelope Road"},{"Latitude":"53.6217086","Longitude":"-8.1901147","Name":"Antogher Close"},{"Latitude":"53.6208991","Longitude":"-8.1940070","Name":"Antogher Court"},{"Latitude":"53.6221235","Longitude":"-8.1950989","Name":"Antogher Road"},{"Latitude":"52.4415374","Longitude":"-6.4756760","Name":"Anvil Court"},{"Latitude":"52.8132356","Longitude":"-8.9679539","Name":"Aonach An Chlar"},{"Latitude":"53.3929312","Longitude":"-6.2131179","Name":"Apollo Way"},{"Latitude":"52.2447004","Longitude":"-7.0867848","Name":"Appian Close"},{"Latitude":"52.2461568","Longitude":"-7.0866958","Name":"Appian Grove"},{"Latitude":"53.3273932","Longitude":"-6.2486959","Name":"Appian Way"},{"Latitude":"53.2795163","Longitude":"-6.2248211","Name":"Apples Road"},{"Latitude":"51.8614438","Longitude":"-8.4124049","Name":"Applewood"},{"Latitude":"53.4701846","Longitude":"-6.2307216","Name":"Applewood Avenue"},{"Latitude":"53.4694002","Longitude":"-6.2304217","Name":"Applewood Avenue East"},{"Latitude":"53.4703797","Longitude":"-6.2320386","Name":"Applewood Avenue West"},{"Latitude":"53.4705609","Longitude":"-6.2298110","Name":"Applewood Close"},{"Latitude":"53.4698302","Longitude":"-6.2304366","Name":"Applewood Court"},{"Latitude":"53.4709559","Longitude":"-6.2344398","Name":"Applewood Crescent"},{"Latitude":"53.4705292","Longitude":"-6.2346722","Name":"Applewood Drive"},{"Latitude":"53.4705285","Longitude":"-6.2331400","Name":"Applewood Gardens"},{"Latitude":"53.4718819","Longitude":"-6.2335216","Name":"Applewood Grove"},{"Latitude":"53.1455441","Longitude":"-6.0815081","Name":"Applewood Heights"},{"Latitude":"53.4703598","Longitude":"-6.2295513","Name":"Applewood Lane"},{"Latitude":"53.4711790","Longitude":"-6.2335900","Name":"Applewood Lawn"},{"Latitude":"53.4709297","Longitude":"-6.2321171","Name":"Applewood Main Street"},{"Latitude":"53.4705144","Longitude":"-6.2317434","Name":"Applewood Mews"},{"Latitude":"53.4703326","Longitude":"-6.2312036","Name":"Applewood Place"},{"Latitude":"53.4701350","Longitude":"-6.2351449","Name":"Applewood Roundabout"},{"Latitude":"53.4709895","Longitude":"-6.2325612","Name":"Applewood Square"},{"Latitude":"53.4712270","Longitude":"-6.2325507","Name":"Applewood Village Green"},{"Latitude":"52.4395867","Longitude":"-8.0374982","Name":"Ara Bridge"},{"Latitude":"51.8791731","Longitude":"-8.4957411","Name":"Araglen Court"},{"Latitude":"52.6321689","Longitude":"-8.3204120","Name":"Araglin Bridge"},{"Latitude":"53.2461597","Longitude":"-6.1252801","Name":"Aran Avenue"},{"Latitude":"53.2455514","Longitude":"-6.1245611","Name":"Aran Close"},{"Latitude":"53.3929170","Longitude":"-6.3741930","Name":"Aran Court"},{"Latitude":"53.2894648","Longitude":"-6.2776128","Name":"Aranleigh Court"},{"Latitude":"53.2877390","Longitude":"-6.2756436","Name":"Aranleigh Dell"},{"Latitude":"53.2888174","Longitude":"-6.2775102","Name":"Aranleigh Gardens"},{"Latitude":"53.2899561","Longitude":"-6.2812367","Name":"Aranleigh Mount"},{"Latitude":"53.2879126","Longitude":"-6.2756528","Name":"Aranleigh Park"},{"Latitude":"53.2879272","Longitude":"-6.2767004","Name":"Aranleigh Vale"},{"Latitude":"53.2726058","Longitude":"-9.0866904","Name":"Aras Bun Caise"},{"Latitude":"53.2636429","Longitude":"-9.0707156","Name":"Arasain Na Mara"},{"Latitude":"53.1998599","Longitude":"-6.0997573","Name":"Aravon Court"},{"Latitude":"53.2001872","Longitude":"-6.1013012","Name":"Aravon Green"},{"Latitude":"52.2527959","Longitude":"-7.1320868","Name":"Arbor Road"},{"Latitude":"51.8690911","Longitude":"-8.4503786","Name":"Arbour Court"},{"Latitude":"51.8174057","Longitude":"-8.3787331","Name":"Arbour Heights"},{"Latitude":"53.3495610","Longitude":"-6.2897558","Name":"Arbour Hill"},{"Latitude":"53.3506026","Longitude":"-6.2832868","Name":"Arbour Place"},{"Latitude":"53.3495872","Longitude":"-6.2900860","Name":"Arbour Terrace"},{"Latitude":"54.1174775","Longitude":"-9.1484230","Name":"Arbuckle Row"},{"Latitude":"53.3298653","Longitude":"-6.2817600","Name":"Arbutus Avenue"},{"Latitude":"53.2725025","Longitude":"-7.4868889","Name":"Arbutus Court"},{"Latitude":"52.0658621","Longitude":"-9.4966186","Name":"Arbutus Drive"},{"Latitude":"53.2071444","Longitude":"-6.1196008","Name":"Arbutus Grove"},{"Latitude":"53.3337248","Longitude":"-6.2734149","Name":"Arbutus Place"},{"Latitude":"53.4311989","Longitude":"-7.9274978","Name":"Arcadia"},{"Latitude":"52.2688080","Longitude":"-8.2710382","Name":"Arch Avenue"},{"Latitude":"51.6936530","Longitude":"-8.5264940","Name":"Archdeacon Duggan Bridge"},{"Latitude":"53.7345657","Longitude":"-6.8804541","Name":"Archdeaconry View"},{"Latitude":"52.6411694","Longitude":"-7.2403039","Name":"Archer's Court"},{"Latitude":"52.6399069","Longitude":"-7.2392284","Name":"Archer's Crescent"},{"Latitude":"52.6470033","Longitude":"-7.2456682","Name":"Archers Avenue"},{"Latitude":"52.6472903","Longitude":"-7.2429155","Name":"Archersfield"},{"Latitude":"52.6631444","Longitude":"-7.7954919","Name":"Archerstown"},{"Latitude":"52.6587752","Longitude":"-7.7951553","Name":"Archerstown Industrial Estate"},{"Latitude":"53.5205391","Longitude":"-6.3861292","Name":"Archerstown Road"},{"Latitude":"53.5127672","Longitude":"-6.3910457","Name":"Archerstown Wood"},{"Latitude":"53.4036761","Longitude":"-6.4098371","Name":"Archerswood"},{"Latitude":"53.5717274","Longitude":"-7.7945125","Name":"Archie's Bridge"},{"Latitude":"53.2124833","Longitude":"-6.6773726","Name":"Arconagh"},{"Latitude":"51.9602444","Longitude":"-8.3384822","Name":"Ard Abhainn"},{"Latitude":"54.9488155","Longitude":"-7.7483051","Name":"Ard Adhamhnain"},{"Latitude":"54.0489529","Longitude":"-8.7326598","Name":"Ard Aisling"},{"Latitude":"53.9466088","Longitude":"-8.0874398","Name":"Ard Alainn"},{"Latitude":"53.3021075","Longitude":"-8.7521087","Name":"Ard Aobhínn"},{"Latitude":"53.1970389","Longitude":"-7.6264762","Name":"Ard Aoibheann"},{"Latitude":"51.7689449","Longitude":"-8.6579713","Name":"Ard Aoibhinn"},{"Latitude":"53.2841072","Longitude":"-9.0109790","Name":"Ard Aoibhinn Drive"},{"Latitude":"53.6279656","Longitude":"-8.1781347","Name":"Ard Aoibhínn"},{"Latitude":"51.9192470","Longitude":"-8.3995108","Name":"Ard Barra"},{"Latitude":"52.3409100","Longitude":"-6.8005028","Name":"Ard Beg"},{"Latitude":"51.8870297","Longitude":"-9.5994099","Name":"Ard Bhearna"},{"Latitude":"52.6386528","Longitude":"-8.6352930","Name":"Ard Bracken"},{"Latitude":"53.2023364","Longitude":"-8.5592985","Name":"Ard Breeda"},{"Latitude":"53.1140997","Longitude":"-6.8591380","Name":"Ard Brid"},{"Latitude":"52.8634216","Longitude":"-8.9824985","Name":"Ard Caoin"},{"Latitude":"52.3281527","Longitude":"-6.4781088","Name":"Ard Carman"},{"Latitude":"53.3200143","Longitude":"-8.1805385","Name":"Ard Carn Roundabout"},{"Latitude":"52.8419065","Longitude":"-8.9896907","Name":"Ard Carraig"},{"Latitude":"51.8723994","Longitude":"-8.3410844","Name":"Ard Chuain"},{"Latitude":"52.8054194","Longitude":"-8.4340621","Name":"Ard Coillte"},{"Latitude":"55.2533932","Longitude":"-7.2744770","Name":"Ard Colgan"},{"Latitude":"55.2526391","Longitude":"-7.2736141","Name":"Ard Colgan Lwr"},{"Latitude":"55.2520134","Longitude":"-7.2737281","Name":"Ard Colgan Upr"},{"Latitude":"52.6487146","Longitude":"-6.6545087","Name":"Ard Colm"},{"Latitude":"54.9568897","Longitude":"-7.7369788","Name":"Ard Colm Cille"},{"Latitude":"53.6281921","Longitude":"-8.1907313","Name":"Ard Comain"},{"Latitude":"54.7645318","Longitude":"-8.4163514","Name":"Ard Connell"},{"Latitude":"53.6281510","Longitude":"-8.1903896","Name":"Ard Cumman"},{"Latitude":"51.9433358","Longitude":"-8.5605875","Name":"Ard Dara Avenue"},{"Latitude":"51.9439306","Longitude":"-8.5638090","Name":"Ard Dara Crescent"},{"Latitude":"51.9431794","Longitude":"-8.5618094","Name":"Ard Dara Drive"},{"Latitude":"51.9442882","Longitude":"-8.5628618","Name":"Ard Dara Grove"},{"Latitude":"51.9435812","Longitude":"-8.5630120","Name":"Ard Dara Lawn"},{"Latitude":"51.9444572","Longitude":"-8.5627705","Name":"Ard Dara View"},{"Latitude":"53.9063003","Longitude":"-8.5745119","Name":"Ard Doirin"},{"Latitude":"53.8999299","Longitude":"-6.8123623","Name":"Ard Dun"},{"Latitude":"54.0062466","Longitude":"-6.4141581","Name":"Ard Easmuinn Road"},{"Latitude":"53.3230806","Longitude":"-9.8709662","Name":"Ard East"},{"Latitude":"52.9752225","Longitude":"-7.4997675","Name":"Ard Edmond"},{"Latitude":"52.9960350","Longitude":"-7.4784050","Name":"Ard Erín"},{"Latitude":"53.3069129","Longitude":"-8.7507292","Name":"Ard Esker"},{"Latitude":"52.3591739","Longitude":"-7.7115890","Name":"Ard Fatima"},{"Latitude":"52.3645089","Longitude":"-7.7113383","Name":"Ard Gaoithe"},{"Latitude":"53.0701059","Longitude":"-8.8253024","Name":"Ard Ghuire"},{"Latitude":"53.3948859","Longitude":"-7.7040271","Name":"Ard Grainne"},{"Latitude":"52.6768054","Longitude":"-6.3011663","Name":"Ard Lios"},{"Latitude":"53.2858447","Longitude":"-6.1969360","Name":"Ard Lorcan"},{"Latitude":"53.2864086","Longitude":"-6.1965757","Name":"Ard Lorcan Close"},{"Latitude":"53.2867894","Longitude":"-6.1955650","Name":"Ard Lorcan Villas"},{"Latitude":"52.8069600","Longitude":"-8.4339735","Name":"Ard Lua"},{"Latitude":"54.8029886","Longitude":"-7.7692278","Name":"Ard McCool"},{"Latitude":"53.2779998","Longitude":"-6.3676653","Name":"Ard Mhacaca"},{"Latitude":"53.3271102","Longitude":"-8.2399176","Name":"Ard Mhuire"},{"Latitude":"53.2711447","Longitude":"-6.1134433","Name":"Ard Mhuire Park"},{"Latitude":"53.7296979","Longitude":"-7.7833541","Name":"Ard Michael"},{"Latitude":"53.2871475","Longitude":"-6.4167979","Name":"Ard Mor Avenue"},{"Latitude":"53.2881291","Longitude":"-6.4152120","Name":"Ard Mor Close"},{"Latitude":"53.2885497","Longitude":"-6.4144860","Name":"Ard Mor Court"},{"Latitude":"53.2860650","Longitude":"-6.4165379","Name":"Ard Mor Crescent"},{"Latitude":"53.2868861","Longitude":"-6.4157055","Name":"Ard Mor Drive"},{"Latitude":"53.2880475","Longitude":"-6.4170344","Name":"Ard Mor Green"},{"Latitude":"53.2871475","Longitude":"-6.4167979","Name":"Ard Mor Lawn"},{"Latitude":"53.2878207","Longitude":"-6.4160251","Name":"Ard Mor Park"},{"Latitude":"53.2875229","Longitude":"-6.4140978","Name":"Ard Mor Walk"},{"Latitude":"51.8818646","Longitude":"-9.5984825","Name":"Ard Mullen"},{"Latitude":"53.3419522","Longitude":"-8.9472810","Name":"Ard Mullán"},{"Latitude":"53.2972141","Longitude":"-9.0296468","Name":"Ard Na Chóiste"},{"Latitude":"54.1042852","Longitude":"-6.2500347","Name":"Ard Na Cluana"},{"Latitude":"53.2699575","Longitude":"-9.0746264","Name":"Ard Na Coille"},{"Latitude":"52.3187636","Longitude":"-6.4737373","Name":"Ard Na Cuan"},{"Latitude":"53.1932238","Longitude":"-8.5577594","Name":"Ard Na Gaoithe"},{"Latitude":"51.6792786","Longitude":"-9.4381316","Name":"Ard Na Gleann"},{"Latitude":"52.2573355","Longitude":"-7.1283416","Name":"Ard Na Greine"},{"Latitude":"52.3576577","Longitude":"-7.6917635","Name":"Ard Na Gréine"},{"Latitude":"52.2742994","Longitude":"-9.6876615","Name":"Ard Na Lí"},{"Latitude":"53.4488432","Longitude":"-6.1727620","Name":"Ard Na Mara"},{"Latitude":"51.8885643","Longitude":"-8.4831173","Name":"Ard Na Ri Avenue"},{"Latitude":"53.6398868","Longitude":"-8.1991349","Name":"Ard Na Rí"},{"Latitude":"52.3307937","Longitude":"-6.4990510","Name":"Ard Na Slaine"},{"Latitude":"53.9409539","Longitude":"-8.0714538","Name":"Ard Na Sí"},{"Latitude":"51.9094163","Longitude":"-8.4711135","Name":"Ard Patrick Avenue"},{"Latitude":"51.9097688","Longitude":"-8.4701987","Name":"Ard Patrick Close"},{"Latitude":"53.7039275","Longitude":"-6.3491485","Name":"Ard Ri"},{"Latitude":"53.3503981","Longitude":"-6.2854129","Name":"Ard Righ Place"},{"Latitude":"53.3503981","Longitude":"-6.2854129","Name":"Ard Righ Road"},{"Latitude":"53.6141849","Longitude":"-8.2003258","Name":"Ard Rí"},{"Latitude":"53.9575443","Longitude":"-6.3767070","Name":"Ard Shee"},{"Latitude":"52.3165231","Longitude":"-6.4767720","Name":"Ard Uisce"},{"Latitude":"53.3174382","Longitude":"-9.8834493","Name":"Ard West"},{"Latitude":"53.3151052","Longitude":"-9.8772346","Name":"Ard West Pier Road"},{"Latitude":"53.3976062","Longitude":"-7.7335652","Name":"Ard an Locha"},{"Latitude":"53.2876298","Longitude":"-6.4172907","Name":"Ard mor Dale"},{"Latitude":"52.1790000","Longitude":"-6.5853199","Name":"Ard na Ba"},{"Latitude":"51.7098464","Longitude":"-8.5274050","Name":"Ard na Bhaile"},{"Latitude":"54.6595994","Longitude":"-8.6370399","Name":"Ard na Carraige"},{"Latitude":"51.9106605","Longitude":"-8.4185801","Name":"Ard na Coille"},{"Latitude":"52.8453836","Longitude":"-8.9947061","Name":"Ard na Gaoithe"},{"Latitude":"52.6360877","Longitude":"-8.6361008","Name":"Ard na Greine"},{"Latitude":"53.2604513","Longitude":"-9.6084826","Name":"Ard na Gréine"},{"Latitude":"53.9862433","Longitude":"-7.3560309","Name":"Ard na Gréinne"},{"Latitude":"53.9987829","Longitude":"-7.3473860","Name":"Ard na Laoí"},{"Latitude":"53.2913661","Longitude":"-9.0841501","Name":"Ard na Locha"},{"Latitude":"52.8166946","Longitude":"-8.8579290","Name":"Ard na Mainistreach"},{"Latitude":"53.4503326","Longitude":"-6.1687783","Name":"Ard na Mara"},{"Latitude":"51.9196810","Longitude":"-8.4334851","Name":"Ard na Rí"},{"Latitude":"53.8628330","Longitude":"-7.3180177","Name":"Ard na Scoile"},{"Latitude":"52.3445779","Longitude":"-6.5026914","Name":"Ard na Slaine"},{"Latitude":"54.2675829","Longitude":"-8.4895116","Name":"Ard na Veigh"},{"Latitude":"52.9453964","Longitude":"-8.0405803","Name":"Ard na gCapall"},{"Latitude":"52.3922733","Longitude":"-6.9369186","Name":"Ard Áilinn"},{"Latitude":"52.3903349","Longitude":"-6.4495647","Name":"Ard Álainn"},{"Latitude":"53.2834521","Longitude":"-6.1826601","Name":"Ardagh Avenue"},{"Latitude":"53.2845800","Longitude":"-6.1810874","Name":"Ardagh Close"},{"Latitude":"53.2840583","Longitude":"-6.1879110","Name":"Ardagh Court"},{"Latitude":"53.2817648","Longitude":"-6.1855998","Name":"Ardagh Crescent"},{"Latitude":"53.2820025","Longitude":"-6.1826157","Name":"Ardagh Drive"},{"Latitude":"53.2831168","Longitude":"-6.1848390","Name":"Ardagh Grove"},{"Latitude":"51.9317648","Longitude":"-8.4589664","Name":"Ardagh Heights"},{"Latitude":"53.2846355","Longitude":"-6.1842233","Name":"Ardagh Park"},{"Latitude":"53.2841261","Longitude":"-6.1819190","Name":"Ardagh Park Road"},{"Latitude":"53.3280986","Longitude":"-6.3039128","Name":"Ardagh Road"},{"Latitude":"54.2732328","Longitude":"-8.4611755","Name":"Ardaghowen Lane"},{"Latitude":"54.2076804","Longitude":"-6.8994038","Name":"Ardaghy Bridge"},{"Latitude":"52.6289976","Longitude":"-6.2342281","Name":"Ardamine Court"},{"Latitude":"52.6277538","Longitude":"-6.2341958","Name":"Ardamine Grove"},{"Latitude":"53.2936308","Longitude":"-7.4902084","Name":"Ardan Lane"},{"Latitude":"53.2780234","Longitude":"-7.4913733","Name":"Ardan Road"},{"Latitude":"53.2881381","Longitude":"-7.4838656","Name":"Ardan Roundabout"},{"Latitude":"53.2801314","Longitude":"-7.4961252","Name":"Ardan View"},{"Latitude":"53.2890952","Longitude":"-7.4957726","Name":"Ardan Way"},{"Latitude":"53.9186004","Longitude":"-8.0315929","Name":"Ardanaffrin bridge"},{"Latitude":"53.3956132","Longitude":"-6.1691296","Name":"Ardara Avenue"},{"Latitude":"52.8846821","Longitude":"-8.3475364","Name":"Ardarra"},{"Latitude":"51.8686432","Longitude":"-8.4360408","Name":"Ardarrig Lawn"},{"Latitude":"53.4864834","Longitude":"-10.0201369","Name":"Ardbear New Bridge"},{"Latitude":"53.4865459","Longitude":"-10.0188701","Name":"Ardbear Old Bridge"},{"Latitude":"53.3861521","Longitude":"-6.2052309","Name":"Ardbeg Crescent"},{"Latitude":"53.3858384","Longitude":"-6.2055089","Name":"Ardbeg Drive"},{"Latitude":"53.3849521","Longitude":"-6.2056110","Name":"Ardbeg Park"},{"Latitude":"53.3843891","Longitude":"-6.2057826","Name":"Ardbeg Road"},{"Latitude":"51.7055849","Longitude":"-8.5100592","Name":"Ardbrack Heights"},{"Latitude":"53.4258293","Longitude":"-7.9635915","Name":"Ardbrae Park"},{"Latitude":"53.2727584","Longitude":"-6.1076249","Name":"Ardbrugh Close"},{"Latitude":"53.2721951","Longitude":"-6.1037542","Name":"Ardbrugh Road"},{"Latitude":"54.2535123","Longitude":"-8.4654187","Name":"Ardcairn"},{"Latitude":"51.7091776","Longitude":"-8.5316578","Name":"Ardcarrig"},{"Latitude":"53.5863608","Longitude":"-6.3813153","Name":"Ardcath Road"},{"Latitude":"52.3592096","Longitude":"-6.4503115","Name":"Ardcavan Business Park"},{"Latitude":"52.3613246","Longitude":"-6.4453542","Name":"Ardcavan Lane"},{"Latitude":"53.4656749","Longitude":"-6.2383104","Name":"Ardcian Park"},{"Latitude":"53.3826594","Longitude":"-6.2106132","Name":"Ardcollum Avenue"},{"Latitude":"54.1512607","Longitude":"-8.5464228","Name":"Ardcree Road"},{"Latitude":"53.7996720","Longitude":"-9.1279427","Name":"Ardcronan"},{"Latitude":"51.8025247","Longitude":"-8.2888563","Name":"Ardcross"},{"Latitude":"51.8033025","Longitude":"-8.2877811","Name":"Ardcross Court"},{"Latitude":"51.9040508","Longitude":"-8.5092428","Name":"Ardcullen"},{"Latitude":"51.9052258","Longitude":"-8.5097390","Name":"Ardcullen Close"},{"Latitude":"51.8035663","Longitude":"-9.7675669","Name":"Ardea Road"},{"Latitude":"54.2657024","Longitude":"-8.4984770","Name":"Ardee Drive"},{"Latitude":"53.9700801","Longitude":"-6.7171990","Name":"Ardee Road"},{"Latitude":"53.3381400","Longitude":"-6.2790976","Name":"Ardee Street"},{"Latitude":"53.9948511","Longitude":"-6.4151164","Name":"Ardee Terrace"},{"Latitude":"53.3550061","Longitude":"-6.4586753","Name":"Ardeen"},{"Latitude":"52.8618335","Longitude":"-6.7995123","Name":"Ardeen Bridge"},{"Latitude":"53.7270159","Longitude":"-7.7798018","Name":"Ardeevan"},{"Latitude":"53.5269684","Longitude":"-7.3229047","Name":"Ardeevin"},{"Latitude":"53.2749177","Longitude":"-6.1010842","Name":"Ardeevin Road"},{"Latitude":"53.2743796","Longitude":"-6.1004644","Name":"Ardeevin Terrace"},{"Latitude":"52.9911228","Longitude":"-8.1324583","Name":"Arden"},{"Latitude":"53.2843196","Longitude":"-7.4928010","Name":"Arden Heights"},{"Latitude":"53.2857241","Longitude":"-7.4925195","Name":"Arden Vale"},{"Latitude":"53.2989640","Longitude":"-6.1669210","Name":"Ardenza Park"},{"Latitude":"53.2989542","Longitude":"-6.1658883","Name":"Ardenza Terrace"},{"Latitude":"51.9118178","Longitude":"-8.4641547","Name":"Arderin Way"},{"Latitude":"54.6541915","Longitude":"-8.0999657","Name":"Ardeskin Heights"},{"Latitude":"53.3537973","Longitude":"-6.4569325","Name":"Ardevin Avenue"},{"Latitude":"53.3536650","Longitude":"-6.4547693","Name":"Ardevin Court"},{"Latitude":"53.3545061","Longitude":"-6.4557187","Name":"Ardevin Drive"},{"Latitude":"51.8929614","Longitude":"-8.4740690","Name":"Ardfalen Terrace"},{"Latitude":"51.8643368","Longitude":"-8.4517231","Name":"Ardfield Avenue"},{"Latitude":"51.8637249","Longitude":"-8.4493114","Name":"Ardfield Court"},{"Latitude":"51.8627114","Longitude":"-8.4476362","Name":"Ardfield Drive"},{"Latitude":"51.8635117","Longitude":"-8.4513121","Name":"Ardfield Green"},{"Latitude":"51.8634566","Longitude":"-8.4533112","Name":"Ardfield Grove"},{"Latitude":"51.8640475","Longitude":"-8.4527965","Name":"Ardfield Lawn"},{"Latitude":"51.8629427","Longitude":"-8.4510639","Name":"Ardfield Meadows"},{"Latitude":"51.8632990","Longitude":"-8.4478320","Name":"Ardfield Mews"},{"Latitude":"51.8628117","Longitude":"-8.4464930","Name":"Ardfield Park"},{"Latitude":"51.8623095","Longitude":"-8.4523140","Name":"Ardfield Road"},{"Latitude":"51.8631414","Longitude":"-8.4493987","Name":"Ardfield View"},{"Latitude":"54.2724605","Longitude":"-8.4930125","Name":"Ardfinn"},{"Latitude":"54.2731989","Longitude":"-8.4936477","Name":"Ardfinn Cresent"},{"Latitude":"54.2729210","Longitude":"-8.4920363","Name":"Ardfinn Grove"},{"Latitude":"51.8969679","Longitude":"-8.4312532","Name":"Ardfoyle Avenue"},{"Latitude":"51.8976069","Longitude":"-8.4322718","Name":"Ardfoyle Cresent"},{"Latitude":"53.5831239","Longitude":"-6.1266449","Name":"Ardgillan View"},{"Latitude":"53.5969068","Longitude":"-6.1751255","Name":"Ardgillen"},{"Latitude":"53.2848449","Longitude":"-6.2383304","Name":"Ardglas"},{"Latitude":"53.6328466","Longitude":"-7.5127482","Name":"Ardglass Bridge"},{"Latitude":"53.7126674","Longitude":"-7.0431333","Name":"Ardglassan Bridge"},{"Latitude":"53.4289438","Longitude":"-6.1361695","Name":"Ardilaun"},{"Latitude":"53.5228209","Longitude":"-7.3697604","Name":"Ardilaun Green"},{"Latitude":"53.5252399","Longitude":"-7.3670659","Name":"Ardilaun Heights"},{"Latitude":"53.3599414","Longitude":"-6.2482937","Name":"Ardilaun Road"},{"Latitude":"53.3594861","Longitude":"-6.2487880","Name":"Ardilaun Square"},{"Latitude":"52.6626632","Longitude":"-7.2485062","Name":"Ardilea"},{"Latitude":"53.2964412","Longitude":"-6.2264563","Name":"Ardilea Crescent"},{"Latitude":"53.2969327","Longitude":"-6.2211498","Name":"Ardilea Downs"},{"Latitude":"53.2975628","Longitude":"-6.2228074","Name":"Ardilea Wood"},{"Latitude":"53.2810816","Longitude":"-9.0683881","Name":"Ardillaun Road"},{"Latitude":"51.8692029","Longitude":"-8.4093395","Name":"Ardkeale"},{"Latitude":"52.1277220","Longitude":"-8.2888974","Name":"Ardkeen"},{"Latitude":"53.9252923","Longitude":"-7.4147294","Name":"Ardkill Place"},{"Latitude":"53.5744631","Longitude":"-6.1391879","Name":"Ardla Road"},{"Latitude":"53.5167345","Longitude":"-6.5467747","Name":"Ardlea"},{"Latitude":"52.8395924","Longitude":"-8.9816894","Name":"Ardlea Close"},{"Latitude":"53.3847175","Longitude":"-6.2086549","Name":"Ardlea Road"},{"Latitude":"52.2363456","Longitude":"-7.1110637","Name":"Ardleigh"},{"Latitude":"53.5185871","Longitude":"-7.3710651","Name":"Ardleigh Gate"},{"Latitude":"53.5203844","Longitude":"-7.3700611","Name":"Ardleigh Green"},{"Latitude":"53.5226940","Longitude":"-7.3690154","Name":"Ardleigh Park"},{"Latitude":"53.5239985","Longitude":"-7.3653044","Name":"Ardleigh Vale"},{"Latitude":"53.7875901","Longitude":"-6.8126477","Name":"Ardlonan Bridge"},{"Latitude":"53.2815965","Longitude":"-6.1842752","Name":"Ardlui Park"},{"Latitude":"53.8211934","Longitude":"-6.8478446","Name":"Ardmagh Bridge"},{"Latitude":"51.8852503","Longitude":"-8.4370598","Name":"Ardmahon Estate"},{"Latitude":"51.5272766","Longitude":"-9.5503739","Name":"Ardmanagh Drive"},{"Latitude":"51.5293274","Longitude":"-9.5549200","Name":"Ardmanagh Road"},{"Latitude":"51.8831277","Longitude":"-8.4864275","Name":"Ardmanning Avenue"},{"Latitude":"51.8835749","Longitude":"-8.4854544","Name":"Ardmanning Lawn"},{"Latitude":"52.5654273","Longitude":"-7.9238359","Name":"Ardmayle Bridge"},{"Latitude":"52.5248576","Longitude":"-7.8914186","Name":"Ardmayle Road"},{"Latitude":"53.2835380","Longitude":"-6.1801898","Name":"Ardmeen Park"},{"Latitude":"53.2671413","Longitude":"-9.0841115","Name":"Ardmore"},{"Latitude":"51.9074533","Longitude":"-8.5010160","Name":"Ardmore Avenue"},{"Latitude":"53.3875009","Longitude":"-6.2209183","Name":"Ardmore Close"},{"Latitude":"53.1977819","Longitude":"-6.1193226","Name":"Ardmore Crescent"},{"Latitude":"53.1971521","Longitude":"-6.1227506","Name":"Ardmore Cresent"},{"Latitude":"53.3895757","Longitude":"-6.2217415","Name":"Ardmore Drive"},{"Latitude":"53.6956775","Longitude":"-6.2613782","Name":"Ardmore Green"},{"Latitude":"53.3881218","Longitude":"-6.2206264","Name":"Ardmore Grove"},{"Latitude":"53.5196671","Longitude":"-7.3127445","Name":"Ardmore Hills"},{"Latitude":"53.6955429","Longitude":"-6.2623131","Name":"Ardmore Lane"},{"Latitude":"53.1958376","Longitude":"-6.1199395","Name":"Ardmore Lawn"},{"Latitude":"53.1996704","Longitude":"-6.1193982","Name":"Ardmore Park"},{"Latitude":"53.3068791","Longitude":"-9.7754825","Name":"Ardmore Pier"},{"Latitude":"53.7902377","Longitude":"-9.5499843","Name":"Ardmore Road"},{"Latitude":"53.6952590","Longitude":"-6.2608000","Name":"Ardmore View"},{"Latitude":"53.1946226","Longitude":"-6.1294461","Name":"Ardmore Wood"},{"Latitude":"53.1947801","Longitude":"-6.1274181","Name":"Ardmore wood"},{"Latitude":"51.9888961","Longitude":"-8.4612466","Name":"Ardnabricka Bridge"},{"Latitude":"53.7253875","Longitude":"-7.7799045","Name":"Ardnacassa"},{"Latitude":"53.7278940","Longitude":"-7.7838579","Name":"Ardnacassa Avenue"},{"Latitude":"53.7258526","Longitude":"-7.7818475","Name":"Ardnacassa Lawns"},{"Latitude":"53.7255796","Longitude":"-7.7776981","Name":"Ardnacassa Manor"},{"Latitude":"51.7202443","Longitude":"-9.4780809","Name":"Ardnagashel Holiday Homes"},{"Latitude":"53.4235406","Longitude":"-7.9092029","Name":"Ardnaglug"},{"Latitude":"51.9066235","Longitude":"-8.4532416","Name":"Ardnalee"},{"Latitude":"53.2579328","Longitude":"-9.0879843","Name":"Ardoon"},{"Latitude":"53.3628843","Longitude":"-6.3083747","Name":"Ardpatrick Road"},{"Latitude":"53.2078625","Longitude":"-7.1093704","Name":"Ardra Bridge"},{"Latitude":"53.3126443","Longitude":"-6.6042163","Name":"Ardrass Road"},{"Latitude":"52.9787857","Longitude":"-6.9780806","Name":"Ardreigh Mills Drawbridge"},{"Latitude":"52.9848584","Longitude":"-6.9858950","Name":"Ardreigh Walk"},{"Latitude":"52.9843680","Longitude":"-6.9881094","Name":"Ardrew Court"},{"Latitude":"52.9833835","Longitude":"-6.9891412","Name":"Ardrew Fields"},{"Latitude":"52.9827924","Longitude":"-6.9849863","Name":"Ardrew Heights"},{"Latitude":"52.9818645","Longitude":"-6.9906710","Name":"Ardrew Meadows"},{"Latitude":"52.9835465","Longitude":"-6.9892787","Name":"Ardrew Square"},{"Latitude":"51.8898493","Longitude":"-8.4811464","Name":"Ardross Estate"},{"Latitude":"53.7289598","Longitude":"-7.7997511","Name":"Ardrum Court"},{"Latitude":"53.6477993","Longitude":"-7.8461461","Name":"Ards Bridge"},{"Latitude":"53.6217818","Longitude":"-8.1719927","Name":"Ardsallagh Woods"},{"Latitude":"52.0619486","Longitude":"-9.4975355","Name":"Ardshanavooly"},{"Latitude":"53.0033963","Longitude":"-6.7160860","Name":"Ardsillish Bridge"},{"Latitude":"53.2956662","Longitude":"-6.4230881","Name":"Ardsolas"},{"Latitude":"52.7977466","Longitude":"-8.8882543","Name":"Ardsollus Bridge"},{"Latitude":"53.2956218","Longitude":"-6.2539497","Name":"Ardtona Avenue"},{"Latitude":"52.5106928","Longitude":"-6.5747234","Name":"Arduain"},{"Latitude":"53.7390968","Longitude":"-6.4166730","Name":"Ardá Raith Wood"},{"Latitude":"52.9098807","Longitude":"-6.8518075","Name":"Ardán Diarmada"},{"Latitude":"53.0352127","Longitude":"-7.3158338","Name":"Ardán Glas"},{"Latitude":"55.1172487","Longitude":"-8.1412961","Name":"Ardán Mhuire"},{"Latitude":"52.8733564","Longitude":"-8.2268765","Name":"Ardán Rua"},{"Latitude":"52.1443412","Longitude":"-10.2778541","Name":"Ardán an Aghasaigh"},{"Latitude":"53.7240276","Longitude":"-6.3422886","Name":"Ardán an Bhóthair Ghlais"},{"Latitude":"52.9097772","Longitude":"-6.8497315","Name":"Ardán na Coille"},{"Latitude":"53.2737890","Longitude":"-6.2076928","Name":"Arena Road"},{"Latitude":"51.8781260","Longitude":"-8.4945855","Name":"Argideen Lawn"},{"Latitude":"53.3250679","Longitude":"-6.2366135","Name":"Argyle Road"},{"Latitude":"52.7262729","Longitude":"-7.3723795","Name":"Arigna Bridge"},{"Latitude":"53.2800819","Longitude":"-6.1181670","Name":"Arkendale Court"},{"Latitude":"53.2804566","Longitude":"-6.1170042","Name":"Arkendale Road"},{"Latitude":"53.2808859","Longitude":"-6.1187517","Name":"Arkendale Woods"},{"Latitude":"53.5042961","Longitude":"-6.4001351","Name":"Arkle Hill"},{"Latitude":"53.2772811","Longitude":"-6.2093003","Name":"Arkle Road"},{"Latitude":"52.6822048","Longitude":"-6.2833197","Name":"Arklow Road"},{"Latitude":"53.3534323","Longitude":"-6.2916314","Name":"Arklow Street"},{"Latitude":"53.1526526","Longitude":"-7.1765287","Name":"Arlington Estate"},{"Latitude":"52.2731300","Longitude":"-7.1104764","Name":"Arlington Grove"},{"Latitude":"52.0615848","Longitude":"-9.5004117","Name":"Arlington Heights"},{"Latitude":"52.2723968","Longitude":"-7.1114282","Name":"Arlington Road"},{"Latitude":"54.0255200","Longitude":"-6.4096514","Name":"Armagh Road"},{"Latitude":"53.3288936","Longitude":"-6.2758896","Name":"Armstrong Street"},{"Latitude":"53.3934254","Longitude":"-6.2104107","Name":"Armstrong Walk"},{"Latitude":"53.2731625","Longitude":"-6.1299287","Name":"Arnold Grove"},{"Latitude":"53.2711433","Longitude":"-6.1302167","Name":"Arnold Park"},{"Latitude":"53.3346921","Longitude":"-6.2697091","Name":"Arnott Street"},{"Latitude":"52.8693356","Longitude":"-8.2088801","Name":"Arra Close"},{"Latitude":"52.4432663","Longitude":"-9.0543822","Name":"Arra View"},{"Latitude":"53.2462948","Longitude":"-6.1243465","Name":"Arran Drive"},{"Latitude":"53.3465999","Longitude":"-6.2801401","Name":"Arran Quay"},{"Latitude":"53.3741010","Longitude":"-6.2533773","Name":"Arran Road"},{"Latitude":"53.3464788","Longitude":"-6.2700660","Name":"Arran Street East"},{"Latitude":"53.3468674","Longitude":"-6.2788095","Name":"Arran Street West"},{"Latitude":"53.3610000","Longitude":"-6.2700731","Name":"Arranmore Avenue"},{"Latitude":"53.3244336","Longitude":"-6.2379456","Name":"Arranmore Road"},{"Latitude":"53.4275515","Longitude":"-6.2433371","Name":"Arrivals Road"},{"Latitude":"53.3645085","Longitude":"-6.9062618","Name":"Art's Bridge"},{"Latitude":"53.3828870","Longitude":"-6.2050619","Name":"Artane Roundabout"},{"Latitude":"53.3464442","Longitude":"-6.4421989","Name":"Arthur Griffith Park"},{"Latitude":"53.1557492","Longitude":"-7.3752458","Name":"Arthur's Bridge"},{"Latitude":"52.6653907","Longitude":"-8.6262030","Name":"Arthur's Quay"},{"Latitude":"53.2920244","Longitude":"-6.1589256","Name":"Arundel"},{"Latitude":"53.9556261","Longitude":"-6.3811045","Name":"Arva Lane"},{"Latitude":"51.8672889","Longitude":"-8.4627999","Name":"Arvalee"},{"Latitude":"53.1387938","Longitude":"-8.9409856","Name":"Arvough"},{"Latitude":"53.2632517","Longitude":"-9.0710106","Name":"Arús Grattan"},{"Latitude":"53.2649883","Longitude":"-9.0680384","Name":"Arús Na Trá"},{"Latitude":"53.2771142","Longitude":"-9.1013154","Name":"Asca Beag"},{"Latitude":"51.9021740","Longitude":"-8.4913255","Name":"Ascaill Ard Nebo"},{"Latitude":"53.7197202","Longitude":"-6.3546431","Name":"Ascaill Brugha"},{"Latitude":"54.7071068","Longitude":"-8.7234501","Name":"Ascaill Mhuire"},{"Latitude":"51.5804415","Longitude":"-9.7081782","Name":"Ascaill Na Mara"},{"Latitude":"52.2474608","Longitude":"-6.3365279","Name":"Ascaill Ruain"},{"Latitude":"53.7230011","Longitude":"-6.3434679","Name":"Ascaill a Dó"},{"Latitude":"53.7240946","Longitude":"-6.3430996","Name":"Ascaill a Trí"},{"Latitude":"53.7218974","Longitude":"-6.3431994","Name":"Ascaill a hAon"},{"Latitude":"53.3540184","Longitude":"-6.3952027","Name":"Ascaill na Life"},{"Latitude":"51.9119947","Longitude":"-8.4832438","Name":"Ascal Cnoc Pos"},{"Latitude":"52.9094783","Longitude":"-6.8502900","Name":"Ascal Diarmada"},{"Latitude":"53.9611251","Longitude":"-6.3695856","Name":"Ascal Emer"},{"Latitude":"53.9605301","Longitude":"-6.3706733","Name":"Ascal Setanta"},{"Latitude":"53.2587960","Longitude":"-9.3155859","Name":"Ascal na n-Uasal"},{"Latitude":"52.7925336","Longitude":"-6.1652838","Name":"Ascard Close"},{"Latitude":"51.9072741","Longitude":"-8.4974485","Name":"Ascension Heights"},{"Latitude":"53.3460789","Longitude":"-6.2625840","Name":"Asdill's Row"},{"Latitude":"52.2457411","Longitude":"-7.0914444","Name":"Asgard Avenue"},{"Latitude":"52.2458860","Longitude":"-7.0931733","Name":"Asgard Drive"},{"Latitude":"52.2462157","Longitude":"-7.0920759","Name":"Asgard Grove"},{"Latitude":"52.2462574","Longitude":"-7.0943159","Name":"Asgard Mews"},{"Latitude":"53.3849732","Longitude":"-6.0631392","Name":"Asgard Park"},{"Latitude":"53.3450117","Longitude":"-6.2370818","Name":"Asgard Road"},{"Latitude":"53.0921646","Longitude":"-6.8668573","Name":"Asgulusian Bridge"},{"Latitude":"52.0692750","Longitude":"-9.5289391","Name":"Ash"},{"Latitude":"54.8933159","Longitude":"-7.4244137","Name":"Ash Avenue"},{"Latitude":"52.0710902","Longitude":"-9.5129989","Name":"Ash Close"},{"Latitude":"52.2615321","Longitude":"-9.6828552","Name":"Ash Court"},{"Latitude":"53.7175870","Longitude":"-7.7958647","Name":"Ash Crescent"},{"Latitude":"51.8184400","Longitude":"-8.4044718","Name":"Ash Drive"},{"Latitude":"52.7898178","Longitude":"-6.1673517","Name":"Ash Field"},{"Latitude":"53.1178787","Longitude":"-7.3222317","Name":"Ash Grove"},{"Latitude":"53.2615812","Longitude":"-8.9343423","Name":"Ash Haven"},{"Latitude":"53.5207921","Longitude":"-7.3292811","Name":"Ash Lane"},{"Latitude":"53.7481733","Longitude":"-7.7950383","Name":"Ash Lawns"},{"Latitude":"53.3463438","Longitude":"-6.4357526","Name":"Ash Park Avenue"},{"Latitude":"53.3453021","Longitude":"-6.4348549","Name":"Ash Park Court"},{"Latitude":"53.3461942","Longitude":"-6.4346996","Name":"Ash Park Grove"},{"Latitude":"53.3468466","Longitude":"-6.4344566","Name":"Ash Park Heath"},{"Latitude":"51.9115524","Longitude":"-8.2518552","Name":"Ash Road"},{"Latitude":"53.3402698","Longitude":"-6.2770187","Name":"Ash Street"},{"Latitude":"53.7984783","Longitude":"-9.2172877","Name":"Ash View"},{"Latitude":"52.7907022","Longitude":"-6.1660081","Name":"Ash Wood"},{"Latitude":"54.9563007","Longitude":"-7.7401316","Name":"AshBrook"},{"Latitude":"53.3415445","Longitude":"-6.4502889","Name":"Ashberry"},{"Latitude":"53.2750609","Longitude":"-8.9321392","Name":"Ashbook"},{"Latitude":"51.8973500","Longitude":"-8.5063905","Name":"Ashboro"},{"Latitude":"53.5091333","Longitude":"-6.3961723","Name":"Ashbourne Bridge"},{"Latitude":"51.8086653","Longitude":"-8.3920432","Name":"Ashbourne Court"},{"Latitude":"53.4901532","Longitude":"-6.3197409","Name":"Ashbourne Road"},{"Latitude":"52.2551433","Longitude":"-7.1351886","Name":"Ashbourne Village"},{"Latitude":"52.9179016","Longitude":"-7.3366083","Name":"Ashbrook"},{"Latitude":"53.9946931","Longitude":"-6.3970088","Name":"Ashbrook Avenue"},{"Latitude":"53.4737995","Longitude":"-8.5084604","Name":"Ashbrook Close"},{"Latitude":"52.6659812","Longitude":"-8.6603286","Name":"Ashbrook Crescent"},{"Latitude":"54.5077940","Longitude":"-8.1981935","Name":"Ashbrook Drive"},{"Latitude":"52.6672951","Longitude":"-8.6600268","Name":"Ashbrook Gardens"},{"Latitude":"52.6674386","Longitude":"-8.6556293","Name":"Ashbrook Grove"},{"Latitude":"51.8679962","Longitude":"-8.4963726","Name":"Ashbrook Heights"},{"Latitude":"52.6658070","Longitude":"-8.6559865","Name":"Ashbrook Park"},{"Latitude":"53.9048513","Longitude":"-8.5777774","Name":"Ashburton Grove"},{"Latitude":"51.9084984","Longitude":"-8.4508520","Name":"Ashburton Hill"},{"Latitude":"52.9625377","Longitude":"-7.7814549","Name":"Ashbury"},{"Latitude":"54.2791409","Longitude":"-8.4503656","Name":"Ashbury Lawn"},{"Latitude":"51.8640089","Longitude":"-8.1204704","Name":"Ashcroft"},{"Latitude":"53.3971757","Longitude":"-6.4027359","Name":"Ashcroft Grove"},{"Latitude":"53.9979660","Longitude":"-6.3734127","Name":"Ashdale"},{"Latitude":"53.3144478","Longitude":"-6.2840256","Name":"Ashdale Avenue"},{"Latitude":"53.4456017","Longitude":"-6.1976948","Name":"Ashdale Close"},{"Latitude":"53.5116477","Longitude":"-6.3929759","Name":"Ashdale Crescent"},{"Latitude":"51.9159915","Longitude":"-8.2562568","Name":"Ashdale Drive"},{"Latitude":"53.3145262","Longitude":"-6.2858533","Name":"Ashdale Gardens"},{"Latitude":"51.8828938","Longitude":"-8.4531988","Name":"Ashdale Park"},{"Latitude":"53.3147193","Longitude":"-6.2845640","Name":"Ashdale Road"},{"Latitude":"51.8795806","Longitude":"-8.4516010","Name":"Ashdene"},{"Latitude":"53.2874252","Longitude":"-9.0818506","Name":"Ashdown"},{"Latitude":"53.4544985","Longitude":"-6.2597373","Name":"Ashe Grove"},{"Latitude":"53.4542538","Longitude":"-6.2606818","Name":"Ashe Lane"},{"Latitude":"52.1384489","Longitude":"-8.2774173","Name":"Ashe Quay"},{"Latitude":"52.2492971","Longitude":"-7.1274648","Name":"Ashe Road"},{"Latitude":"52.2698144","Longitude":"-9.7041481","Name":"Ashe Street"},{"Latitude":"53.5310103","Longitude":"-7.3545284","Name":"Ashefield"},{"Latitude":"53.5142729","Longitude":"-6.3944550","Name":"Ashewood Close"},{"Latitude":"53.5135713","Longitude":"-6.3945221","Name":"Ashewood Court"},{"Latitude":"53.5149888","Longitude":"-6.3940414","Name":"Ashewood Drive"},{"Latitude":"53.5150066","Longitude":"-6.3924823","Name":"Ashewood Glen"},{"Latitude":"53.5136852","Longitude":"-6.3920554","Name":"Ashewood Grove"},{"Latitude":"53.5144378","Longitude":"-6.3928689","Name":"Ashewood Heath"},{"Latitude":"53.5128316","Longitude":"-6.3929252","Name":"Ashewood Lawn"},{"Latitude":"53.5149888","Longitude":"-6.3940414","Name":"Ashewood Meadows"},{"Latitude":"53.5133656","Longitude":"-6.3918436","Name":"Ashewood Place"},{"Latitude":"53.5130150","Longitude":"-6.3936033","Name":"Ashewood Walk"},{"Latitude":"53.7211460","Longitude":"-6.3621860","Name":"Ashfield"},{"Latitude":"53.3091628","Longitude":"-6.3685890","Name":"Ashfield Avenue"},{"Latitude":"53.4495776","Longitude":"-6.9701767","Name":"Ashfield Bridge"},{"Latitude":"53.3077204","Longitude":"-6.3688652","Name":"Ashfield Close"},{"Latitude":"53.4008904","Longitude":"-6.4038663","Name":"Ashfield Court"},{"Latitude":"53.3081295","Longitude":"-6.3680668","Name":"Ashfield Drive"},{"Latitude":"52.6673972","Longitude":"-7.2310266","Name":"Ashfield East"},{"Latitude":"53.4021799","Longitude":"-6.4053335","Name":"Ashfield Gardens"},{"Latitude":"53.4029201","Longitude":"-6.4057869","Name":"Ashfield Green"},{"Latitude":"53.4031304","Longitude":"-6.4044655","Name":"Ashfield Grove"},{"Latitude":"53.4024004","Longitude":"-6.4063787","Name":"Ashfield Lawn"},{"Latitude":"53.4012818","Longitude":"-6.4004336","Name":"Ashfield Park"},{"Latitude":"52.8646950","Longitude":"-8.9776460","Name":"Ashfield Park / Girroga Heights"},{"Latitude":"53.2975359","Longitude":"-6.3058117","Name":"Ashfield Place"},{"Latitude":"53.6149321","Longitude":"-6.1951563","Name":"Ashfield Rise"},{"Latitude":"53.3211455","Longitude":"-6.2529859","Name":"Ashfield Road"},{"Latitude":"53.4016169","Longitude":"-6.4070239","Name":"Ashfield Way"},{"Latitude":"53.4254536","Longitude":"-7.9795291","Name":"Ashford"},{"Latitude":"53.3535984","Longitude":"-6.2927373","Name":"Ashford Cottages"},{"Latitude":"51.8644634","Longitude":"-8.4479164","Name":"Ashford Court"},{"Latitude":"53.9922882","Longitude":"-6.3944153","Name":"Ashford Crescent"},{"Latitude":"53.0081066","Longitude":"-6.1079105","Name":"Ashford Downs"},{"Latitude":"51.8861039","Longitude":"-8.4923440","Name":"Ashford Estate"},{"Latitude":"53.3538073","Longitude":"-6.2931231","Name":"Ashford Place"},{"Latitude":"53.0521105","Longitude":"-6.1770307","Name":"Ashford Road"},{"Latitude":"53.3535984","Longitude":"-6.2927373","Name":"Ashford Street"},{"Latitude":"53.4227142","Longitude":"-7.9059868","Name":"Ashgove"},{"Latitude":"53.9935693","Longitude":"-6.3756021","Name":"Ashgrove"},{"Latitude":"53.2252880","Longitude":"-6.6568004","Name":"Ashgrove Avenue"},{"Latitude":"53.2243959","Longitude":"-6.6571706","Name":"Ashgrove Cresent"},{"Latitude":"51.9176689","Longitude":"-8.4492922","Name":"Ashgrove Drive"},{"Latitude":"51.8219422","Longitude":"-8.3902885","Name":"Ashgrove Lawn"},{"Latitude":"54.2468985","Longitude":"-6.9504635","Name":"Ashgrove Lawns"},{"Latitude":"52.8158499","Longitude":"-8.4355480","Name":"Ashgrove Meadows"},{"Latitude":"54.8162545","Longitude":"-7.4701424","Name":"Ashgrove Park"},{"Latitude":"53.5255921","Longitude":"-6.3405763","Name":"Ashgrove Road"},{"Latitude":"51.9169867","Longitude":"-8.4481171","Name":"Ashgrove View"},{"Latitude":"51.9177136","Longitude":"-8.4474108","Name":"Ashgrove Villas"},{"Latitude":"51.9303145","Longitude":"-8.3793771","Name":"Ashington"},{"Latitude":"53.3719143","Longitude":"-6.3154802","Name":"Ashington Avenue"},{"Latitude":"53.3742437","Longitude":"-6.3175269","Name":"Ashington Close"},{"Latitude":"53.3735343","Longitude":"-6.3094987","Name":"Ashington Court"},{"Latitude":"53.3716615","Longitude":"-6.3181980","Name":"Ashington Crescent"},{"Latitude":"53.3744097","Longitude":"-6.3164555","Name":"Ashington Dale"},{"Latitude":"53.3740458","Longitude":"-6.3105985","Name":"Ashington Gardens"},{"Latitude":"53.3729355","Longitude":"-6.3139765","Name":"Ashington Green"},{"Latitude":"53.3715362","Longitude":"-6.3170557","Name":"Ashington Grove"},{"Latitude":"53.3721616","Longitude":"-6.3169988","Name":"Ashington Heath"},{"Latitude":"53.3739410","Longitude":"-6.3082210","Name":"Ashington Mews"},{"Latitude":"53.3735101","Longitude":"-6.3103960","Name":"Ashington Park"},{"Latitude":"53.3725450","Longitude":"-6.3162244","Name":"Ashington Rise"},{"Latitude":"53.2032775","Longitude":"-6.1252295","Name":"Ashlawn Court"},{"Latitude":"53.2008669","Longitude":"-8.5761189","Name":"Ashlawn Drive"},{"Latitude":"53.2543231","Longitude":"-6.1313982","Name":"Ashlawn Park"},{"Latitude":"53.2044481","Longitude":"-6.1218601","Name":"Ashlea Heights"},{"Latitude":"53.9030875","Longitude":"-9.9903724","Name":"Ashleam Bridge"},{"Latitude":"53.9087760","Longitude":"-9.9754534","Name":"Ashleam Road"},{"Latitude":"52.8053112","Longitude":"-6.1447390","Name":"Ashleigh Close"},{"Latitude":"52.6450717","Longitude":"-7.2556476","Name":"Ashleigh Court"},{"Latitude":"51.8884918","Longitude":"-8.4251365","Name":"Ashleigh Drive"},{"Latitude":"51.8876998","Longitude":"-8.4256662","Name":"Ashleigh Gardens"},{"Latitude":"53.3816209","Longitude":"-6.3666174","Name":"Ashleigh Green"},{"Latitude":"53.3810217","Longitude":"-6.3671209","Name":"Ashleigh Grove"},{"Latitude":"53.4453611","Longitude":"-6.1538222","Name":"Ashleigh Lawn"},{"Latitude":"51.8881714","Longitude":"-8.4233504","Name":"Ashleigh Rise"},{"Latitude":"52.6598093","Longitude":"-8.5526105","Name":"Ashleigh Wood"},{"Latitude":"53.4548438","Longitude":"-6.2117564","Name":"Ashley Avenue"},{"Latitude":"52.1375358","Longitude":"-7.9279349","Name":"Ashley Court"},{"Latitude":"53.4268564","Longitude":"-7.9318614","Name":"Ashley Crescent"},{"Latitude":"53.4544452","Longitude":"-6.2121540","Name":"Ashley Drive"},{"Latitude":"53.0478455","Longitude":"-7.2770768","Name":"Ashley Gardens"},{"Latitude":"53.4554333","Longitude":"-6.2113287","Name":"Ashley Grove"},{"Latitude":"54.1126373","Longitude":"-6.2632360","Name":"Ashley Heights"},{"Latitude":"53.4364493","Longitude":"-6.1290193","Name":"Ashley Rise"},{"Latitude":"52.8297321","Longitude":"-8.9993083","Name":"Ashline"},{"Latitude":"53.3273778","Longitude":"-6.3030196","Name":"Ashling Close"},{"Latitude":"53.7639438","Longitude":"-8.7714357","Name":"Ashling Drive"},{"Latitude":"52.2433654","Longitude":"-7.0715546","Name":"Ashling Green"},{"Latitude":"53.3950450","Longitude":"-6.3771890","Name":"Ashling Heights"},{"Latitude":"51.8852214","Longitude":"-8.5844749","Name":"Ashling Lawn"},{"Latitude":"53.8105568","Longitude":"-9.1299497","Name":"Ashling Manor"},{"Latitude":"51.9084762","Longitude":"-8.1625405","Name":"Ashlinn Road"},{"Latitude":"52.1358451","Longitude":"-8.6357762","Name":"Ashmore"},{"Latitude":"53.3996618","Longitude":"-6.4003391","Name":"Ashmount"},{"Latitude":"54.1161137","Longitude":"-9.1485921","Name":"Ashpool"},{"Latitude":"53.4739111","Longitude":"-6.2362604","Name":"Ashton Avenue"},{"Latitude":"53.2851008","Longitude":"-6.3089823","Name":"Ashton Close"},{"Latitude":"53.4745114","Longitude":"-6.2379691","Name":"Ashton Court"},{"Latitude":"53.4724253","Longitude":"-6.2343508","Name":"Ashton Distributor Road"},{"Latitude":"53.4740841","Longitude":"-6.2358527","Name":"Ashton Drive"},{"Latitude":"53.4758620","Longitude":"-6.2368047","Name":"Ashton Green"},{"Latitude":"53.2860846","Longitude":"-6.3079228","Name":"Ashton Grove"},{"Latitude":"53.2858801","Longitude":"-6.3087782","Name":"Ashton Lawn"},{"Latitude":"53.4745663","Longitude":"-6.2354132","Name":"Ashton Lawns"},{"Latitude":"53.0333695","Longitude":"-7.3163434","Name":"Ashton Manor"},{"Latitude":"53.2882757","Longitude":"-6.1576046","Name":"Ashton Park"},{"Latitude":"53.4750088","Longitude":"-6.2349098","Name":"Ashton Rise"},{"Latitude":"53.4748795","Longitude":"-6.2342446","Name":"Ashton Roundabout"},{"Latitude":"53.1897491","Longitude":"-6.1360431","Name":"Ashton Wood"},{"Latitude":"52.2255956","Longitude":"-7.4936580","Name":"Ashtown Bridge"},{"Latitude":"53.3704672","Longitude":"-6.3239240","Name":"Ashtown Grove"},{"Latitude":"52.9743250","Longitude":"-6.0648817","Name":"Ashtown Lane"},{"Latitude":"53.3747660","Longitude":"-6.3325504","Name":"Ashtown Road"},{"Latitude":"53.3722091","Longitude":"-6.3320576","Name":"Ashtown Roundabout"},{"Latitude":"52.6442161","Longitude":"-7.2566443","Name":"Ashurst"},{"Latitude":"52.7384455","Longitude":"-8.7796653","Name":"Ashview Drive"},{"Latitude":"52.9915419","Longitude":"-6.9720594","Name":"Ashville"},{"Latitude":"53.2616876","Longitude":"-9.1147511","Name":"Ashwood"},{"Latitude":"53.3272253","Longitude":"-6.4101295","Name":"Ashwood Avenue"},{"Latitude":"53.3272253","Longitude":"-6.4101295","Name":"Ashwood Close"},{"Latitude":"51.9079025","Longitude":"-8.1651605","Name":"Ashwood Crescent"},{"Latitude":"53.3276406","Longitude":"-6.4068279","Name":"Ashwood Drive"},{"Latitude":"53.7942800","Longitude":"-9.5046530","Name":"Ashwood Glade"},{"Latitude":"52.6822594","Longitude":"-6.2978282","Name":"Ashwood Grove"},{"Latitude":"53.3263038","Longitude":"-6.4071217","Name":"Ashwood Lawns"},{"Latitude":"53.7937598","Longitude":"-9.5041204","Name":"Ashwood Meadow"},{"Latitude":"53.3260908","Longitude":"-6.4081709","Name":"Ashwood Park"},{"Latitude":"53.3259028","Longitude":"-6.4101189","Name":"Ashwood Road"},{"Latitude":"53.3269482","Longitude":"-6.4081780","Name":"Ashwood Way"},{"Latitude":"54.0992114","Longitude":"-8.2517734","Name":"Ashwoods"},{"Latitude":"53.3268677","Longitude":"-6.2746943","Name":"Ashworth Place"},{"Latitude":"52.6058699","Longitude":"-8.9657975","Name":"Askeaton Bypass"},{"Latitude":"53.1066950","Longitude":"-6.8542913","Name":"Askinraw Drive"},{"Latitude":"52.5572633","Longitude":"-6.7485701","Name":"Askinvillar Bridge"},{"Latitude":"51.6225786","Longitude":"-8.8863698","Name":"Asna Street"},{"Latitude":"53.3840865","Longitude":"-6.4074690","Name":"Aspen Avenue"},{"Latitude":"52.2420933","Longitude":"-7.0827167","Name":"Aspen Close"},{"Latitude":"51.8620074","Longitude":"-8.4178679","Name":"Aspen Drive"},{"Latitude":"52.6625390","Longitude":"-8.6016129","Name":"Aspen Gardens"},{"Latitude":"53.3835533","Longitude":"-6.4064949","Name":"Aspen Lawn"},{"Latitude":"53.2793662","Longitude":"-6.1481294","Name":"Aspen Park"},{"Latitude":"53.4462271","Longitude":"-6.1980598","Name":"Aspen Road"},{"Latitude":"53.0364538","Longitude":"-7.2704201","Name":"Aspen Way"},{"Latitude":"55.0836403","Longitude":"-8.1480630","Name":"Aspick Bridge"},{"Latitude":"53.9115082","Longitude":"-7.1582372","Name":"Assan Bridge"},{"Latitude":"54.5023930","Longitude":"-8.1788172","Name":"Assaroe Heights"},{"Latitude":"52.1732252","Longitude":"-8.8358527","Name":"Assolas Bridge"},{"Latitude":"53.2297097","Longitude":"-6.1283353","Name":"Assumpta Park"},{"Latitude":"53.9844926","Longitude":"-9.1062425","Name":"Assumpta Place"},{"Latitude":"53.1615582","Longitude":"-6.9064115","Name":"Assumpta Villas"},{"Latitude":"52.6541039","Longitude":"-7.2385217","Name":"Assumption Place"},{"Latitude":"51.9101647","Longitude":"-8.4739445","Name":"Assumption Road"},{"Latitude":"52.3997354","Longitude":"-6.9524347","Name":"Assumption Terrace"},{"Latitude":"53.5292099","Longitude":"-7.3279262","Name":"Assumption Villas"},{"Latitude":"52.3996716","Longitude":"-6.9515619","Name":"Assumtion Terrace"},{"Latitude":"51.7117344","Longitude":"-8.5295794","Name":"Aster Lawn"},{"Latitude":"53.7327192","Longitude":"-6.3300853","Name":"Aston Green"},{"Latitude":"53.3461797","Longitude":"-6.2606576","Name":"Aston Place"},{"Latitude":"53.3469351","Longitude":"-6.2591100","Name":"Aston Quay"},{"Latitude":"53.5644296","Longitude":"-6.8049515","Name":"Athboy Road"},{"Latitude":"53.8185535","Longitude":"-6.3930384","Name":"Athclare Bridge"},{"Latitude":"52.4607126","Longitude":"-9.2867724","Name":"Athea Bridge"},{"Latitude":"53.2970072","Longitude":"-8.7623370","Name":"Athenry Relief Road"},{"Latitude":"53.5074658","Longitude":"-8.8437991","Name":"Athenry Road"},{"Latitude":"53.2899410","Longitude":"-8.7558676","Name":"Athenry Roundabout"},{"Latitude":"53.1537891","Longitude":"-6.7724517","Name":"Athgarvan Bridge"},{"Latitude":"53.1806297","Longitude":"-6.7932356","Name":"Athgarvan Road"},{"Latitude":"53.2346560","Longitude":"-6.1206146","Name":"Athgoe Drive"},{"Latitude":"53.2715901","Longitude":"-6.5191512","Name":"Athgoe Road"},{"Latitude":"53.4545010","Longitude":"-7.1019142","Name":"Athlone Road"},{"Latitude":"53.6501055","Longitude":"-6.6700261","Name":"Athlumney Castle"},{"Latitude":"53.6475729","Longitude":"-6.6560945","Name":"Athlumney Hall"},{"Latitude":"53.6532204","Longitude":"-6.6809176","Name":"Athlumney Road"},{"Latitude":"53.6482513","Longitude":"-6.6638175","Name":"Athlumney Village"},{"Latitude":"53.3295129","Longitude":"-6.2605140","Name":"Athlumney Villas"},{"Latitude":"52.6809792","Longitude":"-8.6107446","Name":"Athlunkard Bridge"},{"Latitude":"52.6688562","Longitude":"-8.6205583","Name":"Athlunkard Street"},{"Latitude":"52.9904892","Longitude":"-6.9788517","Name":"Athmore"},{"Latitude":"52.0495137","Longitude":"-8.6782710","Name":"Athnalacka Bridge"},{"Latitude":"53.5408470","Longitude":"-6.6392578","Name":"Athronan Bridge"},{"Latitude":"52.9983340","Longitude":"-6.8710503","Name":"Athy Link Road"},{"Latitude":"52.9827233","Longitude":"-6.9904060","Name":"Athy Residential Caravan Park"},{"Latitude":"52.8402855","Longitude":"-6.9302176","Name":"Athy Road"},{"Latitude":"52.8466028","Longitude":"-6.9285769","Name":"Athy Road Roundabout"},{"Latitude":"53.2690996","Longitude":"-9.1071382","Name":"Athy Roundabout"},{"Latitude":"51.8957436","Longitude":"-8.5134710","Name":"Atkins Hall"},{"Latitude":"53.2648892","Longitude":"-6.2219835","Name":"Atkinson Drive"},{"Latitude":"53.8837449","Longitude":"-9.9742841","Name":"Atlantic Drive"},{"Latitude":"55.1990963","Longitude":"-7.0031398","Name":"Atlantic Reach"},{"Latitude":"53.2591851","Longitude":"-9.0784984","Name":"Atlantic Terrace"},{"Latitude":"54.2663080","Longitude":"-8.5977106","Name":"Atlantic View"},{"Latitude":"54.4805115","Longitude":"-8.2776718","Name":"Atlantic Way"},{"Latitude":"53.2780883","Longitude":"-6.1123409","Name":"Atmospheric Road"},{"Latitude":"53.4286693","Longitude":"-6.2424328","Name":"Atrium Road"},{"Latitude":"53.4280395","Longitude":"-6.2424996","Name":"Atrium Road 1"},{"Latitude":"53.4281083","Longitude":"-6.2423745","Name":"Atrium Road 2"},{"Latitude":"53.4281744","Longitude":"-6.2422544","Name":"Atrium Road 3"},{"Latitude":"53.4284423","Longitude":"-6.2423911","Name":"Atrium Road 4"},{"Latitude":"52.8322577","Longitude":"-7.3454743","Name":"Attanagh Bridge"},{"Latitude":"53.2299182","Longitude":"-6.1204060","Name":"Aubrey Grove"},{"Latitude":"53.2308848","Longitude":"-6.1234879","Name":"Aubrey Park"},{"Latitude":"53.3688366","Longitude":"-6.2149311","Name":"Auburn"},{"Latitude":"53.3803169","Longitude":"-6.3582049","Name":"Auburn Avenue"},{"Latitude":"53.3787773","Longitude":"-6.3571203","Name":"Auburn Close"},{"Latitude":"53.3787773","Longitude":"-6.3571203","Name":"Auburn Drive"},{"Latitude":"53.3794008","Longitude":"-6.3570546","Name":"Auburn Green"},{"Latitude":"53.4233281","Longitude":"-7.9151292","Name":"Auburn Heights"},{"Latitude":"53.7016294","Longitude":"-7.6129142","Name":"Auburn Park"},{"Latitude":"53.3239716","Longitude":"-6.2366062","Name":"Auburn Road"},{"Latitude":"53.3562010","Longitude":"-6.2717410","Name":"Auburn Street"},{"Latitude":"53.4287583","Longitude":"-7.9377453","Name":"Auburn Terrace"},{"Latitude":"53.5223668","Longitude":"-7.3350375","Name":"Auburn Village"},