[{"Latitude":"8.3581288","Longitude":"-13.0983256","Name":"1 Alhassan Drive"},{"Latitude":"7.9512277","Longitude":"-11.7304959","Name":"1st Back Street"},{"Latitude":"7.9638600","Longitude":"-11.7299580","Name":"1st Bangali Street"},{"Latitude":"7.9510070","Longitude":"-11.7298660","Name":"2nd Back Street"},{"Latitude":"7.9633550","Longitude":"-11.7287790","Name":"2nd Bangali Street"},{"Latitude":"7.9502110","Longitude":"-11.7278260","Name":"3rd Back Street"},{"Latitude":"8.4495557","Longitude":"-13.2570977","Name":"6 Road Drive"},{"Latitude":"7.9522200","Longitude":"-11.7158870","Name":"A Line"},{"Latitude":"8.4736417","Longitude":"-13.2340106","Name":"A Line Drive"},{"Latitude":"7.9669194","Longitude":"-11.7284056","Name":"A-Line"},{"Latitude":"8.3305067","Longitude":"-13.0776539","Name":"ABB Lane"},{"Latitude":"8.4526505","Longitude":"-13.1726261","Name":"ABU LANE"},{"Latitude":"8.4769968","Longitude":"-13.2442872","Name":"ADESANYAH STREET"},{"Latitude":"8.4290116","Longitude":"-13.1667870","Name":"ALPHA DRIVE"},{"Latitude":"8.4382923","Longitude":"-13.1584937","Name":"ALPHA TERRACE"},{"Latitude":"8.4654501","Longitude":"-13.1731817","Name":"ALPHONSON LANE"},{"Latitude":"8.4204987","Longitude":"-13.1540965","Name":"ALUSINE DRIVE"},{"Latitude":"8.4778637","Longitude":"-13.2123447","Name":"ARSHORBI CORNER"},{"Latitude":"8.4314768","Longitude":"-13.1660514","Name":"AUGASTA LANE"},{"Latitude":"8.3826726","Longitude":"-13.1493628","Name":"Abbie Drive"},{"Latitude":"8.4867098","Longitude":"-13.2160391","Name":"Abbot Lane"},{"Latitude":"8.4877981","Longitude":"-13.2157125","Name":"Abbot Street"},{"Latitude":"7.8728698","Longitude":"-11.1768843","Name":"Abdul Sandy Street"},{"Latitude":"7.9424980","Longitude":"-11.7402090","Name":"Abdulai Street"},{"Latitude":"8.4930006","Longitude":"-13.2748228","Name":"Aberdeen Bridge"},{"Latitude":"8.4866002","Longitude":"-13.2717183","Name":"Aberdeen Ferry Road"},{"Latitude":"8.4722582","Longitude":"-13.2645590","Name":"Aberdeen Road"},{"Latitude":"8.4932983","Longitude":"-13.2927701","Name":"Aberdeen Turn Table"},{"Latitude":"7.9557342","Longitude":"-11.7590644","Name":"Abi Street"},{"Latitude":"8.3637603","Longitude":"-13.0765495","Name":"Abies Drive"},{"Latitude":"8.4371224","Longitude":"-13.2236955","Name":"Aboko Drive"},{"Latitude":"8.4377154","Longitude":"-13.2162268","Name":"Abor Close"},{"Latitude":"8.4500101","Longitude":"-13.2749571","Name":"Abraham Drive"},{"Latitude":"8.3587639","Longitude":"-13.0865341","Name":"Abrassac Street"},{"Latitude":"8.3614997","Longitude":"-13.0781950","Name":"Abu Bakar Drive"},{"Latitude":"7.9491033","Longitude":"-11.7617262","Name":"Abu Bakarr Bah Street"},{"Latitude":"8.3321305","Longitude":"-13.0573256","Name":"Abu Bakarr Street"},{"Latitude":"7.9460660","Longitude":"-11.7284320","Name":"Abu Goma Lane"},{"Latitude":"7.9544590","Longitude":"-11.7311030","Name":"Abu Guma street"},{"Latitude":"8.4743315","Longitude":"-13.2524608","Name":"Abu Kamara Drive"},{"Latitude":"7.9601650","Longitude":"-11.7242770","Name":"Abu Sesay Street"},{"Latitude":"7.9379208","Longitude":"-11.7384761","Name":"Abu Street"},{"Latitude":"8.4689746","Longitude":"-13.2027545","Name":"Access Road"},{"Latitude":"8.4295609","Longitude":"-13.2796568","Name":"Action Aid Drive"},{"Latitude":"7.9451990","Longitude":"-11.7185140","Name":"Action Aid Road"},{"Latitude":"8.3347373","Longitude":"-13.0732780","Name":"Action Street"},{"Latitude":"8.4613784","Longitude":"-13.2385093","Name":"Adam's Drive"},{"Latitude":"7.9367454","Longitude":"-11.7223454","Name":"Adama Street"},{"Latitude":"8.3512092","Longitude":"-13.0851373","Name":"Adams Drive"},{"Latitude":"8.4830539","Longitude":"-13.2256971","Name":"Adams Street"},{"Latitude":"8.3261352","Longitude":"-13.0472999","Name":"Adams Street New London"},{"Latitude":"8.4820766","Longitude":"-13.2431817","Name":"Adelaide Street"},{"Latitude":"8.4758823","Longitude":"-13.2446743","Name":"Adesanyah Street"},{"Latitude":"8.4519216","Longitude":"-13.2595901","Name":"Adimagboleh Drive"},{"Latitude":"8.4313422","Longitude":"-13.2836878","Name":"Adioka Road"},{"Latitude":"8.4704296","Longitude":"-13.2485698","Name":"Admirality Road"},{"Latitude":"8.4848661","Longitude":"-13.2151875","Name":"Adolphus Street"},{"Latitude":"8.4500757","Longitude":"-13.2535914","Name":"Adonis Abbound Bridge"},{"Latitude":"8.3949982","Longitude":"-13.1509554","Name":"Adu Lane"},{"Latitude":"8.4713704","Longitude":"-13.1953865","Name":"Adulphus Street"},{"Latitude":"8.4772681","Longitude":"-13.1953266","Name":"Africanus Road"},{"Latitude":"7.9698035","Longitude":"-11.7607708","Name":"Agatha Drive"},{"Latitude":"8.8704505","Longitude":"-12.0542108","Name":"Aggienold Road"},{"Latitude":"7.8899920","Longitude":"-11.1886344","Name":"Agness street"},{"Latitude":"8.8795415","Longitude":"-12.0475810","Name":"Agriculture Road"},{"Latitude":"7.9303741","Longitude":"-11.7289778","Name":"Ahmadiyya Road"},{"Latitude":"8.4858828","Longitude":"-13.2678165","Name":"Ahmed Drive"},{"Latitude":"7.8858885","Longitude":"-11.1871767","Name":"Air Field Road"},{"Latitude":"8.4767482","Longitude":"-13.2415965","Name":"Aitkin Street"},{"Latitude":"8.2261663","Longitude":"-13.0910363","Name":"Ajagee Water Road"},{"Latitude":"8.4867246","Longitude":"-13.2705337","Name":"Ajami Drive"},{"Latitude":"8.3476720","Longitude":"-13.0510323","Name":"Alaffia Drive"},{"Latitude":"8.4053174","Longitude":"-13.1153112","Name":"Alafia Street"},{"Latitude":"8.4778758","Longitude":"-13.2330483","Name":"Albert Street"},{"Latitude":"8.8841323","Longitude":"-12.0556349","Name":"Albert road"},{"Latitude":"8.4424601","Longitude":"-13.2252961","Name":"Albib Drive"},{"Latitude":"8.4697518","Longitude":"-13.1936621","Name":"Albion Street"},{"Latitude":"8.4805151","Longitude":"-13.2293556","Name":"Alcock Street"},{"Latitude":"8.4412724","Longitude":"-13.2235966","Name":"Alfred Lane"},{"Latitude":"7.9367968","Longitude":"-11.7341948","Name":"Alfred Street"},{"Latitude":"8.4729226","Longitude":"-13.2302022","Name":"Alhaji Dauda Dumbuya Street"},{"Latitude":"8.3853625","Longitude":"-13.1222530","Name":"Alhaji Shek Koroma street"},{"Latitude":"8.3757882","Longitude":"-13.0995406","Name":"Alhassan Koroma Drive"},{"Latitude":"8.4736455","Longitude":"-13.2730848","Name":"Ali Musa Drive"},{"Latitude":"8.3745256","Longitude":"-13.2381680","Name":"Alicelim Street"},{"Latitude":"8.3323050","Longitude":"-13.0492727","Name":"Alie Sesay Drive"},{"Latitude":"7.9471200","Longitude":"-11.7275220","Name":"Alie Street"},{"Latitude":"8.4485853","Longitude":"-13.2329464","Name":"Allen Drive"},{"Latitude":"8.4774891","Longitude":"-13.2297613","Name":"Allen Street"},{"Latitude":"8.4198299","Longitude":"-13.1903138","Name":"Allen Town Road"},{"Latitude":"8.4369553","Longitude":"-13.2208496","Name":"Allies Street"},{"Latitude":"7.9616473","Longitude":"-11.7592414","Name":"Alpha Bah Street"},{"Latitude":"8.4301752","Longitude":"-13.2682291","Name":"Alpha Drive"},{"Latitude":"8.3868746","Longitude":"-13.1258807","Name":"Alpha Kamara Drive"},{"Latitude":"8.4541859","Longitude":"-13.1726629","Name":"Alpha Lane"},{"Latitude":"8.4648703","Longitude":"-13.1813921","Name":"Alpha Nonkoh Street"},{"Latitude":"8.4660831","Longitude":"-13.2667141","Name":"Alphajor Drive"},{"Latitude":"8.3364653","Longitude":"-13.0346052","Name":"Alphanso Street"},{"Latitude":"8.8865729","Longitude":"-12.0748839","Name":"Alusine Kala Drive"},{"Latitude":"8.4324513","Longitude":"-13.1621053","Name":"Alusine Street"},{"Latitude":"8.4817023","Longitude":"-13.2628253","Name":"Alys Lane"},{"Latitude":"8.3765681","Longitude":"-13.1012701","Name":"Amara Lane"},{"Latitude":"7.9436760","Longitude":"-11.7262400","Name":"Amara Street"},{"Latitude":"8.4840165","Longitude":"-13.2289231","Name":"Ambrose Street"},{"Latitude":"8.4492778","Longitude":"-13.2281131","Name":"American Embassy Road"},{"Latitude":"8.8806442","Longitude":"-12.0771975","Name":"Amie Banta"},{"Latitude":"7.9387936","Longitude":"-11.7287394","Name":"Amie Street"},{"Latitude":"8.4476182","Longitude":"-13.2582711","Name":"Amsays Compound Drive"},{"Latitude":"8.4824705","Longitude":"-13.2403285","Name":"Andrew Street"},{"Latitude":"8.4939629","Longitude":"-13.2644942","Name":"Andrews Street"},{"Latitude":"7.9591538","Longitude":"-11.7520049","Name":"Annie Lane"},{"Latitude":"8.4861186","Longitude":"-13.2263827","Name":"Annie Walsh Street"},{"Latitude":"8.4879010","Longitude":"-13.2162978","Name":"Ansley Street"},{"Latitude":"7.9742225","Longitude":"-11.7371672","Name":"Ansumana Street"},{"Latitude":"8.3233447","Longitude":"-13.0544755","Name":"Anthony Street"},{"Latitude":"8.4490248","Longitude":"-13.2717360","Name":"Antony Drive"},{"Latitude":"8.3582724","Longitude":"-13.0863891","Name":"Anzaru Road"},{"Latitude":"8.8879721","Longitude":"-12.0305711","Name":"Arabic College Road"},{"Latitude":"8.4756418","Longitude":"-13.1987017","Name":"Arch Street"},{"Latitude":"8.3359846","Longitude":"-13.0486102","Name":"Argebu Drive"},{"Latitude":"8.4878493","Longitude":"-13.2159794","Name":"Argyle Street"},{"Latitude":"8.4156695","Longitude":"-13.2761192","Name":"Arthur Drive"},{"Latitude":"7.9433003","Longitude":"-11.7167023","Name":"Aruna Street"},{"Latitude":"8.4842520","Longitude":"-13.2475269","Name":"Ascension Town Road"},{"Latitude":"8.4503514","Longitude":"-13.2547279","Name":"Ash Wood Drive"},{"Latitude":"8.4367443","Longitude":"-13.2718036","Name":"Asive Lane"},{"Latitude":"8.4932672","Longitude":"-13.2646150","Name":"Atkin Street"},{"Latitude":"8.4462453","Longitude":"-13.2292369","Name":"Azick Drive"},{"Latitude":"8.8861967","Longitude":"-12.0528280","Name":"Azzolini Highway"},{"Latitude":"8.3973730","Longitude":"-13.1636746","Name":"B S Conteh Drive"},{"Latitude":"7.9547900","Longitude":"-11.7326770","Name":"B-Line"},{"Latitude":"8.4098526","Longitude":"-13.1467185","Name":"BABOON COLLEGE DRIVE"},{"Latitude":"8.4290796","Longitude":"-13.1662469","Name":"BANGURA STREET"},{"Latitude":"8.4174747","Longitude":"-13.1573564","Name":"BARRIE DRIVE"},{"Latitude":"8.4765700","Longitude":"-13.2427518","Name":"BECCLE LANE"},{"Latitude":"8.4722774","Longitude":"-13.2090258","Name":"BENI LANE"},{"Latitude":"8.4525580","Longitude":"-13.1806166","Name":"BERNARD DRIVE"},{"Latitude":"8.4324820","Longitude":"-13.1739956","Name":"BOCK MAN DRIVE"},{"Latitude":"8.4291041","Longitude":"-13.1684187","Name":"BONDOBAIL LANE"},{"Latitude":"8.4707792","Longitude":"-13.1794631","Name":"BROWN STREET"},{"Latitude":"8.4519935","Longitude":"-13.1722199","Name":"BUSH WATER ROAD"},{"Latitude":"8.4622837","Longitude":"-13.1749989","Name":"BUYA LANE"},{"Latitude":"8.4592232","Longitude":"-13.2668684","Name":"Babadorie Road"},{"Latitude":"7.9593000","Longitude":"-11.7554160","Name":"Babady Lane"},{"Latitude":"8.3548206","Longitude":"-13.0800672","Name":"Babymus Drive"},{"Latitude":"8.4879699","Longitude":"-13.2309874","Name":"Back Street"},{"Latitude":"8.3405890","Longitude":"-13.0707023","Name":"Bagan Street"},{"Latitude":"8.3860450","Longitude":"-13.0933627","Name":"Bah Drive"},{"Latitude":"8.4320550","Longitude":"-13.1637056","Name":"Bah Lane"},{"Latitude":"7.9624915","Longitude":"-11.7501448","Name":"Baiima Road"},{"Latitude":"8.4538718","Longitude":"-13.2460470","Name":"Baila Leigh Drive"},{"Latitude":"8.4757375","Longitude":"-13.2432314","Name":"Bailey Street"},{"Latitude":"8.3227509","Longitude":"-13.0275411","Name":"Baimba Lane"},{"Latitude":"7.9664180","Longitude":"-11.7312840","Name":"Baimba Road"},{"Latitude":"8.3898950","Longitude":"-13.1380654","Name":"Baimbu Drive"},{"Latitude":"7.9720792","Longitude":"-11.7144227","Name":"Bainda Street"},{"Latitude":"7.9454940","Longitude":"-11.7206000","Name":"Baindu Street"},{"Latitude":"8.4412449","Longitude":"-13.2669990","Name":"Bakarr Drive"},{"Latitude":"7.8620176","Longitude":"-11.1932349","Name":"Bakissa Street"},{"Latitude":"8.4799357","Longitude":"-13.2283786","Name":"Ball Street"},{"Latitude":"8.3898472","Longitude":"-13.1498275","Name":"Ballay Lane"},{"Latitude":"7.8664389","Longitude":"-11.1940348","Name":"Bamawo Area"},{"Latitude":"7.9492453","Longitude":"-11.7516428","Name":"Bameh Street"},{"Latitude":"8.3197644","Longitude":"-13.0553426","Name":"Banana Street"},{"Latitude":"8.4851267","Longitude":"-13.2591804","Name":"Banana Water Drive"},{"Latitude":"8.3815621","Longitude":"-13.2567818","Name":"Baneh Road"},{"Latitude":"8.3433742","Longitude":"-13.0499406","Name":"Banga Farm Road"},{"Latitude":"7.9453942","Longitude":"-11.7533616","Name":"Bangalie Street"},{"Latitude":"8.4546524","Longitude":"-13.2308905","Name":"Bangura Avenue"},{"Latitude":"8.3560553","Longitude":"-13.0798405","Name":"Bangura Drive"},{"Latitude":"8.3224134","Longitude":"-13.0463070","Name":"Bangura Lane"},{"Latitude":"8.8866736","Longitude":"-12.0350611","Name":"Bangura Street"},{"Latitude":"8.4540454","Longitude":"-13.2758617","Name":"Bankole Drive"},{"Latitude":"8.3417577","Longitude":"-13.2080439","Name":"Bankole Jones Reverend Thomas Nicol Drive"},{"Latitude":"7.9494970","Longitude":"-11.7529460","Name":"Bao Street"},{"Latitude":"8.2487999","Longitude":"-13.0798888","Name":"Baoma Road"},{"Latitude":"8.4794136","Longitude":"-13.2244433","Name":"Barham Road"},{"Latitude":"8.4518406","Longitude":"-13.2657364","Name":"Barlatt Drive"},{"Latitude":"8.3883177","Longitude":"-13.1237492","Name":"Barlay Drive"},{"Latitude":"8.4908239","Longitude":"-13.2636734","Name":"Barracks Road"},{"Latitude":"8.3529807","Longitude":"-13.0804161","Name":"Barrie Alafia Drive"},{"Latitude":"8.4408992","Longitude":"-13.2705027","Name":"Barrie Drive"},{"Latitude":"8.3847413","Longitude":"-13.1193285","Name":"Barrie Street"},{"Latitude":"8.3865277","Longitude":"-13.0943729","Name":"Barry Drive"},{"Latitude":"7.8686320","Longitude":"-11.1909404","Name":"Barwoh Street"},{"Latitude":"8.4744409","Longitude":"-13.2571916","Name":"Baryoh Drive"},{"Latitude":"7.8663284","Longitude":"-11.1890971","Name":"Baryoh street"},{"Latitude":"8.4064143","Longitude":"-13.1472291","Name":"Bashram Street"},{"Latitude":"8.4731813","Longitude":"-13.2461075","Name":"Bass Street"},{"Latitude":"8.4742495","Longitude":"-13.2435237","Name":"Bass Street (Main)"},{"Latitude":"8.4729964","Longitude":"-13.2446790","Name":"Bass Street 2"},{"Latitude":"8.4748508","Longitude":"-13.2458103","Name":"Bath Street"},{"Latitude":"8.4346947","Longitude":"-13.2101677","Name":"Bathur's Road"},{"Latitude":"8.4313302","Longitude":"-13.2027295","Name":"Bathurst Main Road"},{"Latitude":"8.4852253","Longitude":"-13.2374729","Name":"Bathurst Street"},{"Latitude":"8.3203474","Longitude":"-13.0441426","Name":"Batima Road"},{"Latitude":"8.8991383","Longitude":"-12.0430843","Name":"Batrice"},{"Latitude":"8.4909557","Longitude":"-13.2453905","Name":"Battery 2"},{"Latitude":"8.4910980","Longitude":"-13.2481801","Name":"Battery Road"},{"Latitude":"8.4905442","Longitude":"-13.2482005","Name":"Battery Street"},{"Latitude":"8.4885779","Longitude":"-13.2694847","Name":"Bayoh Drive"},{"Latitude":"7.9447390","Longitude":"-11.7317980","Name":"Bayoh Street"},{"Latitude":"8.3803615","Longitude":"-13.2577049","Name":"Beach Cemetery Road"},{"Latitude":"8.3428844","Longitude":"-13.0357244","Name":"Bear Bear Street"},{"Latitude":"8.4484065","Longitude":"-13.1741872","Name":"Beccle Street"},{"Latitude":"8.4760154","Longitude":"-13.2428206","Name":"Beccles Street"},{"Latitude":"8.4740655","Longitude":"-13.2519083","Name":"Beckley Drive"},{"Latitude":"8.4732225","Longitude":"-13.2533520","Name":"Beckley Lane"},{"Latitude":"8.4734156","Longitude":"-13.2525661","Name":"Beckley Lane 1"},{"Latitude":"8.4732597","Longitude":"-13.2645521","Name":"Belewa Drive"},{"Latitude":"8.4703078","Longitude":"-13.2357751","Name":"Belia Road"},{"Latitude":"7.9590460","Longitude":"-11.7241340","Name":"Belmon Street"},{"Latitude":"8.3889943","Longitude":"-13.1088925","Name":"Bendu Kamara Street"},{"Latitude":"9.0434400","Longitude":"-11.7423771","Name":"Bendugu Road"},{"Latitude":"8.4586683","Longitude":"-13.2783227","Name":"Bendus Drive"},{"Latitude":"8.2856207","Longitude":"-13.1817140","Name":"Bengal Street"},{"Latitude":"8.4564529","Longitude":"-13.2656597","Name":"Benjamin Drive"},{"Latitude":"8.4760320","Longitude":"-13.2369578","Name":"Benjamin Lane"},{"Latitude":"8.4818815","Longitude":"-13.2714132","Name":"Benka Lane"},{"Latitude":"8.6246723","Longitude":"-13.2127767","Name":"Benke Road"},{"Latitude":"7.9567117","Longitude":"-11.7606737","Name":"Benson Street"},{"Latitude":"8.4871260","Longitude":"-13.2215393","Name":"Bent Street"},{"Latitude":"8.4820574","Longitude":"-13.2552121","Name":"Beoku Lane"},{"Latitude":"8.4511641","Longitude":"-13.2139269","Name":"Berkeley Street"},{"Latitude":"8.3348354","Longitude":"-13.0703563","Name":"Bernuear Street"},{"Latitude":"8.4769718","Longitude":"-13.2293060","Name":"Berry Street"},{"Latitude":"8.4503974","Longitude":"-13.2133824","Name":"Bertus Road"},{"Latitude":"8.4807289","Longitude":"-13.2439609","Name":"Berwick Street"},{"Latitude":"8.3358607","Longitude":"-13.0605717","Name":"Bet Farm Road"},{"Latitude":"8.4821921","Longitude":"-13.2186329","Name":"Betham Lane"},{"Latitude":"8.4878306","Longitude":"-13.2199323","Name":"Bethel Street"},{"Latitude":"8.3798585","Longitude":"-13.1089003","Name":"Bettanis Road"},{"Latitude":"8.4890048","Longitude":"-13.2047711","Name":"Betts Street"},{"Latitude":"8.3836237","Longitude":"-13.1119854","Name":"Biango Street"},{"Latitude":"7.9735507","Longitude":"-11.7225748","Name":"Bindi Street"},{"Latitude":"7.8751760","Longitude":"-11.1769956","Name":"Bindy Street"},{"Latitude":"8.3977516","Longitude":"-13.2625992","Name":"Bintu Lane"},{"Latitude":"7.9472128","Longitude":"-11.7656649","Name":"Bintu Sillah"},{"Latitude":"8.4961260","Longitude":"-13.2867086","Name":"Bintumani Drive"},{"Latitude":"8.3370645","Longitude":"-13.0509911","Name":"Bintuway Drive"},{"Latitude":"8.8801691","Longitude":"-12.0439030","Name":"Bio street"},{"Latitude":"7.9669825","Longitude":"-11.7409833","Name":"Biowa Road"},{"Latitude":"8.4533887","Longitude":"-13.2652764","Name":"Bishop Drive"},{"Latitude":"8.3241959","Longitude":"-13.0735697","Name":"Bishop Lane"},{"Latitude":"8.4775707","Longitude":"-13.2501380","Name":"Bismac Johnson Lane"},{"Latitude":"8.4822477","Longitude":"-13.2499643","Name":"Bismark Johnson Street"},{"Latitude":"8.3415464","Longitude":"-13.0703730","Name":"Black Hall Road"},{"Latitude":"8.2617596","Longitude":"-13.1621071","Name":"Black Johnson Drive"},{"Latitude":"8.3239809","Longitude":"-13.0489976","Name":"Black Pole Street"},{"Latitude":"8.3770481","Longitude":"-13.1547355","Name":"Black Stone"},{"Latitude":"8.2884153","Longitude":"-13.1812991","Name":"Black Street"},{"Latitude":"8.8880728","Longitude":"-12.0750307","Name":"Black Street Drive"},{"Latitude":"8.4521580","Longitude":"-13.2609526","Name":"Black Tank"},{"Latitude":"8.4204192","Longitude":"-13.2723260","Name":"Black Tank Drive"},{"Latitude":"8.4831198","Longitude":"-13.2127695","Name":"Blackhall Road"},{"Latitude":"8.4838752","Longitude":"-13.2177835","Name":"Blyden Lane"},{"Latitude":"8.4892403","Longitude":"-13.2152398","Name":"Bngie Street"},{"Latitude":"8.4257108","Longitude":"-13.2645997","Name":"Bob J Drive"},{"Latitude":"7.9604676","Longitude":"-11.7209790","Name":"Bobor Deen Street"},{"Latitude":"8.4838752","Longitude":"-13.2177835","Name":"Bockarie Lane"},{"Latitude":"7.9830020","Longitude":"-11.7305870","Name":"Bockarie Street"},{"Latitude":"7.8685651","Longitude":"-11.1925033","Name":"Bockariegbay Street"},{"Latitude":"8.3242370","Longitude":"-13.0717550","Name":"Bofla Road"},{"Latitude":"7.9663216","Longitude":"-11.7399641","Name":"Bojon Street"},{"Latitude":"7.9589633","Longitude":"-11.7581676","Name":"Bokon Street"},{"Latitude":"7.9595324","Longitude":"-11.7577027","Name":"Bokun Street"},{"Latitude":"8.4880269","Longitude":"-13.2480888","Name":"Bolling Street"},{"Latitude":"9.0429360","Longitude":"-11.7404493","Name":"Bomba Street"},{"Latitude":"8.4855810","Longitude":"-13.2232918","Name":"Bombay Lane"},{"Latitude":"8.2874807","Longitude":"-13.0012961","Name":"Bomkolayay Road"},{"Latitude":"8.3628090","Longitude":"-13.0786349","Name":"Bondeba"},{"Latitude":"8.3902057","Longitude":"-13.1391293","Name":"Borbin Avenue"},{"Latitude":"8.3771734","Longitude":"-13.1368253","Name":"Borgorny Street"},{"Latitude":"8.4265854","Longitude":"-13.2768590","Name":"Bottom Mango Drive"},{"Latitude":"8.4507480","Longitude":"-13.1667085","Name":"Bowden Street"},{"Latitude":"8.4496791","Longitude":"-13.1693327","Name":"Bowen Street"},{"Latitude":"8.3280691","Longitude":"-13.0667730","Name":"Boye Street"},{"Latitude":"8.4864575","Longitude":"-13.2596742","Name":"Boyle Lane"},{"Latitude":"8.4876264","Longitude":"-13.2219279","Name":"Boyle Street"},{"Latitude":"8.4274103","Longitude":"-13.2770835","Name":"Braima Drive"},{"Latitude":"8.4861288","Longitude":"-13.2167298","Name":"Brass Street"},{"Latitude":"8.4862253","Longitude":"-13.2629109","Name":"Bright Lane"},{"Latitude":"8.4749773","Longitude":"-13.2461003","Name":"Bright Street"},{"Latitude":"7.8691232","Longitude":"-11.1928933","Name":"Brima Kargbo Street"},{"Latitude":"7.8550385","Longitude":"-11.1952248","Name":"Brima Kondeh Street Mohamed Koneh"},{"Latitude":"7.9488282","Longitude":"-11.7371133","Name":"Brima Lane"},{"Latitude":"8.4668349","Longitude":"-13.2750486","Name":"Brinsley Johnson Drive"},{"Latitude":"8.3709577","Longitude":"-13.1509788","Name":"British Drive"},{"Latitude":"8.4836251","Longitude":"-13.2564666","Name":"Bronce Lane"},{"Latitude":"8.4755293","Longitude":"-13.2089259","Name":"Brook's Drive"},{"Latitude":"8.4842977","Longitude":"-13.2189788","Name":"Brown Lane"},{"Latitude":"8.4916790","Longitude":"-13.2615276","Name":"Bryne Lane"},{"Latitude":"8.7821635","Longitude":"-11.8728814","Name":"Bumbuna Road 1"},{"Latitude":"8.6065622","Longitude":"-11.0302842","Name":"Bumpeh - Koidu Road"},{"Latitude":"8.3894004","Longitude":"-13.1272385","Name":"Bundu Cham Street"},{"Latitude":"8.4744937","Longitude":"-13.2283670","Name":"Bundu Street"},{"Latitude":"8.4708694","Longitude":"-13.1800076","Name":"Bunduka Street"},{"Latitude":"8.4391902","Longitude":"-13.2298858","Name":"Bureh Drive"},{"Latitude":"8.2074549","Longitude":"-13.1546033","Name":"Burgh Beach Surf Club Drive"},{"Latitude":"8.4800916","Longitude":"-13.2296875","Name":"Bush Street"},{"Latitude":"8.3640005","Longitude":"-13.0756791","Name":"Busura Lane"},{"Latitude":"8.4832623","Longitude":"-13.2723973","Name":"Byne Lane"},{"Latitude":"8.4854917","Longitude":"-13.2730906","Name":"Byrne Lane"},{"Latitude":"7.9476345","Longitude":"-11.7540757","Name":"C Line"},{"Latitude":"7.9555920","Longitude":"-11.7332750","Name":"C-Line"},{"Latitude":"8.4259356","Longitude":"-13.1643029","Name":"CASE DRIVE"},{"Latitude":"8.4615277","Longitude":"-13.1745601","Name":"CEMENTERY ROAD"},{"Latitude":"8.4257519","Longitude":"-13.1581691","Name":"CEMETARY ROAD"},{"Latitude":"8.4556529","Longitude":"-13.1731465","Name":"COLERIDGE STREET"},{"Latitude":"8.4647688","Longitude":"-13.1821798","Name":"CONGRESS ROAD"},{"Latitude":"8.4700719","Longitude":"-13.2081550","Name":"CONTEH ST (BAGHDAD)"},{"Latitude":"8.4397992","Longitude":"-13.1734809","Name":"CONTON STREET"},{"Latitude":"8.4800259","Longitude":"-13.2417957","Name":"CREW STREET"},{"Latitude":"8.4575593","Longitude":"-13.1741960","Name":"CROWDA LANE"},{"Latitude":"8.3643520","Longitude":"-13.2294656","Name":"California Drive"},{"Latitude":"8.3350342","Longitude":"-13.0692343","Name":"Calmont Road"},{"Latitude":"8.4500155","Longitude":"-13.1620972","Name":"Campbel Street"},{"Latitude":"8.3810073","Longitude":"-13.1030499","Name":"Campbell Lane"},{"Latitude":"8.4778183","Longitude":"-13.2398131","Name":"Campbell Street"},{"Latitude":"8.8860098","Longitude":"-12.0423608","Name":"Campbell street"},{"Latitude":"8.4734380","Longitude":"-13.2381700","Name":"Cannon Street"},{"Latitude":"8.4887114","Longitude":"-13.2173312","Name":"Canton Lane"},{"Latitude":"8.4882638","Longitude":"-13.2148704","Name":"Canton Street"},{"Latitude":"8.4875708","Longitude":"-13.2875045","Name":"Cape Road"},{"Latitude":"8.4966061","Longitude":"-13.2958576","Name":"CapeLight Drive"},{"Latitude":"8.4879752","Longitude":"-13.2217448","Name":"Cardew Street"},{"Latitude":"8.3851319","Longitude":"-13.2581278","Name":"Carew Drive"},{"Latitude":"8.4103719","Longitude":"-13.1489904","Name":"Caritas Road"},{"Latitude":"8.4782577","Longitude":"-13.2730069","Name":"Carlton Carew Road"},{"Latitude":"8.3781738","Longitude":"-13.1364643","Name":"Carr Street"},{"Latitude":"8.4808394","Longitude":"-13.2609596","Name":"Carrol Lane"},{"Latitude":"8.4154281","Longitude":"-13.2694593","Name":"Carrol Street"},{"Latitude":"8.4182899","Longitude":"-13.2638305","Name":"Caulker Avenue"},{"Latitude":"8.4490013","Longitude":"-13.1698165","Name":"Caulker Street"},{"Latitude":"8.3458008","Longitude":"-13.2182063","Name":"Caurker Drive"},{"Latitude":"7.9835000","Longitude":"-11.7369580","Name":"Cemetary Drive"},{"Latitude":"8.4818548","Longitude":"-13.2536822","Name":"Cemetery Road"},{"Latitude":"7.9588550","Longitude":"-11.7223200","Name":"Cemetry Road"},{"Latitude":"8.4393547","Longitude":"-13.2739150","Name":"Chambers Drive"},{"Latitude":"8.1738427","Longitude":"-13.1560712","Name":"Changing Wharf Street"},{"Latitude":"8.4842069","Longitude":"-13.2425581","Name":"Chapel Street"},{"Latitude":"8.4791616","Longitude":"-13.2391177","Name":"Charles Street"},{"Latitude":"8.4149358","Longitude":"-13.2681209","Name":"Charles Williams Drive"},{"Latitude":"8.4893680","Longitude":"-13.2341239","Name":"Charlotte Street"},{"Latitude":"8.4782212","Longitude":"-13.2737609","Name":"Charlton Carew Road"},{"Latitude":"8.4384848","Longitude":"-13.2192899","Name":"Charple Street"},{"Latitude":"8.3608520","Longitude":"-13.0775313","Name":"Chico Drive"},{"Latitude":"8.3913105","Longitude":"-13.1206072","Name":"Chief Kondeh Drive"},{"Latitude":"7.8545366","Longitude":"-11.1976902","Name":"Chief Massaquoi Street"},{"Latitude":"8.2474998","Longitude":"-13.1556813","Name":"Chines Drive"},{"Latitude":"8.3753282","Longitude":"-13.0940031","Name":"Chinese Compound"},{"Latitude":"8.3751139","Longitude":"-13.0976316","Name":"Chinese Compound Road"},{"Latitude":"8.4547192","Longitude":"-13.2448259","Name":"Chinese Drive"},{"Latitude":"8.3080061","Longitude":"-13.0925001","Name":"Chinese Quarry Road"},{"Latitude":"8.4734454","Longitude":"-13.2341762","Name":"Chris Chalie Drive"},{"Latitude":"8.4856202","Longitude":"-13.2227527","Name":"Christiana Lane"},{"Latitude":"8.4855026","Longitude":"-13.2225535","Name":"Christiana Terrace"},{"Latitude":"8.3958485","Longitude":"-13.1498756","Name":"Church Road"},{"Latitude":"8.3325545","Longitude":"-13.0584317","Name":"Church Street"},{"Latitude":"8.4750040","Longitude":"-13.2570016","Name":"Church of Christ Lane"},{"Latitude":"8.4810102","Longitude":"-13.2299745","Name":"Circular Road"},{"Latitude":"8.4532138","Longitude":"-13.1708546","Name":"City Road"},{"Latitude":"8.3185961","Longitude":"-13.0582535","Name":"City of Light Road"},{"Latitude":"7.5244374","Longitude":"-12.5035666","Name":"Claffin Lane"},{"Latitude":"8.4771714","Longitude":"-13.2358754","Name":"Clarence Street"},{"Latitude":"8.4740649","Longitude":"-13.2546884","Name":"Clark Road"},{"Latitude":"8.4756579","Longitude":"-13.2536933","Name":"Clark Street"},{"Latitude":"8.4746750","Longitude":"-13.2549861","Name":"Clark Street Road"},{"Latitude":"8.4810167","Longitude":"-13.2408690","Name":"Clarke Street"},{"Latitude":"8.4537267","Longitude":"-13.2699356","Name":"Clarkson Drive"},{"Latitude":"8.3853625","Longitude":"-13.1484174","Name":"Claude Lane"},{"Latitude":"8.4895406","Longitude":"-13.2078207","Name":"Cline Street"},{"Latitude":"8.4360545","Longitude":"-13.2175371","Name":"Cliren Street"},{"Latitude":"8.4541630","Longitude":"-13.2368165","Name":"Coachies Drive"},{"Latitude":"8.4683121","Longitude":"-13.1965870","Name":"Cock Street"},{"Latitude":"8.4629990","Longitude":"-13.2668850","Name":"Cocker Drive"},{"Latitude":"8.4702574","Longitude":"-13.2775216","Name":"Cockerill North"},{"Latitude":"8.4898290","Longitude":"-13.2701841","Name":"Cockle Bay Road"},{"Latitude":"8.4555151","Longitude":"-13.2638602","Name":"Coker Drive"},{"Latitude":"8.4528296","Longitude":"-13.2586463","Name":"Cole Drive"},{"Latitude":"8.3573769","Longitude":"-13.0731742","Name":"Cole Lane"},{"Latitude":"8.4803230","Longitude":"-13.2409052","Name":"Cole Street"},{"Latitude":"8.4276890","Longitude":"-13.2793781","Name":"College Lane"},{"Latitude":"8.4780011","Longitude":"-13.2562353","Name":"College Road"},{"Latitude":"8.4825706","Longitude":"-13.2729821","Name":"Collegiate Road"},{"Latitude":"8.4853204","Longitude":"-13.2696189","Name":"Colleh Lane"},{"Latitude":"8.4283177","Longitude":"-13.2831815","Name":"Collingwood Drive"},{"Latitude":"8.3316623","Longitude":"-13.0305934","Name":"Coloneh Drive"},{"Latitude":"8.3942816","Longitude":"-13.1484534","Name":"Columbia Davies Drive"},{"Latitude":"8.3177884","Longitude":"-13.0446650","Name":"Columbus Street"},{"Latitude":"7.8754337","Longitude":"-11.1799286","Name":"Combema Road"},{"Latitude":"8.4820332","Longitude":"-13.2675013","Name":"Combination Drive"},{"Latitude":"8.8852546","Longitude":"-12.0429964","Name":"Compound Street"},{"Latitude":"7.9705830","Longitude":"-11.7253940","Name":"Comprehensive School Road"},{"Latitude":"8.4698971","Longitude":"-13.2474766","Name":"Concern Drive"},{"Latitude":"8.4745854","Longitude":"-13.2531743","Name":"Congo Bridge Lane"},{"Latitude":"8.4830849","Longitude":"-13.2588932","Name":"Congo Cross"},{"Latitude":"8.4835118","Longitude":"-13.2538180","Name":"Congo Town Road"},{"Latitude":"8.4830744","Longitude":"-13.2582708","Name":"Congo Town Slip Road"},{"Latitude":"8.4540635","Longitude":"-13.1702413","Name":"Congo Water Street"},{"Latitude":"8.8828509","Longitude":"-12.0409419","Name":"Congo town Road"},{"Latitude":"8.8770181","Longitude":"-12.0383373","Name":"Congo town road"},{"Latitude":"8.4404995","Longitude":"-13.1657678","Name":"Consider Lane"},{"Latitude":"8.4067795","Longitude":"-13.2577951","Name":"Conteh Drive"},{"Latitude":"8.8791846","Longitude":"-12.0438159","Name":"Conteh Street"},{"Latitude":"8.4525878","Longitude":"-13.2681178","Name":"Cookson Drive"},{"Latitude":"7.8731029","Longitude":"-11.1795431","Name":"Cooper Lane"},{"Latitude":"7.5316125","Longitude":"-12.5036120","Name":"Corn Street"},{"Latitude":"8.4501318","Longitude":"-13.2673616","Name":"Corner Stone Miniry Drive"},{"Latitude":"8.4467589","Longitude":"-13.1689832","Name":"Cornhill Street"},{"Latitude":"7.9607290","Longitude":"-11.7247710","Name":"Coroma Yemoh Street"},{"Latitude":"7.9579170","Longitude":"-11.7419545","Name":"Coronation Field Road"},{"Latitude":"7.5266178","Longitude":"-12.5056197","Name":"Coulson Street"},{"Latitude":"8.3357982","Longitude":"-13.0750868","Name":"Council Lane"},{"Latitude":"8.3472302","Longitude":"-13.0776076","Name":"Council road"},{"Latitude":"8.4658386","Longitude":"-13.1961011","Name":"Cox Street"},{"Latitude":"8.4345170","Longitude":"-13.2707776","Name":"Crawder Lane"},{"Latitude":"8.4920477","Longitude":"-13.2826747","Name":"Cromwell Street"},{"Latitude":"8.4870772","Longitude":"-13.2207236","Name":"Crooked Lane"},{"Latitude":"8.4887326","Longitude":"-13.2196051","Name":"Crooks Street"},{"Latitude":"8.4151707","Longitude":"-13.2703847","Name":"Cumboh Drive"},{"Latitude":"8.9012192","Longitude":"-12.0339547","Name":"Curtis Drive"},{"Latitude":"8.4439258","Longitude":"-13.1716750","Name":"Cuttur Street"},{"Latitude":"8.3914725","Longitude":"-13.1541472","Name":"Cyprus Road"},{"Latitude":"8.4640579","Longitude":"-13.2494500","Name":"D-Line Road"},{"Latitude":"8.4543881","Longitude":"-13.1749470","Name":"DAVID STREET"},{"Latitude":"8.4090534","Longitude":"-13.1472279","Name":"DEEN DRIVE"},{"Latitude":"8.4241957","Longitude":"-13.1609641","Name":"DEEN'S DRIVE"},{"Latitude":"8.4284825","Longitude":"-13.1525144","Name":"DICKSON DRIVE"},{"Latitude":"8.4158396","Longitude":"-13.1562279","Name":"DIDI DRIVE"},{"Latitude":"8.4601197","Longitude":"-13.1943190","Name":"DOSTBILL SREET"},{"Latitude":"8.4238365","Longitude":"-13.1633925","Name":"DOUGLAD DRIVE"},{"Latitude":"8.4381590","Longitude":"-13.1587878","Name":"DOWN BIGGER STREET"},{"Latitude":"8.4370050","Longitude":"-13.2165527","Name":"Dadley Street"},{"Latitude":"8.3135607","Longitude":"-13.0530781","Name":"Dainkeh Drive"},{"Latitude":"7.9574950","Longitude":"-11.7354960","Name":"Daiva Street"},{"Latitude":"7.8712614","Longitude":"-11.1927827","Name":"Dakiyai Street"},{"Latitude":"8.4513330","Longitude":"-13.2484557","Name":"Damaya Drive"},{"Latitude":"8.4950788","Longitude":"-13.2688845","Name":"Damba Road"},{"Latitude":"7.9671736","Longitude":"-11.7407887","Name":"Dambala Road"},{"Latitude":"8.4842730","Longitude":"-13.2172872","Name":"Dan Lane"},{"Latitude":"8.4866130","Longitude":"-13.2155134","Name":"Dan Street"},{"Latitude":"7.9641096","Longitude":"-11.7228934","Name":"Dapie Street"},{"Latitude":"8.8871652","Longitude":"-12.0461346","Name":"Darmy street"},{"Latitude":"7.8596328","Longitude":"-11.1983594","Name":"Dauda Sandy Street"},{"Latitude":"8.4108243","Longitude":"-13.2658154","Name":"Dauy Drive"},{"Latitude":"8.4698397","Longitude":"-13.2616781","Name":"David Drive"},{"Latitude":"7.9434870","Longitude":"-11.7030070","Name":"David Makieu Street"},{"Latitude":"8.4888155","Longitude":"-13.2146869","Name":"Davies Street"},{"Latitude":"7.9428027","Longitude":"-11.7134289","Name":"Davowa Street"},{"Latitude":"7.9364359","Longitude":"-11.7347715","Name":"Dawa Street"},{"Latitude":"8.3409276","Longitude":"-13.0417598","Name":"Dawouson Drive"},{"Latitude":"8.4837161","Longitude":"-13.2133106","Name":"Dawson Lane"},{"Latitude":"8.4545236","Longitude":"-13.2607260","Name":"Decca Drive"},{"Latitude":"8.4165823","Longitude":"-13.2685688","Name":"Decker Drive"},{"Latitude":"8.4069124","Longitude":"-13.2618191","Name":"Deen Sankoh Drive"},{"Latitude":"8.4484968","Longitude":"-13.1665331","Name":"Deen Street"},{"Latitude":"8.4541518","Longitude":"-13.2604920","Name":"Deka Drive"},{"Latitude":"8.3441742","Longitude":"-13.2217241","Name":"Delken Drive"},{"Latitude":"7.8548442","Longitude":"-11.1972302","Name":"Dema Road"},{"Latitude":"7.8789295","Longitude":"-11.1896632","Name":"Demby Street"},{"Latitude":"8.4511071","Longitude":"-13.2751657","Name":"Denking Close"},{"Latitude":"8.4675678","Longitude":"-13.2713912","Name":"Derick Drive"},{"Latitude":"8.4664416","Longitude":"-13.2703391","Name":"Derick's Drive"},{"Latitude":"8.4090345","Longitude":"-13.2652327","Name":"Desmond Lane"},{"Latitude":"8.4826857","Longitude":"-13.2687560","Name":"Destiny Drive"},{"Latitude":"8.4823532","Longitude":"-13.2286978","Name":"Devere Street"},{"Latitude":"8.4291953","Longitude":"-13.2785101","Name":"Diame Drive"},{"Latitude":"8.4741013","Longitude":"-13.2373664","Name":"Dick Street"},{"Latitude":"7.9427240","Longitude":"-11.7302730","Name":"Didon Street"},{"Latitude":"8.4768610","Longitude":"-13.2388043","Name":"Dillet Street"},{"Latitude":"7.8611007","Longitude":"-11.2040873","Name":"Diogbuma Road"},{"Latitude":"7.9706236","Longitude":"-11.7363872","Name":"District Council Road"},{"Latitude":"8.4896027","Longitude":"-13.2238296","Name":"Dixon Street"},{"Latitude":"8.4882490","Longitude":"-13.2639221","Name":"Doherty Street"},{"Latitude":"7.5249918","Longitude":"-12.5042857","Name":"Don Boko Road"},{"Latitude":"7.9366282","Longitude":"-11.7180526","Name":"Donboi Street"},{"Latitude":"7.9680130","Longitude":"-11.7306840","Name":"Dorba Road"},{"Latitude":"8.3193801","Longitude":"-13.0736993","Name":"Doris Drive"},{"Latitude":"8.4769983","Longitude":"-13.2406497","Name":"Dougan Street"},{"Latitude":"8.3770928","Longitude":"-13.1346637","Name":"Douglas Drive"},{"Latitude":"8.5412202","Longitude":"-11.0909461","Name":"Downhill Bush path"},{"Latitude":"8.4412985","Longitude":"-13.2678889","Name":"Dr Kamara Drive"},{"Latitude":"8.4433543","Longitude":"-13.2674277","Name":"Dr. Charles M. Kaikai Drive"},{"Latitude":"7.8754248","Longitude":"-11.1865446","Name":"Dr. Demby Street"},{"Latitude":"7.9710510","Longitude":"-11.7400620","Name":"Dr. Johnson Street"},{"Latitude":"7.9671635","Longitude":"-11.7260962","Name":"Dr. Margai Street"},{"Latitude":"7.9418680","Longitude":"-11.7071801","Name":"Dr. Samai Street"},{"Latitude":"7.9565505","Longitude":"-11.7611600","Name":"Dr. Williams Drive"},{"Latitude":"7.9678890","Longitude":"-11.7439590","Name":"Dr. Williams Street"},{"Latitude":"7.9506470","Longitude":"-11.7531100","Name":"Dr. Wusu Sannoh Street"},{"Latitude":"8.6124933","Longitude":"-13.2018577","Name":"Dr.Ernest Bai Koroma Road"},{"Latitude":"7.9325318","Longitude":"-11.7184471","Name":"Dr.Maligi Sankoh Street"},{"Latitude":"8.4327821","Longitude":"-13.1606980","Name":"Duah Jabbi Lane"},{"Latitude":"8.1739343","Longitude":"-13.1627962","Name":"Dubleyson Street"},{"Latitude":"8.4780032","Longitude":"-13.2341331","Name":"Duke Street"},{"Latitude":"8.4098043","Longitude":"-13.2636577","Name":"Dumbayah Drive"},{"Latitude":"8.4783520","Longitude":"-13.2394219","Name":"Dundas Street"},{"Latitude":"8.4859382","Longitude":"-13.2264985","Name":"Dunkley Street"},{"Latitude":"7.8838303","Longitude":"-11.1859902","Name":"Duowa Street"},{"Latitude":"8.3337049","Longitude":"-13.0703115","Name":"During Street"},{"Latitude":"8.3918883","Longitude":"-13.2593662","Name":"E Co Center"},{"Latitude":"7.9625480","Longitude":"-11.7654010","Name":"E Line"},{"Latitude":"8.4902135","Longitude":"-13.2316337","Name":"ECOWAS Street"},{"Latitude":"8.3762794","Longitude":"-13.1543004","Name":"EJ Momoh Street"},{"Latitude":"8.4758735","Longitude":"-13.2430195","Name":"ELEADY STREET"},{"Latitude":"8.4609925","Longitude":"-13.1828744","Name":"EMIMAN DRIVE"},{"Latitude":"8.4601425","Longitude":"-13.2451898","Name":"Eacon Road"},{"Latitude":"8.8816248","Longitude":"-12.0514231","Name":"Eaks Road"},{"Latitude":"8.4771157","Longitude":"-13.2353322","Name":"Earl Street"},{"Latitude":"8.4761550","Longitude":"-13.2610766","Name":"Easmon Drive"},{"Latitude":"8.4886630","Longitude":"-13.2285925","Name":"East Brook Street"},{"Latitude":"8.4875724","Longitude":"-13.2190672","Name":"Easton Street"},{"Latitude":"8.3328666","Longitude":"-13.0420198","Name":"Ebola Road"},{"Latitude":"8.4571282","Longitude":"-13.2168370","Name":"Eddie Macaulay Street"},{"Latitude":"8.4487186","Longitude":"-13.2579131","Name":"Edmas Drive"},{"Latitude":"8.4836418","Longitude":"-13.2200906","Name":"Edmond Street"},{"Latitude":"7.9490079","Longitude":"-11.7607961","Name":"Edmond Tamba Street"},{"Latitude":"8.3564793","Longitude":"-13.0834461","Name":"Edna Drive"},{"Latitude":"8.3518544","Longitude":"-13.0846310","Name":"Ednat Drive"},{"Latitude":"8.4760638","Longitude":"-13.2374067","Name":"Edward Lane"},{"Latitude":"8.4805512","Longitude":"-13.2422449","Name":"Edward Street"},{"Latitude":"7.5245227","Longitude":"-12.5060017","Name":"Edwards Street"},{"Latitude":"8.3798849","Longitude":"-13.1382797","Name":"Edwin Street"},{"Latitude":"7.9552331","Longitude":"-11.7495975","Name":"Eight Street"},{"Latitude":"8.4852644","Longitude":"-13.2706307","Name":"Eku Lane"},{"Latitude":"8.4886331","Longitude":"-13.2229592","Name":"Elba Street"},{"Latitude":"7.9545550","Longitude":"-11.7504580","Name":"Eleventh Street"},{"Latitude":"8.4802282","Longitude":"-13.2524360","Name":"Elim"},{"Latitude":"8.4832087","Longitude":"-13.2441983","Name":"Elizabeth Street"},{"Latitude":"8.4862549","Longitude":"-13.2267914","Name":"Elk Street"},{"Latitude":"8.4434508","Longitude":"-13.2256512","Name":"Ellaline Drive"},{"Latitude":"7.9354957","Longitude":"-11.7203273","Name":"Ellie Street"},{"Latitude":"8.4751182","Longitude":"-13.2426983","Name":"Elliott Street"},{"Latitude":"8.3208479","Longitude":"-13.0743554","Name":"Elvis Drive"},{"Latitude":"8.4135986","Longitude":"-13.2666202","Name":"Emerson Bockarie Drive"},{"Latitude":"8.4282746","Longitude":"-13.2851642","Name":"Emil Wilson Drive"},{"Latitude":"8.4845629","Longitude":"-13.2187148","Name":"Emily Lane"},{"Latitude":"8.4844703","Longitude":"-13.2137061","Name":"Emmanuel Street"},{"Latitude":"8.3819204","Longitude":"-13.2557304","Name":"Emmanuel Turay Street"},{"Latitude":"8.4361261","Longitude":"-13.2236727","Name":"Emos Drive"},{"Latitude":"7.8674347","Longitude":"-11.1880756","Name":"Ensa Street"},{"Latitude":"8.4493068","Longitude":"-13.2786655","Name":"Eoncon Drive"},{"Latitude":"7.9551036","Longitude":"-11.7145840","Name":"Ernest Vandi Street"},{"Latitude":"8.3867945","Longitude":"-13.1009704","Name":"Essequee Drive"},{"Latitude":"8.2253158","Longitude":"-13.0945390","Name":"Eusumo Ice Pack Road"},{"Latitude":"8.3440582","Longitude":"-13.0700183","Name":"Eva's Street"},{"Latitude":"8.3390034","Longitude":"-13.2101713","Name":"Evangelis Drive"},{"Latitude":"8.2842663","Longitude":"-13.1795842","Name":"Everett Street"},{"Latitude":"8.3820505","Longitude":"-13.2563325","Name":"Ezreh Road"},{"Latitude":"8.4287220","Longitude":"-13.1523072","Name":"FINAKRA1 STREET"},{"Latitude":"8.4303070","Longitude":"-13.1516010","Name":"FINKARAY STREET"},{"Latitude":"8.4628084","Longitude":"-13.1733135","Name":"FOFANAH LANE"},{"Latitude":"8.4278500","Longitude":"-13.1528117","Name":"FORFANA LANE"},{"Latitude":"8.4598362","Longitude":"-13.1767202","Name":"FREE PENTECOSTAL ROAD"},{"Latitude":"8.4646239","Longitude":"-13.1943152","Name":"FRIST STREET"},{"Latitude":"7.8617973","Longitude":"-11.1926885","Name":"Fabai Street"},{"Latitude":"8.4780379","Longitude":"-13.1934877","Name":"Factory Road"},{"Latitude":"8.4297069","Longitude":"-13.2657128","Name":"Fadia Drive"},{"Latitude":"8.4458509","Longitude":"-13.2319027","Name":"Fadika Drive"},{"Latitude":"8.4847149","Longitude":"-13.2588210","Name":"Fadika Lane"},{"Latitude":"8.3759316","Longitude":"-13.2412080","Name":"Faith Drive"},{"Latitude":"8.3120351","Longitude":"-13.0570071","Name":"Faith Street"},{"Latitude":"8.3958174","Longitude":"-13.2630470","Name":"Fakia Drive"},{"Latitude":"8.8816490","Longitude":"-12.0502915","Name":"Falah Lane"},{"Latitude":"8.4719219","Longitude":"-13.1945346","Name":"Falcon Street"},{"Latitude":"8.4335708","Longitude":"-13.2888775","Name":"Falmouth Street"},{"Latitude":"7.9521330","Longitude":"-11.7150590","Name":"Fangbuleh Street"},{"Latitude":"8.3253374","Longitude":"-13.0617529","Name":"Fanta Street"},{"Latitude":"8.3406049","Longitude":"-13.0493478","Name":"Fard Street"},{"Latitude":"7.9609870","Longitude":"-11.7271510","Name":"Fargoya Road"},{"Latitude":"8.4758087","Longitude":"-13.2683175","Name":"Farm Drive"},{"Latitude":"8.4558244","Longitude":"-13.2657859","Name":"Farm Lane"},{"Latitude":"8.2214568","Longitude":"-13.0952242","Name":"Farm Road"},{"Latitude":"7.8766519","Longitude":"-11.1793171","Name":"Fasei Street"},{"Latitude":"8.4512438","Longitude":"-13.2404222","Name":"Fasuluku Drive"},{"Latitude":"7.9807630","Longitude":"-11.7376180","Name":"Father George Drive"},{"Latitude":"8.8880490","Longitude":"-12.0404913","Name":"Father Street"},{"Latitude":"7.8632157","Longitude":"-11.2050556","Name":"Fatimeh Street"},{"Latitude":"7.9454999","Longitude":"-11.7170027","Name":"Fatmata Street"},{"Latitude":"8.4828314","Longitude":"-13.2174701","Name":"Fatta Rahman Street"},{"Latitude":"7.9625525","Longitude":"-11.7225810","Name":"Fatu Kailie Street"},{"Latitude":"7.9464996","Longitude":"-11.7665738","Name":"Fatu Lane"},{"Latitude":"8.4822784","Longitude":"-13.2571717","Name":"Faulkner Street"},{"Latitude":"7.8602880","Longitude":"-11.1912349","Name":"Fellie Street"},{"Latitude":"8.3231942","Longitude":"-13.0292781","Name":"Fellow Farm Road"},{"Latitude":"8.4369732","Longitude":"-13.2756632","Name":"Femi Turner Drive"},{"Latitude":"7.9455187","Longitude":"-11.7253695","Name":"Fenba Street"},{"Latitude":"7.9652820","Longitude":"-11.7373520","Name":"Fenton Road"},{"Latitude":"8.4749795","Longitude":"-13.2391968","Name":"Fergusson Lane"},{"Latitude":"8.4757795","Longitude":"-13.2388628","Name":"Fergusson Street"},{"Latitude":"9.0438089","Longitude":"-11.7473236","Name":"Ferry Road"},{"Latitude":"8.4791891","Longitude":"-13.1983536","Name":"Ferry Way"},{"Latitude":"8.4534298","Longitude":"-13.2752810","Name":"Festus Drive"},{"Latitude":"8.4870434","Longitude":"-13.2246631","Name":"Fetter Lane"},{"Latitude":"8.8922797","Longitude":"-12.0425646","Name":"Field street"},{"Latitude":"8.4817632","Longitude":"-13.2278489","Name":"Fifth Street"},{"Latitude":"8.3202261","Longitude":"-13.0739442","Name":"Fina Road"},{"Latitude":"8.4833456","Longitude":"-13.2698361","Name":"Findley Lane"},{"Latitude":"8.2184956","Longitude":"-13.0985260","Name":"Findley Street"},{"Latitude":"8.3947331","Longitude":"-13.1529007","Name":"Fios Lane"},{"Latitude":"7.9562200","Longitude":"-11.7386100","Name":"First Bongay Street"},{"Latitude":"8.4848953","Longitude":"-13.2266539","Name":"First Street"},{"Latitude":"8.4895263","Longitude":"-13.2709679","Name":"Fisher Drive"},{"Latitude":"8.4895198","Longitude":"-13.2275250","Name":"Fisher Street"},{"Latitude":"8.3442348","Longitude":"-13.0692411","Name":"Fitz James Street"},{"Latitude":"8.3795331","Longitude":"-13.1351365","Name":"Fitz John Street"},{"Latitude":"8.3773235","Longitude":"-13.1339532","Name":"Fitzjohn Street"},{"Latitude":"8.3271688","Longitude":"-13.0404816","Name":"Five Five Drive"},{"Latitude":"8.3386444","Longitude":"-13.0721766","Name":"Fleck Street"},{"Latitude":"8.4328295","Longitude":"-13.2228770","Name":"Floresther Terrace"},{"Latitude":"8.8876965","Longitude":"-12.0432680","Name":"Flower Corner"},{"Latitude":"8.4876967","Longitude":"-13.2137834","Name":"Fly Street"},{"Latitude":"8.3722199","Longitude":"-13.0967663","Name":"Foday Drive"},{"Latitude":"7.9880661","Longitude":"-11.7424858","Name":"Foday Lane"},{"Latitude":"7.9491439","Longitude":"-11.7509524","Name":"Foday Street"},{"Latitude":"7.9573580","Longitude":"-11.7494075","Name":"Fofana Street"},{"Latitude":"8.4568850","Longitude":"-13.2638695","Name":"Fofanah Drive"},{"Latitude":"8.4319706","Longitude":"-13.1609249","Name":"Fofanah Lane"},{"Latitude":"8.3794551","Longitude":"-13.1489647","Name":"Fofonah Street"},{"Latitude":"7.9694396","Longitude":"-11.7160072","Name":"Fogbawa Street"},{"Latitude":"8.3017031","Longitude":"-12.9876764","Name":"Fogbo Street"},{"Latitude":"8.3892978","Longitude":"-13.1378597","Name":"Fomba Drive"},{"Latitude":"8.4327646","Longitude":"-13.2667797","Name":"Fonima Off Lion Street"},{"Latitude":"7.9589724","Longitude":"-11.7581475","Name":"Forbie Street"},{"Latitude":"8.4208957","Longitude":"-13.1919802","Name":"Forest Road"},{"Latitude":"8.4816774","Longitude":"-13.2350238","Name":"Fort Street"},{"Latitude":"7.9552331","Longitude":"-11.7495975","Name":"Forth Street"},{"Latitude":"8.3299552","Longitude":"-13.0756441","Name":"Forty Lane"},{"Latitude":"8.4888715","Longitude":"-13.2149699","Name":"Foster Street"},{"Latitude":"8.4840384","Longitude":"-13.2254174","Name":"Foulah Street"},{"Latitude":"8.4892722","Longitude":"-13.2137967","Name":"Fourah Bay Road"},{"Latitude":"8.4835602","Longitude":"-13.2272615","Name":"Fourth Street"},{"Latitude":"7.8692958","Longitude":"-11.1763052","Name":"Foyah Street"},{"Latitude":"8.4345263","Longitude":"-13.2784796","Name":"Fraizer Cole Drive"},{"Latitude":"8.3606198","Longitude":"-13.0908819","Name":"Francis brive"},{"Latitude":"8.4608935","Longitude":"-13.2155824","Name":"Franklin Drive"},{"Latitude":"8.4648531","Longitude":"-13.2709992","Name":"Fraser Drive"},{"Latitude":"8.4875093","Longitude":"-13.2630998","Name":"Fraser Street"},{"Latitude":"8.4809532","Longitude":"-13.2575991","Name":"Frazer Davies Drive"},{"Latitude":"8.4683982","Longitude":"-13.2702465","Name":"Frazer Drive"},{"Latitude":"8.4852908","Longitude":"-13.2630691","Name":"Frazer Street"},{"Latitude":"8.4850051","Longitude":"-13.2288328","Name":"Frederick Street"},{"Latitude":"8.3927507","Longitude":"-13.1639664","Name":"Free Gospel Drive"},{"Latitude":"8.4873027","Longitude":"-13.2296694","Name":"Free Street"},{"Latitude":"8.2183267","Longitude":"-13.0959091","Name":"Freeman Road"},{"Latitude":"8.3831159","Longitude":"-13.2609662","Name":"Freeman Street"},{"Latitude":"8.4577911","Longitude":"-13.2709035","Name":"Freetown Road"},{"Latitude":"8.3365409","Longitude":"-13.0710861","Name":"Frey Street"},{"Latitude":"8.3917301","Longitude":"-13.2609806","Name":"Frezokul Drive"},{"Latitude":"8.3634001","Longitude":"-13.0762269","Name":"Friendship Drive"},{"Latitude":"8.8904989","Longitude":"-12.0499823","Name":"Frontair road"},{"Latitude":"7.9516234","Longitude":"-11.7613395","Name":"Fuad Daboh"},{"Latitude":"8.4013136","Longitude":"-13.1141093","Name":"Fuad Lane"},{"Latitude":"7.9512463","Longitude":"-11.7633352","Name":"Fudia Daboh"},{"Latitude":"8.4709118","Longitude":"-13.2576308","Name":"Fudia Terrace"},{"Latitude":"8.4556054","Longitude":"-13.2566397","Name":"Fudia Torrece"},{"Latitude":"8.3852064","Longitude":"-13.0976457","Name":"Fulla Drive"},{"Latitude":"8.3112132","Longitude":"-13.0561332","Name":"Fullah Street"},{"Latitude":"8.3227686","Longitude":"-13.0667854","Name":"Fullah Town Road"},{"Latitude":"9.5866099","Longitude":"-11.5546875","Name":"G Conteh Road"},{"Latitude":"8.4342979","Longitude":"-13.1702800","Name":"GASSAMA STREET"},{"Latitude":"8.4303885","Longitude":"-13.1520868","Name":"GOBEL DRIVE"},{"Latitude":"8.4652746","Longitude":"-13.1960806","Name":"GUARD STREET"},{"Latitude":"8.4806799","Longitude":"-13.2433574","Name":"Gabriel Street"},{"Latitude":"8.4918284","Longitude":"-13.2455689","Name":"Gadrage Road Kingtom"},{"Latitude":"7.9717213","Longitude":"-11.7392365","Name":"Gagba Street"},{"Latitude":"7.9833853","Longitude":"-11.7076496","Name":"Galu Road"},{"Latitude":"7.9444000","Longitude":"-11.7257580","Name":"Ganga Street"},{"Latitude":"8.4919070","Longitude":"-13.2458911","Name":"Garage Road"},{"Latitude":"8.4495876","Longitude":"-13.2743836","Name":"Garber Lane"},{"Latitude":"8.4882541","Longitude":"-13.2317687","Name":"Garrison Street"},{"Latitude":"8.4378244","Longitude":"-13.1624452","Name":"Gassama Street"},{"Latitude":"8.3860853","Longitude":"-13.0923786","Name":"Gassimu Drive"},{"Latitude":"8.4520678","Longitude":"-13.2783366","Name":"Gaurd Room Drive"},{"Latitude":"7.9623720","Longitude":"-11.7329760","Name":"Gbandawa Street"},{"Latitude":"7.9820490","Longitude":"-11.7300760","Name":"Gbando Street"},{"Latitude":"7.9788640","Longitude":"-11.7275690","Name":"Gbangbawoto Street"},{"Latitude":"8.4758184","Longitude":"-13.2553368","Name":"Gbanie Drive"},{"Latitude":"8.3238121","Longitude":"-13.0611168","Name":"Gbassa Lane"},{"Latitude":"8.4377154","Longitude":"-13.2721791","Name":"Gbendembu Road"},{"Latitude":"7.9290428","Longitude":"-11.7230403","Name":"Gbendeva Drive"},{"Latitude":"7.9584480","Longitude":"-11.7277490","Name":"Gbendeva Street"},{"Latitude":"7.9578100","Longitude":"-11.7298490","Name":"Gberie Street"},{"Latitude":"8.8874010","Longitude":"-12.0323735","Name":"Gbla Street"},{"Latitude":"7.9413583","Longitude":"-11.7348705","Name":"Gboba Street"},{"Latitude":"8.5506162","Longitude":"-11.0881754","Name":"Gbogbora Road"},{"Latitude":"7.9720347","Longitude":"-11.7644039","Name":"Gbomgboma Road"},{"Latitude":"7.9469811","Longitude":"-11.7647573","Name":"Gbonda Street"},{"Latitude":"7.8674003","Longitude":"-11.1921854","Name":"Gbonie Street"},{"Latitude":"7.9582150","Longitude":"-11.7317700","Name":"Gborie Street"},{"Latitude":"8.6309299","Longitude":"-13.2109922","Name":"Gboro Road"},{"Latitude":"8.4576827","Longitude":"-13.2555226","Name":"Gentle View"},{"Latitude":"8.4699298","Longitude":"-13.2363390","Name":"George Brook Road"},{"Latitude":"8.4892966","Longitude":"-13.2356567","Name":"George Street"},{"Latitude":"8.4727079","Longitude":"-13.2566960","Name":"Ger Drive"},{"Latitude":"8.4854378","Longitude":"-13.2247476","Name":"Gerber Lane"},{"Latitude":"8.4817816","Longitude":"-13.2456503","Name":"Gibbon Lane"},{"Latitude":"8.4849603","Longitude":"-13.2865557","Name":"Gileskil Drive"},{"Latitude":"8.4747603","Longitude":"-13.2370925","Name":"Gilpin Street"},{"Latitude":"8.4765796","Longitude":"-13.2644300","Name":"Glasgow Street"},{"Latitude":"7.9822630","Longitude":"-11.7264680","Name":"Globo Street"},{"Latitude":"8.4542576","Longitude":"-13.2698159","Name":"Glory Drive"},{"Latitude":"8.4876047","Longitude":"-13.2337069","Name":"Gloucester Street"},{"Latitude":"8.4551331","Longitude":"-13.2723226","Name":"Goderich Road"},{"Latitude":"8.4870991","Longitude":"-13.2281473","Name":"Goderich Street"},{"Latitude":"8.4380987","Longitude":"-13.2730629","Name":"Golden Valley Drive"},{"Latitude":"8.4360240","Longitude":"-13.2201402","Name":"Golfer Street"},{"Latitude":"7.9563550","Longitude":"-11.7352380","Name":"Goma Street"},{"Latitude":"7.9665612","Longitude":"-11.7038327","Name":"Gondama Road"},{"Latitude":"8.4543849","Longitude":"-13.2635909","Name":"Gooding Drive"},{"Latitude":"8.4839126","Longitude":"-13.2694045","Name":"Gooding Street"},{"Latitude":"8.4515203","Longitude":"-13.2651127","Name":"Gordon Drive"},{"Latitude":"8.4934660","Longitude":"-13.2809829","Name":"Gordon Street"},{"Latitude":"8.4883433","Longitude":"-13.2235044","Name":"Goree Street"},{"Latitude":"8.4407984","Longitude":"-13.2126582","Name":"Gouldson Drive"},{"Latitude":"8.3151269","Longitude":"-13.0577922","Name":"Grace Drive"},{"Latitude":"8.3958608","Longitude":"-13.1550570","Name":"Grafton Street Main Road"},{"Latitude":"8.4845387","Longitude":"-13.2413948","Name":"Grand Cess Street"},{"Latitude":"8.4848877","Longitude":"-13.2250485","Name":"Grant Street"},{"Latitude":"8.4699840","Longitude":"-13.1799097","Name":"Grass Field Lane"},{"Latitude":"8.4557579","Longitude":"-13.2684146","Name":"Grass Field Road"},{"Latitude":"8.4137917","Longitude":"-13.2638313","Name":"Green Avenue"},{"Latitude":"8.4866137","Longitude":"-13.2183572","Name":"Green Lane"},{"Latitude":"8.4858434","Longitude":"-13.2186114","Name":"Green Street"},{"Latitude":"8.4835776","Longitude":"-13.2693612","Name":"Greenville Lane"},{"Latitude":"8.4871184","Longitude":"-13.2440950","Name":"Grosven Drive"},{"Latitude":"8.4911307","Longitude":"-13.2474909","Name":"Guard Room Road"},{"Latitude":"8.4886343","Longitude":"-13.2266583","Name":"Guard Street"},{"Latitude":"8.3625161","Longitude":"-13.2144589","Name":"Guma Dam Road"},{"Latitude":"8.4680427","Longitude":"-13.2687082","Name":"Guma Drive"},{"Latitude":"8.3833890","Longitude":"-13.2456028","Name":"Guma Quarter Drive"},{"Latitude":"8.4826045","Longitude":"-13.2408509","Name":"Guy Street"},{"Latitude":"8.4186691","Longitude":"-13.2770513","Name":"Gwinner Avenue"},{"Latitude":"8.3380473","Longitude":"-13.0497502","Name":"H.K. Drive"},{"Latitude":"8.4071557","Longitude":"-13.1517712","Name":"HAMDOZ"},{"Latitude":"8.4090479","Longitude":"-13.1491951","Name":"HARDING DRIVE"},{"Latitude":"8.4770512","Longitude":"-13.2644933","Name":"Haddington Street"},{"Latitude":"8.4853091","Longitude":"-13.2264782","Name":"Hadirudeen Street"},{"Latitude":"8.4896675","Longitude":"-13.2260736","Name":"Hagan Street"},{"Latitude":"7.9242903","Longitude":"-11.7193569","Name":"Haikal Lane"},{"Latitude":"7.8704569","Longitude":"-11.1827357","Name":"Haja Emma Lane"},{"Latitude":"8.4518230","Longitude":"-13.2469452","Name":"Haja Isata Nabi Drive"},{"Latitude":"8.4014548","Longitude":"-13.1644964","Name":"Haja Isatu Drive"},{"Latitude":"8.4413207","Longitude":"-13.2276737","Name":"Haja-Soni Drive"},{"Latitude":"8.4750173","Longitude":"-13.2438366","Name":"Hall Lane"},{"Latitude":"8.4755425","Longitude":"-13.2440315","Name":"Hall Street"},{"Latitude":"8.4331983","Longitude":"-13.2886076","Name":"Hamburg Street"},{"Latitude":"8.3854339","Longitude":"-13.2571367","Name":"Hamilton Beach Road"},{"Latitude":"8.4846525","Longitude":"-13.2208563","Name":"Hamilton Lane"},{"Latitude":"8.3830222","Longitude":"-13.1383838","Name":"Hamilton Street"},{"Latitude":"8.3243975","Longitude":"-13.0670738","Name":"Hamlet Street"},{"Latitude":"8.4893851","Longitude":"-13.2500329","Name":"Hance Lane"},{"Latitude":"7.9688789","Longitude":"-11.7398061","Name":"Hancy Street"},{"Latitude":"8.4860148","Longitude":"-13.2436377","Name":"Handel Street"},{"Latitude":"8.4034883","Longitude":"-13.1363533","Name":"Hangar Road"},{"Latitude":"8.3188853","Longitude":"-13.0746386","Name":"Hanifa Drive"},{"Latitude":"8.4775282","Longitude":"-13.2464527","Name":"Hannah Benka Coker Street"},{"Latitude":"8.6305607","Longitude":"-11.6592019","Name":"Hannah Momoh"},{"Latitude":"7.9436670","Longitude":"-11.7297320","Name":"Hannah Street"},{"Latitude":"8.4500883","Longitude":"-13.2357520","Name":"Hans Kawa Drive"},{"Latitude":"8.4585756","Longitude":"-13.1716637","Name":"Harding Street"},{"Latitude":"8.4827796","Longitude":"-13.2445309","Name":"Hardwick Street"},{"Latitude":"7.8601828","Longitude":"-11.2066930","Name":"Hardy Street"},{"Latitude":"8.4942484","Longitude":"-13.2840311","Name":"Harry Sawyer Drive"},{"Latitude":"8.3367276","Longitude":"-13.0708739","Name":"Hartshorne Street"},{"Latitude":"7.9877499","Longitude":"-11.7436978","Name":"Hashim Lane"},{"Latitude":"8.3848192","Longitude":"-13.1074623","Name":"Hassan Samura Drive"},{"Latitude":"8.6735112","Longitude":"-12.5151046","Name":"Haul Road"},{"Latitude":"8.4846207","Longitude":"-13.2255355","Name":"Havelock Street"},{"Latitude":"7.8531921","Longitude":"-11.1945681","Name":"Hawa Shekie Street"},{"Latitude":"8.4771850","Longitude":"-13.2320077","Name":"Headdle Lane"},{"Latitude":"8.4906327","Longitude":"-13.2146812","Name":"Hebron Street"},{"Latitude":"7.5264384","Longitude":"-12.5003580","Name":"Heddle Road"},{"Latitude":"8.4784391","Longitude":"-13.2423580","Name":"Heddle Street"},{"Latitude":"7.9563123","Longitude":"-11.7600175","Name":"Hegan Street"},{"Latitude":"7.9394757","Longitude":"-11.7360861","Name":"Hemoa Street"},{"Latitude":"8.4691623","Longitude":"-13.2400205","Name":"Henneson Street"},{"Latitude":"8.4646827","Longitude":"-13.2408683","Name":"Henneson T"},{"Latitude":"8.4864551","Longitude":"-13.2444558","Name":"Hennessy Street"},{"Latitude":"8.4792937","Longitude":"-13.2367793","Name":"Henry Street"},{"Latitude":"8.4924759","Longitude":"-13.2824734","Name":"Herbert Street"},{"Latitude":"8.4391502","Longitude":"-13.2721835","Name":"Hermira Avenue"},{"Latitude":"8.4465703","Longitude":"-13.2273205","Name":"Higging Drive"},{"Latitude":"8.4941185","Longitude":"-13.2632911","Name":"High Broad Street"},{"Latitude":"8.4517306","Longitude":"-13.2767120","Name":"High Hill Drive"},{"Latitude":"8.4511641","Longitude":"-13.2139269","Name":"High Lane Street"},{"Latitude":"8.4898587","Longitude":"-13.2609707","Name":"High Road"},{"Latitude":"8.4631559","Longitude":"-13.2528524","Name":"Hill Cot Road"},{"Latitude":"8.4768604","Longitude":"-13.2268458","Name":"Hill Side Drive"},{"Latitude":"8.4846323","Longitude":"-13.2342921","Name":"Hill Street"},{"Latitude":"8.4549592","Longitude":"-13.1806691","Name":"Hill Top Road"},{"Latitude":"8.4923953","Longitude":"-13.2663264","Name":"Hill View Drive"},{"Latitude":"8.4651284","Longitude":"-13.2477549","Name":"Hillcot"},{"Latitude":"8.4667394","Longitude":"-13.2474283","Name":"Hillcot Road"},{"Latitude":"8.4755609","Longitude":"-13.2323092","Name":"Hillside Bypass Road"},{"Latitude":"7.9413480","Longitude":"-11.7421100","Name":"Hindovei Street"},{"Latitude":"7.9732500","Longitude":"-11.7305310","Name":"Hindowa Street"},{"Latitude":"8.3892267","Longitude":"-13.1489970","Name":"Hinga Drive"},{"Latitude":"8.3495204","Longitude":"-13.0824275","Name":"Holy Family Road"},{"Latitude":"7.9321912","Longitude":"-11.7240174","Name":"Holy Mary Drive"},{"Latitude":"7.9331622","Longitude":"-11.7223092","Name":"Hon. Legacy Sankoh Street"},{"Latitude":"8.4696835","Longitude":"-13.1987107","Name":"Hooke Street"},{"Latitude":"8.4830807","Longitude":"-13.2273993","Name":"Hope Street"},{"Latitude":"8.4653857","Longitude":"-13.1919649","Name":"Hopewell Street"},{"Latitude":"8.4805701","Longitude":"-13.2061247","Name":"Horse Shoe Road"},{"Latitude":"8.4840848","Longitude":"-13.2286455","Name":"Horton Street"},{"Latitude":"8.3097779","Longitude":"-13.0535242","Name":"Hospital Road"},{"Latitude":"7.8615445","Longitude":"-11.1983661","Name":"Hotagua Street"},{"Latitude":"8.4959616","Longitude":"-13.2965833","Name":"Hotel Barmoi Drive"},{"Latitude":"7.8889282","Longitude":"-11.1890119","Name":"Hotel road"},{"Latitude":"8.3886421","Longitude":"-13.0929311","Name":"Hotta's Drive"},{"Latitude":"8.4891300","Longitude":"-13.2331765","Name":"Howe Street"},{"Latitude":"8.2871065","Longitude":"-13.1804401","Name":"Huddle Street"},{"Latitude":"8.4861620","Longitude":"-13.2181285","Name":"Huggins Lane"},{"Latitude":"8.4857395","Longitude":"-13.2182793","Name":"Huggins Street"},{"Latitude":"8.4805680","Longitude":"-13.2272318","Name":"Hughes Street"},{"Latitude":"8.3941467","Longitude":"-13.1517084","Name":"Hulket Street"},{"Latitude":"7.8784966","Longitude":"-11.1888935","Name":"Humonya Avenue"},{"Latitude":"8.4225010","Longitude":"-13.2654966","Name":"Humper Drive"},{"Latitude":"8.4901611","Longitude":"-13.2095776","Name":"Humphrey Lane"},{"Latitude":"7.9498120","Longitude":"-11.7115450","Name":"Hydro Lane"},{"Latitude":"7.8599291","Longitude":"-11.1998064","Name":"I K Mohamed Street"},{"Latitude":"8.4422775","Longitude":"-13.2310313","Name":"IB Kowo Drive"},{"Latitude":"8.4480508","Longitude":"-13.2350214","Name":"ICC Drive"},{"Latitude":"8.4148314","Longitude":"-13.1561098","Name":"IVAN DRIVE"},{"Latitude":"8.4480640","Longitude":"-13.2326822","Name":"Ibrahim Drive"},{"Latitude":"7.8706364","Longitude":"-11.1824341","Name":"Idrissa Street"},{"Latitude":"8.3840737","Longitude":"-13.2415013","Name":"Imatt Drive"},{"Latitude":"8.4868174","Longitude":"-13.2346970","Name":"Independence Avenue"},{"Latitude":"8.4406777","Longitude":"-13.2278086","Name":"Index Drive"},{"Latitude":"8.4422871","Longitude":"-13.1674985","Name":"Industrial Estate Drive"},{"Latitude":"8.4432711","Longitude":"-13.1633806","Name":"Industrial Estate Road"},{"Latitude":"8.4877986","Longitude":"-13.2118456","Name":"Ingham Street"},{"Latitude":"7.9405069","Longitude":"-11.7365674","Name":"Isata Street"},{"Latitude":"7.8570548","Longitude":"-11.1982920","Name":"Isatu Street"},{"Latitude":"7.8610456","Longitude":"-11.1961694","Name":"Islamic Lane"},{"Latitude":"7.9327648","Longitude":"-11.7242575","Name":"J & E Resort Drive"},{"Latitude":"8.4349183","Longitude":"-13.1590141","Name":"JABBIE STREET"},{"Latitude":"8.4596894","Longitude":"-13.1750284","Name":"JALLOH DRIVE"},{"Latitude":"8.4579010","Longitude":"-13.1767830","Name":"JALLOH LANE"},{"Latitude":"8.3137383","Longitude":"-13.0537904","Name":"JB Drive"},{"Latitude":"8.4231487","Longitude":"-13.1585667","Name":"JENEBA LANE"},{"Latitude":"8.4212637","Longitude":"-13.1545617","Name":"JOHNSON DRIVE"},{"Latitude":"7.8559036","Longitude":"-11.1993585","Name":"Jabba Street"},{"Latitude":"7.8819391","Longitude":"-11.1915869","Name":"Jabbie Street"},{"Latitude":"8.4288098","Longitude":"-13.2809958","Name":"Jabbiela Drive"},{"Latitude":"8.4627218","Longitude":"-13.2675770","Name":"Jackson Drive"},{"Latitude":"8.3731717","Longitude":"-13.0995459","Name":"Jah Drive"},{"Latitude":"8.3861264","Longitude":"-13.0998731","Name":"Jah Lane"},{"Latitude":"8.5810920","Longitude":"-11.0433900","Name":"Jaiama Nimikoro Bye Pass Road"},{"Latitude":"7.9596360","Longitude":"-11.7349850","Name":"Jaka Street"},{"Latitude":"7.9426000","Longitude":"-11.7307690","Name":"Jakama Street"},{"Latitude":"8.4761594","Longitude":"-13.2498189","Name":"Jakas Rbsmosing Street"},{"Latitude":"8.4249228","Longitude":"-13.2611435","Name":"Jalloh Drive"},{"Latitude":"8.4756195","Longitude":"-13.2548761","Name":"Jalloh Jamboria Drive"},{"Latitude":"8.3763449","Longitude":"-13.1009989","Name":"Jalloh Lane"},{"Latitude":"8.4388616","Longitude":"-13.2669233","Name":"Jalloh Road"},{"Latitude":"8.3182789","Longitude":"-13.0758280","Name":"Jamaica Drive"},{"Latitude":"7.8600865","Longitude":"-11.1918365","Name":"Jambai Street"},{"Latitude":"8.4844801","Longitude":"-13.2421196","Name":"Jamburia steet"},{"Latitude":"7.8700999","Longitude":"-11.1784688","Name":"James Dauda Street"},{"Latitude":"8.4474524","Longitude":"-13.2316509","Name":"James Drive"},{"Latitude":"8.4658169","Longitude":"-13.2690180","Name":"James McCarthy Drive"},{"Latitude":"8.4839283","Longitude":"-13.2292141","Name":"James Street"},{"Latitude":"8.4292187","Longitude":"-13.2804636","Name":"Janneh Lane"},{"Latitude":"8.4539084","Longitude":"-13.2689390","Name":"Jaret Drive"},{"Latitude":"8.4228971","Longitude":"-13.2921375","Name":"Jarrett Street"},{"Latitude":"8.4151884","Longitude":"-13.2726058","Name":"Jasse Drive"},{"Latitude":"7.9564320","Longitude":"-11.7201870","Name":"Jattu Street"},{"Latitude":"8.4570542","Longitude":"-13.2682890","Name":"Jawoya Drive"},{"Latitude":"8.3366204","Longitude":"-13.0487176","Name":"Jemilatu Drive"},{"Latitude":"8.4240274","Longitude":"-13.2760750","Name":"Jen Jen Drive"},{"Latitude":"7.9744824","Longitude":"-11.7367063","Name":"Jengo Street"},{"Latitude":"8.3911189","Longitude":"-13.2572552","Name":"Jenifer Drive"},{"Latitude":"8.4878532","Longitude":"-13.2238061","Name":"Jenkins Street"},{"Latitude":"7.9646804","Longitude":"-11.7449480","Name":"Jenneh Lane"},{"Latitude":"7.8791592","Longitude":"-11.1859539","Name":"Jenneh Street"},{"Latitude":"8.4355026","Longitude":"-13.2202904","Name":"Jeremiah Street"},{"Latitude":"8.4294736","Longitude":"-13.2746988","Name":"Jerusalem Avenue"},{"Latitude":"8.4533250","Longitude":"-13.2697356","Name":"Jescar Drive"},{"Latitude":"8.4155634","Longitude":"-13.2755828","Name":"Jesse Drive"},{"Latitude":"7.9822040","Longitude":"-11.7259350","Name":"Jigba Street"},{"Latitude":"8.4744831","Longitude":"-13.2722459","Name":"Jimmy B Drive"},{"Latitude":"8.3947701","Longitude":"-13.0920513","Name":"Jimmy Drive"},{"Latitude":"7.9757084","Longitude":"-11.7357237","Name":"Joanice Street"},{"Latitude":"8.4693212","Longitude":"-13.1901971","Name":"Job Street"},{"Latitude":"8.3062760","Longitude":"-13.1913936","Name":"Joe Bondi Drive"},{"Latitude":"8.3828196","Longitude":"-13.1291042","Name":"Joe Freeman Street"},{"Latitude":"8.3360230","Longitude":"-13.0424358","Name":"Joe Town Road"},{"Latitude":"8.4536965","Longitude":"-13.2611793","Name":"John Benjamin Avenue"},{"Latitude":"7.9728160","Longitude":"-11.7387530","Name":"John Bull Street"},{"Latitude":"7.8596447","Longitude":"-11.2056591","Name":"John Lahai Street"},{"Latitude":"8.4763159","Longitude":"-13.2378297","Name":"John Lane"},{"Latitude":"8.2417356","Longitude":"-13.1570144","Name":"John Obey Street"},{"Latitude":"8.4796495","Longitude":"-13.2393549","Name":"John Street"},{"Latitude":"8.3925586","Longitude":"-13.0931737","Name":"John Thorpe Road"},{"Latitude":"8.8816544","Longitude":"-12.0377071","Name":"John Toko street"},{"Latitude":"8.3144372","Longitude":"-13.0456316","Name":"Johnny Drive"},{"Latitude":"7.8729724","Longitude":"-11.1839425","Name":"Johnny Lane"},{"Latitude":"7.9431850","Longitude":"-11.7313210","Name":"Johnny Street"},{"Latitude":"8.4534073","Longitude":"-13.2705268","Name":"Johnson Drive"},{"Latitude":"8.4933177","Longitude":"-13.2852165","Name":"Johnson Lane"},{"Latitude":"7.9278475","Longitude":"-11.7221620","Name":"Johnson Street"},{"Latitude":"8.4734892","Longitude":"-13.2366746","Name":"Jomo Kenyatta Road"},{"Latitude":"8.4784302","Longitude":"-13.2459511","Name":"Jones Lane"},{"Latitude":"8.4808404","Longitude":"-13.2398604","Name":"Jones Street"},{"Latitude":"8.4632166","Longitude":"-13.2663486","Name":"Jordan Drive"},{"Latitude":"7.9810060","Longitude":"-11.7272380","Name":"Joseph Street"},{"Latitude":"8.3865891","Longitude":"-13.1556686","Name":"Joshua Drive"},{"Latitude":"8.4504210","Longitude":"-13.2630577","Name":"Josia Drive"},{"Latitude":"8.4505665","Longitude":"-13.2614857","Name":"Josiah Drive"},{"Latitude":"8.4467845","Longitude":"-13.1625929","Name":"Jouswa Street"},{"Latitude":"8.4699740","Longitude":"-13.2320693","Name":"Joy Lane"},{"Latitude":"7.9479595","Longitude":"-11.7505050","Name":"Joyce Street"},{"Latitude":"8.4675846","Longitude":"-13.2392408","Name":"Joycy Street"},{"Latitude":"8.4516399","Longitude":"-13.2797022","Name":"Juba Barracks"},{"Latitude":"8.4497076","Longitude":"-13.2781282","Name":"Juba Estate Drive"},{"Latitude":"8.4483273","Longitude":"-13.2701148","Name":"Juba Hill Road"},{"Latitude":"8.4850810","Longitude":"-13.2190083","Name":"Jubilee Street"},{"Latitude":"7.9656910","Longitude":"-11.7344800","Name":"Jubulie Street"},{"Latitude":"8.3906876","Longitude":"-13.1464093","Name":"Jui Road"},{"Latitude":"8.3836213","Longitude":"-13.1353703","Name":"Jui Station Road"},{"Latitude":"8.4309264","Longitude":"-13.1585692","Name":"Jusu Jaka Lane"},{"Latitude":"7.9551870","Longitude":"-11.7564466","Name":"Jusu Street"},{"Latitude":"8.4378427","Longitude":"-13.2731581","Name":"Juxin Avenue"},{"Latitude":"8.4659085","Longitude":"-13.2401680","Name":"K Drive"},{"Latitude":"8.3623275","Longitude":"-13.0945325","Name":"K Turvy lain"},{"Latitude":"8.3631310","Longitude":"-13.0875784","Name":"K-Man's Road"},{"Latitude":"8.3666747","Longitude":"-13.0894247","Name":"K-man's Road"},{"Latitude":"8.4312451","Longitude":"-13.1666329","Name":"KABAY LANE"},{"Latitude":"8.4140198","Longitude":"-13.1589764","Name":"KABBA DRIVE"},{"Latitude":"8.4618777","Longitude":"-13.1759805","Name":"KABIA LANE"},{"Latitude":"8.4306307","Longitude":"-13.1708274","Name":"KALOKO STREET"},{"Latitude":"8.4141001","Longitude":"-13.1614329","Name":"KAMARA DRIVE"},{"Latitude":"8.4600389","Longitude":"-13.1815095","Name":"KAMARA LANE"},{"Latitude":"8.4271468","Longitude":"-13.1671640","Name":"KENNEH DRIVE"},{"Latitude":"8.4274384","Longitude":"-13.1583790","Name":"KOALA TREE"},{"Latitude":"8.4673203","Longitude":"-13.1742256","Name":"KOLEH LANE"},{"Latitude":"8.4267316","Longitude":"-13.1604979","Name":"KOROMA STREET"},{"Latitude":"8.4606844","Longitude":"-13.1834920","Name":"KUNTOLOR MAIN JUCTION"},{"Latitude":"8.4267329","Longitude":"-13.1687102","Name":"KUYATEH DRIVE"},{"Latitude":"8.9684557","Longitude":"-11.9726703","Name":"Kabala Highway"},{"Latitude":"8.4048040","Longitude":"-13.2602846","Name":"Kabba Drive"},{"Latitude":"7.9509990","Longitude":"-11.7217460","Name":"Kabba Lane"},{"Latitude":"8.4606513","Longitude":"-13.1708769","Name":"Kabba Street"},{"Latitude":"7.8914764","Longitude":"-11.1881776","Name":"Kabba lane"},{"Latitude":"8.3286188","Longitude":"-13.0616413","Name":"Kabbia Street"},{"Latitude":"7.8703756","Longitude":"-11.1920717","Name":"Kahunla Street"},{"Latitude":"7.9563867","Longitude":"-11.7582385","Name":"Kaikai Street"},{"Latitude":"8.4449270","Longitude":"-13.2236341","Name":"Kaimachiande Street"},{"Latitude":"7.9659862","Longitude":"-11.7328485","Name":"Kainyagba Street"},{"Latitude":"7.9536284","Longitude":"-11.7111600","Name":"Kainyande Street"},{"Latitude":"7.8758509","Longitude":"-11.1924659","Name":"Kaisamba Terrace"},{"Latitude":"7.9515700","Longitude":"-11.7340330","Name":"Kaitibi Street"},{"Latitude":"8.4722532","Longitude":"-13.2655880","Name":"Kajue Drive"},{"Latitude":"8.4533939","Longitude":"-13.2709343","Name":"Kakays Drive"},{"Latitude":"7.9593290","Longitude":"-11.7306390","Name":"Kakua Lane"},{"Latitude":"7.9595180","Longitude":"-11.7304520","Name":"Kakua Street"},{"Latitude":"7.9270061","Longitude":"-11.7213905","Name":"Kalala Street"},{"Latitude":"8.3265016","Longitude":"-13.0509309","Name":"Kalawa Street"},{"Latitude":"7.9525040","Longitude":"-11.7145080","Name":"Kalilu Street"},{"Latitude":"7.8575278","Longitude":"-11.2011939","Name":"Kallay Street"},{"Latitude":"8.4932517","Longitude":"-13.2876098","Name":"Kallon Drive"},{"Latitude":"7.9688728","Longitude":"-11.7134907","Name":"Kallon Street"},{"Latitude":"8.4350330","Longitude":"-13.2698375","Name":"Kally Drive"},{"Latitude":"8.8846821","Longitude":"-12.0458959","Name":"Kalokon street"},{"Latitude":"8.3326457","Longitude":"-13.0487124","Name":"Kalokor Drive"},{"Latitude":"9.4969850","Longitude":"-12.2402767","Name":"Kamakwie Junction"},{"Latitude":"8.8826946","Longitude":"-12.0492493","Name":"Kamal Street"},{"Latitude":"8.3609182","Longitude":"-13.0765642","Name":"Kamalo Drive"},{"Latitude":"7.9582520","Longitude":"-11.7564480","Name":"Kamanda Street"},{"Latitude":"8.4293319","Longitude":"-13.2669175","Name":"Kamanda-Fonah Drive"},{"Latitude":"8.3679624","Longitude":"-13.0913124","Name":"Kamara Bah"},{"Latitude":"8.4491902","Longitude":"-13.2341293","Name":"Kamara Drive"},{"Latitude":"8.3752518","Longitude":"-13.0955104","Name":"Kamara Lane"},{"Latitude":"8.8232690","Longitude":"-11.9845927","Name":"Kamara Road"},{"Latitude":"8.6106558","Longitude":"-13.1911955","Name":"Kamara Street"},{"Latitude":"8.4378719","Longitude":"-13.2662675","Name":"Kambai Drive"},{"Latitude":"8.6054082","Longitude":"-13.1979267","Name":"Kambia Road"},{"Latitude":"8.8671491","Longitude":"-12.0338233","Name":"Kandah Mansaray Road"},{"Latitude":"8.3281807","Longitude":"-13.0647169","Name":"Kandan Sheku Street"},{"Latitude":"8.7535451","Longitude":"-12.7844280","Name":"Kandebaleh Street"},{"Latitude":"8.4614524","Longitude":"-13.2707552","Name":"Kandeh Drive"},{"Latitude":"7.9565052","Longitude":"-11.7486689","Name":"Kandeh Street"},{"Latitude":"8.3290207","Longitude":"-13.0640563","Name":"Kandia Road"},{"Latitude":"8.4839242","Longitude":"-13.2669999","Name":"Kandil Drive"},{"Latitude":"8.4569126","Longitude":"-13.2463688","Name":"Kangama Drive"},{"Latitude":"8.4515024","Longitude":"-13.2711773","Name":"Kaningo Drive"},{"Latitude":"8.4149768","Longitude":"-13.1458980","Name":"Kanneh Street"},{"Latitude":"8.3214754","Longitude":"-13.0457136","Name":"Kanu Street"},{"Latitude":"7.8639344","Longitude":"-11.1883025","Name":"Kapuwa Matoe Street"},{"Latitude":"8.3826650","Longitude":"-13.2555157","Name":"Karagbag Coker Drive"},{"Latitude":"8.3255575","Longitude":"-13.0515766","Name":"Karama Street"},{"Latitude":"8.3277469","Longitude":"-13.0633235","Name":"Karama Street Junction"},{"Latitude":"8.4236918","Longitude":"-13.2754286","Name":"Karara Drive"},{"Latitude":"8.4148151","Longitude":"-13.2675992","Name":"Kargbo Drive"},{"Latitude":"8.8903855","Longitude":"-12.0374430","Name":"Kargbo Street"},{"Latitude":"8.4500519","Longitude":"-13.2740361","Name":"Karim Drive"},{"Latitude":"7.9664392","Longitude":"-11.7243495","Name":"Karimu Street"},{"Latitude":"8.4549278","Longitude":"-13.2325838","Name":"Karisatu Drive"},{"Latitude":"8.2107172","Longitude":"-13.1031075","Name":"Kasim Carew Drive"},{"Latitude":"7.9708260","Longitude":"-11.7140180","Name":"Katimu Street"},{"Latitude":"8.4486317","Longitude":"-13.2545744","Name":"Kawan Street"},{"Latitude":"7.9530212","Longitude":"-11.7336273","Name":"Kawusu Street"},{"Latitude":"8.4501772","Longitude":"-13.2541332","Name":"Kayama Street"},{"Latitude":"8.3965327","Longitude":"-13.1519880","Name":"Kebbi Drive"},{"Latitude":"8.3136278","Longitude":"-13.0577415","Name":"Kebbie Drive"},{"Latitude":"7.9443630","Longitude":"-11.7413990","Name":"Kebbima Lane"},{"Latitude":"8.4514016","Longitude":"-13.2749659","Name":"Kebe Drive"},{"Latitude":"8.3626305","Longitude":"-13.0774403","Name":"Kefel Drive"},{"Latitude":"7.8563221","Longitude":"-11.1987315","Name":"Keima Juma Street"},{"Latitude":"7.9596190","Longitude":"-11.7312630","Name":"Kekura Street"},{"Latitude":"7.9448876","Longitude":"-11.7533622","Name":"Kellie Street"},{"Latitude":"8.4539392","Longitude":"-13.2671888","Name":"Kelly Drive"},{"Latitude":"7.9437002","Longitude":"-11.7541381","Name":"Kelly Street"},{"Latitude":"8.4815254","Longitude":"-13.2038882","Name":"Kelsey Lane"},{"Latitude":"8.4817888","Longitude":"-13.2038470","Name":"Kelsey Road"},{"Latitude":"7.9651765","Longitude":"-11.7263166","Name":"Kema Street"},{"Latitude":"8.4860022","Longitude":"-13.2245088","Name":"Kendall Street"},{"Latitude":"7.9449440","Longitude":"-11.7169730","Name":"Kendeyama Road"},{"Latitude":"8.4326486","Longitude":"-13.2823293","Name":"Kenema Street"},{"Latitude":"7.8815672","Longitude":"-11.1910357","Name":"Kenghe Street"},{"Latitude":"7.9476990","Longitude":"-11.7353300","Name":"Kennedy Lane"},{"Latitude":"8.4867403","Longitude":"-13.2136264","Name":"Kennedy Street"},{"Latitude":"8.4346202","Longitude":"-13.2240611","Name":"Kennex Drive"},{"Latitude":"7.9624023","Longitude":"-11.7379043","Name":"Kenny Street"},{"Latitude":"8.4563358","Longitude":"-13.2726485","Name":"Kenson Drive"},{"Latitude":"8.1826797","Longitude":"-13.1603094","Name":"Kent Beach Access Road"},{"Latitude":"8.2838682","Longitude":"-13.1795558","Name":"Kent Street"},{"Latitude":"8.4561490","Longitude":"-13.2356544","Name":"Kermoneh Road"},{"Latitude":"8.8808621","Longitude":"-12.0491803","Name":"Kestea street"},{"Latitude":"8.4647928","Longitude":"-13.1791567","Name":"Keturay Lane"},{"Latitude":"8.3223695","Longitude":"-13.0773560","Name":"Khobe Street"},{"Latitude":"8.4937006","Longitude":"-13.2827472","Name":"Kincardin Street"},{"Latitude":"8.4800276","Longitude":"-13.2061857","Name":"King George Avenue"},{"Latitude":"8.4717403","Longitude":"-13.2475764","Name":"King Harman Road"},{"Latitude":"8.4816427","Longitude":"-13.2587963","Name":"King Street"},{"Latitude":"8.4842607","Longitude":"-13.2403084","Name":"King William Street"},{"Latitude":"8.3751924","Longitude":"-13.1012124","Name":"Kingdom Corner Street"},{"Latitude":"8.6246846","Longitude":"-13.2117036","Name":"Kings way"},{"Latitude":"8.4856113","Longitude":"-13.2869785","Name":"Kingson Drive"},{"Latitude":"7.8741718","Longitude":"-11.1913245","Name":"Kingsway Street"},{"Latitude":"8.4842737","Longitude":"-13.2442255","Name":"Kingtom Bridge"},{"Latitude":"8.4812433","Longitude":"-13.2455307","Name":"Kinsella Street"},{"Latitude":"8.4509068","Longitude":"-13.2145491","Name":"Kirkland Street"},{"Latitude":"8.4680705","Longitude":"-13.1859045","Name":"Kissy Bypass Road"},{"Latitude":"8.4704071","Longitude":"-13.1862250","Name":"Kissy Low Cost Housing"},{"Latitude":"8.4832945","Longitude":"-13.2130172","Name":"Kissy Road"},{"Latitude":"8.4881671","Longitude":"-13.2288155","Name":"Kissy Street"},{"Latitude":"8.3343710","Longitude":"-13.0482656","Name":"Kissy Town Community Market Road"},{"Latitude":"7.9716570","Longitude":"-11.7383869","Name":"Kissy Town Lane"},{"Latitude":"7.9691669","Longitude":"-11.7388934","Name":"Kissy Town Road"},{"Latitude":"8.4134898","Longitude":"-13.2650967","Name":"Klinner Avenue"},{"Latitude":"8.2887737","Longitude":"-13.0892709","Name":"Koba Water Community Road"},{"Latitude":"8.4161723","Longitude":"-13.2635571","Name":"Kobeh Drive"},{"Latitude":"8.4508740","Longitude":"-13.1660939","Name":"Kofegeh Wata Road"},{"Latitude":"8.4530533","Longitude":"-13.2690007","Name":"Koffie Garage Drive"},{"Latitude":"8.4263636","Longitude":"-13.2851824","Name":"Kofi Drive"},{"Latitude":"7.9668970","Longitude":"-11.7309260","Name":"Kogawa Street"},{"Latitude":"8.4036246","Longitude":"-13.2595901","Name":"Kogbo Drive"},{"Latitude":"8.3801324","Longitude":"-13.1532201","Name":"Koivaya Amara Drive"},{"Latitude":"7.9659820","Longitude":"-11.7298428","Name":"Kokowunde Street"},{"Latitude":"8.4308801","Longitude":"-13.2847543","Name":"Kolia Street"},{"Latitude":"8.4856629","Longitude":"-13.2511278","Name":"Kolleh Town Main Motorway"},{"Latitude":"8.3832134","Longitude":"-13.2547999","Name":"Kondeh Drive"},{"Latitude":"8.3915888","Longitude":"-13.0970601","Name":"Kondolo Road"},{"Latitude":"7.9609460","Longitude":"-11.7289340","Name":"Konilie Street"},{"Latitude":"7.9613340","Longitude":"-11.7286780","Name":"Konilie lane"},{"Latitude":"8.4590467","Longitude":"-13.2407933","Name":"Konoyama Drive"},{"Latitude":"7.8655432","Longitude":"-11.1889650","Name":"Korjie Street"},{"Latitude":"8.3619598","Longitude":"-13.0781628","Name":"Korma Street"},{"Latitude":"8.3838752","Longitude":"-13.1476878","Name":"Koroma Drive"},{"Latitude":"8.3303046","Longitude":"-13.0789138","Name":"Koroma Lane"},{"Latitude":"8.8914833","Longitude":"-12.0380907","Name":"Koroma Street"},{"Latitude":"8.8884467","Longitude":"-12.0435615","Name":"Koroma street"},{"Latitude":"8.4387929","Longitude":"-13.2692560","Name":"Kortu Drive"},{"Latitude":"8.4904161","Longitude":"-13.2711738","Name":"Kosie Williams Drive"},{"Latitude":"8.3016961","Longitude":"-13.0815394","Name":"Koso Portorportor Road"},{"Latitude":"7.9542440","Longitude":"-11.7407600","Name":"Kowama Lane"},{"Latitude":"7.9529860","Longitude":"-11.7418170","Name":"Kowama Road"},{"Latitude":"8.4385001","Longitude":"-13.2282143","Name":"Kowar Drive"},{"Latitude":"8.8989388","Longitude":"-12.0543244","Name":"Koya Street"},{"Latitude":"7.8583202","Longitude":"-11.1992962","Name":"Kpambawa Street"},{"Latitude":"8.0023701","Longitude":"-11.7485194","Name":"Kpanguma Street"},{"Latitude":"7.8667079","Longitude":"-11.1920282","Name":"Kpassamoi Street"},{"Latitude":"7.9445630","Longitude":"-11.7212320","Name":"Kpatewa Street"},{"Latitude":"7.9629647","Longitude":"-11.7381896","Name":"Kpelqule Street"},{"Latitude":"7.9715984","Longitude":"-11.7633155","Name":"Kpetema"},{"Latitude":"7.8776860","Longitude":"-11.1858210","Name":"Kpoli Street"},{"Latitude":"7.9588100","Longitude":"-11.7395400","Name":"Kpondahun Road"},{"Latitude":"7.9797880","Longitude":"-11.7314740","Name":"Kpullum Street"},{"Latitude":"7.8614715","Longitude":"-11.1957284","Name":"Kpulun Street"},{"Latitude":"8.4834534","Longitude":"-13.2418084","Name":"Kroo Town Road"},{"Latitude":"8.4691508","Longitude":"-13.2441708","Name":"Kuku's Drive"},{"Latitude":"7.9745738","Longitude":"-11.7380990","Name":"Kulanda Street"},{"Latitude":"7.9562835","Longitude":"-11.7165856","Name":"Kunde Lane"},{"Latitude":"8.4597377","Longitude":"-13.1792062","Name":"Kuntolor Taylor Road"},{"Latitude":"9.4150452","Longitude":"-10.8749701","Name":"Kurumando - Dugulama"},{"Latitude":"8.4470584","Longitude":"-13.2269624","Name":"Kuyateh Drive"},{"Latitude":"7.8581302","Longitude":"-11.1986920","Name":"Kuyateh Street"},{"Latitude":"8.4699399","Longitude":"-13.2334959","Name":"Kuyembeh Drive"},{"Latitude":"8.3620036","Longitude":"-13.0770148","Name":"L B J Drive"},{"Latitude":"8.3636940","Longitude":"-13.0753592","Name":"LBJ Drive"},{"Latitude":"8.4278282","Longitude":"-13.1612581","Name":"LIMA DRIVE"},{"Latitude":"8.4263462","Longitude":"-13.1702603","Name":"LORD STREET"},{"Latitude":"8.4632356","Longitude":"-13.1792189","Name":"LOWER SAVAGE STREET"},{"Latitude":"8.4831196","Longitude":"-13.2704576","Name":"Lab Lane"},{"Latitude":"8.3525290","Longitude":"-13.2307802","Name":"Labbie Farm Drive"},{"Latitude":"8.8859872","Longitude":"-12.0515227","Name":"Lady smile street"},{"Latitude":"7.9627610","Longitude":"-11.7310730","Name":"Laggao Street"},{"Latitude":"7.8711729","Longitude":"-11.1827091","Name":"Lahai Lane"},{"Latitude":"8.3210414","Longitude":"-13.0471627","Name":"Lahai Street"},{"Latitude":"8.3993745","Longitude":"-13.2653086","Name":"Lakka Beach Road"},{"Latitude":"8.4519176","Longitude":"-13.2576871","Name":"Lambay Drive"},{"Latitude":"8.3507959","Longitude":"-13.0779898","Name":"Lamin Drive"},{"Latitude":"7.8683497","Longitude":"-11.1870966","Name":"Lamin Street"},{"Latitude":"8.4889167","Longitude":"-13.2361742","Name":"Lamina Sankoh Street"},{"Latitude":"8.4750659","Longitude":"-13.2695711","Name":"Lamina Yard"},{"Latitude":"7.9476471","Longitude":"-11.7680959","Name":"Langba Street"},{"Latitude":"8.4853204","Longitude":"-13.2244988","Name":"Langley Street"},{"Latitude":"8.3538896","Longitude":"-13.0806810","Name":"Lansana Drive"},{"Latitude":"8.4452668","Longitude":"-13.2251706","Name":"Lansana Nyalley Drive"},{"Latitude":"7.9581573","Longitude":"-11.7159146","Name":"Lansana Street"},{"Latitude":"7.9689994","Longitude":"-11.7162995","Name":"Lapia Street"},{"Latitude":"7.9624980","Longitude":"-11.7323450","Name":"Lappia Street"},{"Latitude":"8.4903853","Longitude":"-13.2144566","Name":"Lardner Street"},{"Latitude":"7.9537670","Longitude":"-11.7136110","Name":"Lasayo Street"},{"Latitude":"8.3813851","Longitude":"-13.2552660","Name":"Lass Lamin Drive"},{"Latitude":"8.4856717","Longitude":"-13.2243075","Name":"Lawson Lane"},{"Latitude":"8.4772298","Longitude":"-13.2417863","Name":"Lawson Street"},{"Latitude":"8.4690512","Longitude":"-13.1925469","Name":"Leadenhall Street"},{"Latitude":"8.4858622","Longitude":"-13.2216664","Name":"Leah Street"},{"Latitude":"7.9799790","Longitude":"-11.7325640","Name":"Lebbie Street"},{"Latitude":"7.9567100","Longitude":"-11.7345530","Name":"Lebie Street"},{"Latitude":"8.4743832","Longitude":"-13.2271061","Name":"Leicester Road"},{"Latitude":"8.4399049","Longitude":"-13.2747325","Name":"Leigh Lane"},{"Latitude":"8.3845944","Longitude":"-13.1311152","Name":"Leigh Road"},{"Latitude":"8.4926464","Longitude":"-13.2618014","Name":"Leigh Street"},{"Latitude":"8.4847295","Longitude":"-13.2193436","Name":"Lemon Lane"},{"Latitude":"7.9790100","Longitude":"-11.7319920","Name":"Lemon Street"},{"Latitude":"8.3440342","Longitude":"-13.2195893","Name":"Lening Drive"},{"Latitude":"8.4304377","Longitude":"-13.2658625","Name":"Leopard Hill Road"},{"Latitude":"8.2472029","Longitude":"-13.0760177","Name":"Levuma Road"},{"Latitude":"7.9459403","Longitude":"-11.7389653","Name":"Lewabu Road"},{"Latitude":"8.4957179","Longitude":"-13.2665925","Name":"Lewis Drive"},{"Latitude":"8.4800259","Longitude":"-13.2417957","Name":"Lewis Street"},{"Latitude":"8.3406335","Longitude":"-13.0713688","Name":"Liddle Street"},{"Latitude":"8.4912846","Longitude":"-13.2327761","Name":"Lightfoot Boston Street"},{"Latitude":"8.4808527","Longitude":"-13.2678643","Name":"Lightfoot-Boston Road"},{"Latitude":"8.3379655","Longitude":"-13.0114319","Name":"Limba Conner Road"},{"Latitude":"8.3357494","Longitude":"-13.0417666","Name":"Limba Corner Road"},{"Latitude":"7.5306612","Longitude":"-12.5039923","Name":"Lime Street"},{"Latitude":"7.9666890","Longitude":"-11.7439530","Name":"Lion Road"},{"Latitude":"8.4345714","Longitude":"-13.2687230","Name":"Lion Street"},{"Latitude":"8.4844469","Longitude":"-13.2408603","Name":"Little Kroo Street"},{"Latitude":"8.4856921","Longitude":"-13.2370161","Name":"Liverpool Street"},{"Latitude":"8.4865656","Longitude":"-13.2202240","Name":"Locust Street"},{"Latitude":"8.3390396","Longitude":"-13.0515452","Name":"Loko Road"},{"Latitude":"8.3274978","Longitude":"-13.0652219","Name":"Loko Street"},{"Latitude":"8.3644198","Longitude":"-13.0730364","Name":"Loko Town Road"},{"Latitude":"8.4900458","Longitude":"-13.2141280","Name":"Lombard Street"},{"Latitude":"8.3221576","Longitude":"-13.0810801","Name":"London Street"},{"Latitude":"8.4763632","Longitude":"-13.2699089","Name":"Lord Mo Drive"},{"Latitude":"8.3363933","Longitude":"-13.0724148","Name":"Lord Street"},{"Latitude":"8.4766461","Longitude":"-13.2590885","Name":"Love Lane"},{"Latitude":"8.3389115","Longitude":"-13.0428549","Name":"Lovers' Road"},{"Latitude":"8.4777219","Longitude":"-13.2495613","Name":"Low Kingham Street"},{"Latitude":"8.4876529","Longitude":"-13.2229391","Name":"Lower Bombay Street"},{"Latitude":"8.4506728","Longitude":"-13.1610854","Name":"Lower Campbel Street"},{"Latitude":"8.3805265","Longitude":"-13.2592438","Name":"Lower Cole Street"},{"Latitude":"7.9750754","Longitude":"-11.7347134","Name":"Lower D-Line"},{"Latitude":"8.8861747","Longitude":"-12.0476373","Name":"Lower John Street"},{"Latitude":"8.4609265","Longitude":"-13.2724438","Name":"Lower Kandeh Drive"},{"Latitude":"8.4390964","Longitude":"-13.2792319","Name":"Lower Komba Lane"},{"Latitude":"8.6028401","Longitude":"-11.6631834","Name":"Lower Mango"},{"Latitude":"7.9502693","Longitude":"-11.7344278","Name":"Lower Maria Street"},{"Latitude":"7.9373287","Longitude":"-11.7219211","Name":"Lower Mariama Street"},{"Latitude":"8.4132610","Longitude":"-13.2656727","Name":"Lower New Site"},{"Latitude":"8.4505804","Longitude":"-13.1638842","Name":"Lower Philip Street"},{"Latitude":"8.4751850","Longitude":"-13.2736337","Name":"Lower Pipe Lane"},{"Latitude":"8.4911931","Longitude":"-13.2158151","Name":"Lower Savage Square"},{"Latitude":"8.4661919","Longitude":"-13.2750298","Name":"Lower Sequeen Drive"},{"Latitude":"8.3228682","Longitude":"-13.0750098","Name":"Lower Turay Street"},{"Latitude":"8.4849567","Longitude":"-13.2394972","Name":"Lower Waterloo Street"},{"Latitude":"8.4151528","Longitude":"-13.2684521","Name":"Lower White Pole"},{"Latitude":"8.3825282","Longitude":"-13.2599495","Name":"Lower York Street"},{"Latitude":"8.4845629","Longitude":"-13.2187148","Name":"Loxley Street"},{"Latitude":"7.9721808","Longitude":"-11.7134054","Name":"Lubbecke Street"},{"Latitude":"8.4858205","Longitude":"-13.2682214","Name":"Lucan Drive"},{"Latitude":"8.4873006","Longitude":"-13.2176457","Name":"Lucas Lane"},{"Latitude":"8.4873717","Longitude":"-13.2191397","Name":"Lucas Street"},{"Latitude":"8.4867855","Longitude":"-13.2865975","Name":"Luck J street"},{"Latitude":"8.3739053","Longitude":"-13.0977184","Name":"Lucky Road"},{"Latitude":"7.9619642","Longitude":"-11.7219523","Name":"Lucy Kailie Street"},{"Latitude":"8.4752175","Longitude":"-13.2532393","Name":"Luke Lane"},{"Latitude":"8.4489086","Longitude":"-13.2732597","Name":"Lukeley Drive"},{"Latitude":"8.4681003","Longitude":"-13.2664884","Name":"Lumely Road"},{"Latitude":"8.4566971","Longitude":"-13.2722059","Name":"Lumley Beach Road"},{"Latitude":"8.4631218","Longitude":"-13.2683756","Name":"Lumley Road"},{"Latitude":"8.4566189","Longitude":"-13.2720343","Name":"Lumley Roundabout"},{"Latitude":"8.2874953","Longitude":"-13.1811328","Name":"Lumley Street"},{"Latitude":"8.4725820","Longitude":"-13.1943590","Name":"Luna Street"},{"Latitude":"8.6126958","Longitude":"-13.1958989","Name":"Lungi Airport Ferry Road"},{"Latitude":"8.8873203","Longitude":"-12.0492714","Name":"Lunsar Road"},{"Latitude":"8.7017187","Longitude":"-12.6474631","Name":"Lunsar-Makeni Highway"},{"Latitude":"7.9472790","Longitude":"-11.7143840","Name":"Luseni Street"},{"Latitude":"8.3762853","Longitude":"-13.1371966","Name":"M'Cormick Street"},{"Latitude":"8.4361288","Longitude":"-13.1593922","Name":"MAIN ROBIS ROAD"},{"Latitude":"8.4761393","Longitude":"-13.2056814","Name":"MAMBA RIDGE"},{"Latitude":"8.4254820","Longitude":"-13.1742212","Name":"MANSARAY DRIVE"},{"Latitude":"8.4106060","Longitude":"-13.1411233","Name":"MANSARY DRIVE"},{"Latitude":"8.4623882","Longitude":"-13.1714902","Name":"MANSARY STREET"},{"Latitude":"8.4329866","Longitude":"-13.1591310","Name":"MARK LANE"},{"Latitude":"8.4592401","Longitude":"-13.1909215","Name":"MASSONI ROAD"},{"Latitude":"8.4027534","Longitude":"-13.1454863","Name":"MAYEMIE DRIVE"},{"Latitude":"8.4505327","Longitude":"-13.2362053","Name":"MB's Drive"},{"Latitude":"8.3653116","Longitude":"-13.0772518","Name":"MC Confort"},{"Latitude":"8.4807827","Longitude":"-13.2198210","Name":"METZEGER LANE"},{"Latitude":"8.1100727","Longitude":"-12.0754980","Name":"MISSIONROAD"},{"Latitude":"7.9331679","Longitude":"-11.7265445","Name":"MInah Lane"},{"Latitude":"8.3231487","Longitude":"-13.0734526","Name":"MJ Drive"},{"Latitude":"8.4223757","Longitude":"-13.2887967","Name":"MMCET Road"},{"Latitude":"8.4226413","Longitude":"-13.1542721","Name":"MOSQUER ROAD"},{"Latitude":"8.4252593","Longitude":"-13.1625087","Name":"MUHAMMED ALI STREET"},{"Latitude":"8.4601346","Longitude":"-13.1716141","Name":"MUNJURU STREET"},{"Latitude":"8.2916440","Longitude":"-12.9474308","Name":"Ma-fola Community Road"},{"Latitude":"7.9344808","Longitude":"-11.7248669","Name":"Maa Jenneh Street"},{"Latitude":"8.3072613","Longitude":"-13.0799949","Name":"Mabanta Drive"},{"Latitude":"8.8880688","Longitude":"-12.0471029","Name":"Mabanta Road"},{"Latitude":"9.3616674","Longitude":"-11.8032244","Name":"Mabarta Road"},{"Latitude":"8.3032083","Longitude":"-13.0225147","Name":"Mabeway Road"},{"Latitude":"8.4492664","Longitude":"-13.2347706","Name":"Mabint Ray Drive"},{"Latitude":"8.2922226","Longitude":"-13.0297483","Name":"Maboikandoh Road"},{"Latitude":"8.3246171","Longitude":"-13.0585816","Name":"Mabureh Street"},{"Latitude":"8.3578293","Longitude":"-12.9706982","Name":"Mabuwala Road"},{"Latitude":"7.9691669","Longitude":"-11.7388934","Name":"Mac Robert Street"},{"Latitude":"8.4757214","Longitude":"-13.2695428","Name":"MacLoud Drive"},{"Latitude":"7.9690559","Longitude":"-11.7360714","Name":"MacRobert Street"},{"Latitude":"7.8886553","Longitude":"-11.1903742","Name":"Macarthy Street"},{"Latitude":"7.9738910","Longitude":"-11.7317460","Name":"Macathy Street"},{"Latitude":"8.4513817","Longitude":"-13.2645562","Name":"Macaulay Close Drive"},{"Latitude":"8.4930200","Longitude":"-13.2669313","Name":"Macaulay Street"},{"Latitude":"8.3193769","Longitude":"-13.0579410","Name":"Macauley Drive"},{"Latitude":"8.4704586","Longitude":"-13.1930720","Name":"Macauley Street"},{"Latitude":"8.4778213","Longitude":"-13.2414580","Name":"Macdonald Street"},{"Latitude":"8.4835599","Longitude":"-13.2574658","Name":"Macfoy Lane"},{"Latitude":"8.4835994","Longitude":"-13.2192577","Name":"Mackay Street"},{"Latitude":"7.9624810","Longitude":"-11.7608025","Name":"Maculey Lane"},{"Latitude":"8.3721472","Longitude":"-13.2359397","Name":"Madette Avenue"},{"Latitude":"8.4791571","Longitude":"-13.2533374","Name":"Madongo Town"},{"Latitude":"8.3298225","Longitude":"-13.0461853","Name":"Madu Drive"},{"Latitude":"8.4894559","Longitude":"-13.2242593","Name":"Magazine Cut"},{"Latitude":"8.4894263","Longitude":"-13.2251626","Name":"Magazine Street"},{"Latitude":"8.3264375","Longitude":"-12.9404930","Name":"Magbangba Community Road"},{"Latitude":"7.9408895","Longitude":"-11.7345563","Name":"Magbinti Street"},{"Latitude":"8.8549198","Longitude":"-12.0544656","Name":"Magburaka Highway"},{"Latitude":"8.8882550","Longitude":"-12.0442598","Name":"Magburaka Road"},{"Latitude":"8.7233575","Longitude":"-11.9491201","Name":"Magburaka Roundabout"},{"Latitude":"8.3172584","Longitude":"-13.0488557","Name":"Magbureh Small Country Road"},{"Latitude":"7.9263457","Longitude":"-11.7193489","Name":"Mageret Kaitibi Drive"},{"Latitude":"8.4462822","Longitude":"-13.1681322","Name":"Magnus Street"},{"Latitude":"7.9622843","Longitude":"-11.7341267","Name":"Mahei Boima Road"},{"Latitude":"8.6011333","Longitude":"-13.1994495","Name":"Mahera Hospital Road"},{"Latitude":"8.6018704","Longitude":"-13.1884212","Name":"Mahera Road"},{"Latitude":"8.4738672","Longitude":"-13.2613912","Name":"Main Motor Road"},{"Latitude":"8.3885315","Longitude":"-13.1495757","Name":"Main Road Kissi Town"},{"Latitude":"8.3890770","Longitude":"-13.1402949","Name":"Main Street"},{"Latitude":"8.3253375","Longitude":"-13.0606283","Name":"Main Water Street"},{"Latitude":"8.4780760","Longitude":"-13.2595485","Name":"Maize Terrace"},{"Latitude":"8.8882689","Longitude":"-12.0384863","Name":"Majidu Street"},{"Latitude":"7.8670019","Longitude":"-11.1893660","Name":"Maju Bah street"},{"Latitude":"8.8650559","Longitude":"-12.0551505","Name":"Makama Road"},{"Latitude":"8.7001226","Longitude":"-11.9237950","Name":"Makeni-Kono Highway"},{"Latitude":"8.3946579","Longitude":"-13.1479734","Name":"Makieu Lane"},{"Latitude":"7.9473680","Longitude":"-11.7113815","Name":"Makieu Street"},{"Latitude":"8.4893081","Longitude":"-13.2302734","Name":"Malama Thomas Street"},{"Latitude":"8.3065646","Longitude":"-13.0470720","Name":"Malambay Bridge"},{"Latitude":"8.3123014","Longitude":"-13.0547485","Name":"Malambay Main Wharf Road"},{"Latitude":"8.3133514","Longitude":"-13.0375283","Name":"Malambay Road"},{"Latitude":"8.2973867","Longitude":"-12.9417281","Name":"Malamina Community Road"},{"Latitude":"8.4519656","Longitude":"-13.2586618","Name":"Maligi Drive"},{"Latitude":"8.4875640","Longitude":"-13.2181580","Name":"Malta Lane"},{"Latitude":"8.4875532","Longitude":"-13.2166876","Name":"Malta Street"},{"Latitude":"8.4595929","Longitude":"-13.2167016","Name":"Mama Lane"},{"Latitude":"7.9513929","Longitude":"-11.7073118","Name":"Mamaguie Street"},{"Latitude":"7.9822330","Longitude":"-11.7295880","Name":"Mamawo Street"},{"Latitude":"8.4303417","Longitude":"-13.1582203","Name":"Mamboreh Drive"},{"Latitude":"7.8634349","Longitude":"-11.2056175","Name":"Mamie Koroma Street"},{"Latitude":"8.4758760","Longitude":"-13.2453378","Name":"Mammah Street"},{"Latitude":"8.4161843","Longitude":"-13.2697892","Name":"Mammoud Lane"},{"Latitude":"7.9494250","Longitude":"-11.7107070","Name":"Mamoud Street"},{"Latitude":"8.4887505","Longitude":"-13.2215758","Name":"Mamy Yoko Street"},{"Latitude":"8.3251725","Longitude":"-13.0705775","Name":"Man's Street"},{"Latitude":"8.3726763","Longitude":"-13.2357272","Name":"Mandette Avenue"},{"Latitude":"8.8865398","Longitude":"-12.0364425","Name":"Manette Lane"},{"Latitude":"8.8888824","Longitude":"-12.0373370","Name":"Manette street"},{"Latitude":"8.4828643","Longitude":"-13.2162799","Name":"Manfred Lane"},{"Latitude":"8.4674643","Longitude":"-13.2656331","Name":"Manga Drive"},{"Latitude":"9.0427933","Longitude":"-11.7463053","Name":"Manikala Street"},{"Latitude":"8.3783229","Longitude":"-13.2569784","Name":"Manna Drive"},{"Latitude":"7.9451510","Longitude":"-11.7334870","Name":"Mannah Lane"},{"Latitude":"8.4143294","Longitude":"-13.1440285","Name":"Mannah Street"},{"Latitude":"8.0409030","Longitude":"-12.0954607","Name":"Mano Bridge"},{"Latitude":"8.4409118","Longitude":"-13.2242941","Name":"Mansaray Drive"},{"Latitude":"7.9511190","Longitude":"-11.7287420","Name":"Mansaray Lane"},{"Latitude":"7.9531800","Longitude":"-11.7285990","Name":"Mansaray Street"},{"Latitude":"8.3755264","Longitude":"-13.1326057","Name":"Mansary Drive"},{"Latitude":"8.4621456","Longitude":"-13.1879824","Name":"Mans Conteh Drive"},{"Latitude":"7.9700890","Longitude":"-11.7627280","Name":"Mapco Drive"},{"Latitude":"7.8682950","Longitude":"-11.1915010","Name":"Marah Street"},{"Latitude":"7.9582540","Longitude":"-11.7306830","Name":"Margao Street"},{"Latitude":"7.8776170","Longitude":"-11.1835000","Name":"Mariama Street"},{"Latitude":"8.6315581","Longitude":"-13.2160219","Name":"Mariatu Street"},{"Latitude":"8.4412547","Longitude":"-13.2614663","Name":"Marimbo"},{"Latitude":"8.3199217","Longitude":"-13.0765146","Name":"Mario Street"},{"Latitude":"8.4033207","Longitude":"-13.2640506","Name":"Market Road"},{"Latitude":"8.3815876","Longitude":"-13.1307747","Name":"Market Street"},{"Latitude":"8.4679844","Longitude":"-13.2459217","Name":"Marrah Drive"},{"Latitude":"8.3175875","Longitude":"-13.0553158","Name":"Marrah Street"},{"Latitude":"7.9602010","Longitude":"-11.7187660","Name":"Martha Gborie Street"},{"Latitude":"8.3825009","Longitude":"-13.1523943","Name":"Martin Farmer Street"},{"Latitude":"7.9640672","Longitude":"-11.7593768","Name":"Marukor Street"},{"Latitude":"8.3898510","Longitude":"-13.0879775","Name":"Marute Road"},{"Latitude":"8.4319394","Longitude":"-13.2772189","Name":"Mary Drive"},{"Latitude":"8.3599180","Longitude":"-13.0727048","Name":"Mary J Drive"},{"Latitude":"7.9613918","Longitude":"-11.7603622","Name":"Mary Lane"},{"Latitude":"8.4814121","Longitude":"-13.2296790","Name":"Mary Street"},{"Latitude":"8.3511044","Longitude":"-13.0020052","Name":"Mashake Road"},{"Latitude":"8.8883126","Longitude":"-12.0399843","Name":"Masim Street"},{"Latitude":"8.3009254","Longitude":"-13.0126713","Name":"Masine Road"},{"Latitude":"7.9536960","Longitude":"-11.7464650","Name":"Massah Street"},{"Latitude":"7.8732749","Longitude":"-11.1884090","Name":"Massaquoi Street"},{"Latitude":"8.8923406","Longitude":"-12.0380786","Name":"Masuba Road"},{"Latitude":"7.9585900","Longitude":"-11.7352460","Name":"Mataka Street"},{"Latitude":"8.3360326","Longitude":"-13.0528192","Name":"Matekeh Road"},{"Latitude":"7.8500035","Longitude":"-11.1978429","Name":"Mathew Demby Street"},{"Latitude":"8.2904277","Longitude":"-13.0583985","Name":"Matindi Road"},{"Latitude":"8.2134571","Longitude":"-13.1072615","Name":"Matsaf Drive"},{"Latitude":"7.9398722","Longitude":"-11.7335694","Name":"Matthew Sellu Street"},