[{"Latitude":"31.5974725","Longitude":"-8.0292919","Name":"2"},{"Latitude":"33.5498726","Longitude":"-7.5571716","Name":"24"},{"Latitude":"34.0033039","Longitude":"-5.0131117","Name":"35"},{"Latitude":"33.5394651","Longitude":"-5.1033307","Name":"39"},{"Latitude":"30.3692918","Longitude":"-9.5341817","Name":"622"},{"Latitude":"30.3460466","Longitude":"-9.5426519","Name":"679"},{"Latitude":"35.9111376","Longitude":"-5.3729241","Name":"A2"},{"Latitude":"33.9916350","Longitude":"-6.8332983","Name":"Aassim Ben Omar"},{"Latitude":"34.0111611","Longitude":"-6.8477914","Name":"Abbas Ghanam"},{"Latitude":"33.9707742","Longitude":"-6.8565135","Name":"Abd Elkarim Benmoussa"},{"Latitude":"34.0175225","Longitude":"-5.0080866","Name":"Abdelhadi Esskali"},{"Latitude":"33.9702841","Longitude":"-6.8530683","Name":"Abdelhamid Benhassaine"},{"Latitude":"32.5975035","Longitude":"-6.2758139","Name":"Abdelkrim Khatabi شارع عبدالكريم الخطابي"},{"Latitude":"33.9925434","Longitude":"-6.8328336","Name":"Abdellah Ben Saad"},{"Latitude":"33.9860097","Longitude":"-6.8384335","Name":"Abderrahmane Ben Elabass"},{"Latitude":"33.9777469","Longitude":"-6.8349110","Name":"Abdeslam Tazi"},{"Latitude":"33.9875156","Longitude":"-6.8391740","Name":"Abellah Ben Omar"},{"Latitude":"33.9913877","Longitude":"-6.8319900","Name":"Abou El Mahajr Dinar"},{"Latitude":"34.0118528","Longitude":"-6.8441599","Name":"Abou Nouas زنقة أبو نواس"},{"Latitude":"31.3814113","Longitude":"-5.2706440","Name":"Abrid N Yichm"},{"Latitude":"34.0180033","Longitude":"-4.9924988","Name":"Abu Dirai Alors Ghofarir"},{"Latitude":"33.9809080","Longitude":"-6.8642369","Name":"Accès principal"},{"Latitude":"35.3001199","Longitude":"-2.9558950","Name":"Acera Reina Regente"},{"Latitude":"35.2956564","Longitude":"-2.9518974","Name":"Acera del Negrete"},{"Latitude":"33.9718380","Longitude":"-6.8582717","Name":"Addoha"},{"Latitude":"33.9259624","Longitude":"-6.9329616","Name":"Afifa Alasbahania"},{"Latitude":"30.6884918","Longitude":"-6.4455122","Name":"Agdz detour"},{"Latitude":"31.6175488","Longitude":"-7.9686961","Name":"Ahmad Ali درب احماد علي"},{"Latitude":"33.5902976","Longitude":"-7.6381497","Name":"Ahmed Elmoqri أحمد المقري"},{"Latitude":"33.9885104","Longitude":"-6.8531678","Name":"Aicha Alkortobia"},{"Latitude":"33.9275812","Longitude":"-6.9300921","Name":"Aicha Bint Abi Bakr"},{"Latitude":"33.5882567","Longitude":"-7.6641134","Name":"Aire Anfa"},{"Latitude":"30.9317689","Longitude":"-6.9127758","Name":"Airport"},{"Latitude":"32.5953676","Longitude":"-6.2532256","Name":"Ait Amer زنقة ايت عمر"},{"Latitude":"31.3692754","Longitude":"-5.9878613","Name":"Ait Boualal"},{"Latitude":"35.0172391","Longitude":"-3.5376419","Name":"Ait Bouhidous"},{"Latitude":"32.5938667","Longitude":"-6.2534655","Name":"Ait Massoud زنقة ايت مسعود"},{"Latitude":"31.5218797","Longitude":"-6.8245794","Name":"Ait Mdiwal"},{"Latitude":"35.0194231","Longitude":"-3.5900489","Name":"Ait Medien"},{"Latitude":"32.5945033","Longitude":"-6.2533638","Name":"Ait Rbaa زنقة ايت الربع"},{"Latitude":"32.5950513","Longitude":"-6.2536701","Name":"Ait Telt زنقة ايت ثلث"},{"Latitude":"35.0228141","Longitude":"-3.5910420","Name":"Ait Yarour"},{"Latitude":"35.0218470","Longitude":"-3.5746555","Name":"Ait Youssef"},{"Latitude":"33.8953622","Longitude":"-5.5627955","Name":"Akbat Ziadin"},{"Latitude":"34.0111949","Longitude":"-6.8470887","Name":"Al Aissaoui Britel"},{"Latitude":"32.2789918","Longitude":"-9.2311913","Name":"Al Alaouiyine"},{"Latitude":"33.9803092","Longitude":"-6.8377809","Name":"Al Kadi Abdellah El Kabbaj"},{"Latitude":"33.9760531","Longitude":"-6.8328403","Name":"Al Kadi Mohamed Achour"},{"Latitude":"34.0114737","Longitude":"-6.8484781","Name":"Al Khadir Ghailane زنقة الخضر غيلان"},{"Latitude":"35.1625465","Longitude":"-2.9305895","Name":"Al Khayzouran"},{"Latitude":"34.0117654","Longitude":"-4.9669102","Name":"Al Madina Mounawara"},{"Latitude":"34.0113418","Longitude":"-6.8465585","Name":"Al Mahjoub Ben Ali"},{"Latitude":"35.7501263","Longitude":"-5.7942753","Name":"Al Oqssor"},{"Latitude":"33.9561950","Longitude":"-6.8683337","Name":"Alass"},{"Latitude":"33.5348743","Longitude":"-7.7775612","Name":"Alcacia"},{"Latitude":"33.5340996","Longitude":"-7.7780508","Name":"Alcala"},{"Latitude":"35.2961878","Longitude":"-2.9493170","Name":"Alcalde de Móstoles"},{"Latitude":"33.5367940","Longitude":"-7.7788418","Name":"Alcazar"},{"Latitude":"33.5353070","Longitude":"-7.7778335","Name":"Alcudia"},{"Latitude":"35.2842576","Longitude":"-2.9436930","Name":"Alférez Francisco Soriano"},{"Latitude":"33.5371715","Longitude":"-7.7800946","Name":"Algarve"},{"Latitude":"33.9246765","Longitude":"-6.9166703","Name":"Alger"},{"Latitude":"33.9264863","Longitude":"-6.9324622","Name":"Alhora Assaliyiya"},{"Latitude":"33.9238472","Longitude":"-6.9154617","Name":"Alkhalil"},{"Latitude":"33.5847664","Longitude":"-7.6627024","Name":"Allee Anthemis"},{"Latitude":"33.5529950","Longitude":"-7.6197536","Name":"Allee Ariane"},{"Latitude":"33.5531234","Longitude":"-7.6188623","Name":"Allee Atalande"},{"Latitude":"33.5703377","Longitude":"-7.6246502","Name":"Allee d'Andromede"},{"Latitude":"33.5507764","Longitude":"-7.6146667","Name":"Allee d'Omphale"},{"Latitude":"33.5655502","Longitude":"-7.6228139","Name":"Allee d'Orion"},{"Latitude":"33.5649003","Longitude":"-7.6219777","Name":"Allee de Cassiopee"},{"Latitude":"33.5642080","Longitude":"-7.6181772","Name":"Allee de L'Iton"},{"Latitude":"33.5637907","Longitude":"-7.6162364","Name":"Allee de L'Yvette"},{"Latitude":"33.5669978","Longitude":"-7.6185203","Name":"Allee de Pegasse"},{"Latitude":"33.5814486","Longitude":"-7.6657764","Name":"Allee des Araucaria"},{"Latitude":"33.5843486","Longitude":"-7.6605901","Name":"Allee des Cytises"},{"Latitude":"33.5498638","Longitude":"-7.6182032","Name":"Allee des Hesperides"},{"Latitude":"33.8987034","Longitude":"-5.5677820","Name":"Alley Linan Laman"},{"Latitude":"33.8994530","Longitude":"-5.5676837","Name":"Alley of Bardain Mosque"},{"Latitude":"35.7415901","Longitude":"-5.7790071","Name":"Allée 1"},{"Latitude":"35.7344687","Longitude":"-5.7692070","Name":"Allée 2"},{"Latitude":"35.7369964","Longitude":"-5.7789856","Name":"Allée 3"},{"Latitude":"35.7480430","Longitude":"-5.7893117","Name":"Allée A"},{"Latitude":"33.9592107","Longitude":"-6.8656370","Name":"Allée Al Erythrine"},{"Latitude":"33.9534777","Longitude":"-6.8681624","Name":"Allée Arrande"},{"Latitude":"33.9581091","Longitude":"-6.8746568","Name":"Allée Assafssaf ممر الصفصاف"},{"Latitude":"35.7450167","Longitude":"-5.7869679","Name":"Allée B"},{"Latitude":"35.7423782","Longitude":"-5.7825127","Name":"Allée C"},{"Latitude":"33.5635700","Longitude":"-7.6193820","Name":"Allée Chant des Oiseaux"},{"Latitude":"35.7397679","Longitude":"-5.7780790","Name":"Allée D"},{"Latitude":"35.7378915","Longitude":"-5.7728140","Name":"Allée E"},{"Latitude":"33.9658592","Longitude":"-6.8660763","Name":"Allée Nord الممر الشمالي"},{"Latitude":"33.9540232","Longitude":"-6.8780543","Name":"Allée Ouest"},{"Latitude":"33.5526093","Longitude":"-7.6120535","Name":"Allée Oukaïmden"},{"Latitude":"33.9474146","Longitude":"-6.8734905","Name":"Allée Sud"},{"Latitude":"33.5865555","Longitude":"-7.6543394","Name":"Allée Tête D'or"},{"Latitude":"33.6096414","Longitude":"-7.5317804","Name":"Allée de Jasmins"},{"Latitude":"33.5680767","Longitude":"-7.6205662","Name":"Allée de Persée"},{"Latitude":"33.5322294","Longitude":"-7.6270048","Name":"Allée de Virginie"},{"Latitude":"33.5664218","Longitude":"-7.6149362","Name":"Allée de l'Aude"},{"Latitude":"33.9625730","Longitude":"-6.8622347","Name":"Allée de l'Est"},{"Latitude":"33.5481548","Longitude":"-7.6187121","Name":"Allée de la Papeterie"},{"Latitude":"33.6152838","Longitude":"-7.5394911","Name":"Allée de la Plage"},{"Latitude":"33.5885482","Longitude":"-7.6541072","Name":"Allée des Abricotiers"},{"Latitude":"33.5914096","Longitude":"-7.6596645","Name":"Allée des Alisiers"},{"Latitude":"33.5877148","Longitude":"-7.6520164","Name":"Allée des Amandiers"},{"Latitude":"33.4675821","Longitude":"-7.6055807","Name":"Allée des Araucarias"},{"Latitude":"33.5858575","Longitude":"-7.6547250","Name":"Allée des Buttes"},{"Latitude":"33.6087657","Longitude":"-7.5280736","Name":"Allée des Citronniers"},{"Latitude":"33.5667509","Longitude":"-7.6235320","Name":"Allée des Cygnes"},{"Latitude":"33.6028402","Longitude":"-7.5459874","Name":"Allée des Cyprès"},{"Latitude":"33.5855865","Longitude":"-7.6616362","Name":"Allée des Cédres"},{"Latitude":"33.6152017","Longitude":"-7.5374385","Name":"Allée des Eucaliptus"},{"Latitude":"33.5889386","Longitude":"-7.6620838","Name":"Allée des Eucalyptus"},{"Latitude":"33.6116350","Longitude":"-7.5389689","Name":"Allée des Figuiers"},{"Latitude":"33.6063107","Longitude":"-7.5483544","Name":"Allée des Grévilléas"},{"Latitude":"33.6171866","Longitude":"-7.5387802","Name":"Allée des Jardins"},{"Latitude":"33.6118964","Longitude":"-7.5233307","Name":"Allée des Lauriers Roses"},{"Latitude":"33.6105522","Longitude":"-7.5237425","Name":"Allée des Lilas"},{"Latitude":"33.6134081","Longitude":"-7.5222458","Name":"Allée des Mandariniers"},{"Latitude":"33.5858390","Longitude":"-7.6625240","Name":"Allée des Marronniers"},{"Latitude":"33.6103808","Longitude":"-7.5297774","Name":"Allée des Mimosas"},{"Latitude":"33.5856368","Longitude":"-7.6535507","Name":"Allée des Moineaux"},{"Latitude":"33.5921577","Longitude":"-7.6606337","Name":"Allée des Muriers"},{"Latitude":"33.6060455","Longitude":"-7.5437877","Name":"Allée des Orangers"},{"Latitude":"33.6087970","Longitude":"-7.5393167","Name":"Allée des Parcs"},{"Latitude":"33.6068256","Longitude":"-7.5437410","Name":"Allée des Pêchers"},{"Latitude":"33.5874299","Longitude":"-7.6501054","Name":"Allée des Roseaux"},{"Latitude":"33.6027654","Longitude":"-7.5415859","Name":"Allée des Sauges"},{"Latitude":"33.6086847","Longitude":"-7.5415664","Name":"Allée des Séphoras"},{"Latitude":"33.6121879","Longitude":"-7.5288065","Name":"Allée des Tamaris"},{"Latitude":"33.5632337","Longitude":"-7.6218364","Name":"Allée des Thouettes"},{"Latitude":"33.6182814","Longitude":"-7.5361718","Name":"Allée des Tilleuls"},{"Latitude":"33.5908584","Longitude":"-7.6596110","Name":"Allée des Trembles"},{"Latitude":"33.6054505","Longitude":"-7.5385144","Name":"Allée des Villas"},{"Latitude":"33.5641607","Longitude":"-7.6157626","Name":"Allée du Chemin Vert"},{"Latitude":"33.4890348","Longitude":"-7.6012905","Name":"Allée du Lac No 1"},{"Latitude":"33.4890908","Longitude":"-7.6004926","Name":"Allée du Lac No 2"},{"Latitude":"33.4898758","Longitude":"-7.6008442","Name":"Allée du Lac No 3"},{"Latitude":"33.4901085","Longitude":"-7.6021387","Name":"Allée du Lac No 4"},{"Latitude":"33.4881316","Longitude":"-7.6024854","Name":"Allée du Lac No 5"},{"Latitude":"33.4890005","Longitude":"-7.6038355","Name":"Allée du Lac No 6"},{"Latitude":"33.5645112","Longitude":"-7.6203979","Name":"Allée du Maine"},{"Latitude":"33.5902181","Longitude":"-7.6598307","Name":"Allêe des Hetres"},{"Latitude":"28.9879163","Longitude":"-10.0573587","Name":"Almassira"},{"Latitude":"33.3807094","Longitude":"-7.5452659","Name":"Alpha Street"},{"Latitude":"33.6064958","Longitude":"-7.5160172","Name":"Amal III"},{"Latitude":"33.6026211","Longitude":"-7.5167378","Name":"Amal IV"},{"Latitude":"33.9239989","Longitude":"-6.9172549","Name":"Aman"},{"Latitude":"35.5782779","Longitude":"-5.3851795","Name":"Amaranto"},{"Latitude":"35.4693073","Longitude":"-6.0319554","Name":"Amir Moulay Alhassan Bn Hadi"},{"Latitude":"31.5054941","Longitude":"-9.7621030","Name":"Amira Lailah Amina"},{"Latitude":"31.4996562","Longitude":"-9.7616322","Name":"Amira Lalla Meriem"},{"Latitude":"33.9038529","Longitude":"-5.5579009","Name":"Andalus Square"},{"Latitude":"33.0005208","Longitude":"-7.6164892","Name":"Anenue Allal El Fassi"},{"Latitude":"32.8521864","Longitude":"-6.5693942","Name":"Anenue Bir Anzarene"},{"Latitude":"33.9227936","Longitude":"-6.9170089","Name":"Ankara"},{"Latitude":"33.9600902","Longitude":"-6.8635677","Name":"Annassine"},{"Latitude":"31.6284121","Longitude":"-7.9991559","Name":"Annexe Bab Doukkala"},{"Latitude":"30.3797696","Longitude":"-9.5004084","Name":"Aourir"},{"Latitude":"35.1550305","Longitude":"-3.0024735","Name":"Arrakhaa"},{"Latitude":"33.9546762","Longitude":"-6.8690890","Name":"Arramadia"},{"Latitude":"31.6381116","Longitude":"-7.9872298","Name":"Arset Ali Oussalh"},{"Latitude":"31.6432526","Longitude":"-8.0060077","Name":"Arset Ben Chafai"},{"Latitude":"31.6357351","Longitude":"-7.9856819","Name":"Arset Berdai Kdima"},{"Latitude":"31.6359526","Longitude":"-7.9870726","Name":"Arset El Mallak"},{"Latitude":"31.6210300","Longitude":"-7.9872788","Name":"Arset Moussa Touala"},{"Latitude":"31.1213879","Longitude":"-7.9215251","Name":"Arumd-Sidi Chamarouch-CAF Refuge"},{"Latitude":"33.9267754","Longitude":"-6.9327336","Name":"Asmae Bint Amis"},{"Latitude":"28.0801947","Longitude":"-9.9081914","Name":"Assa to Labouriat Road"},{"Latitude":"34.0439180","Longitude":"-6.7782100","Name":"Assafae"},{"Latitude":"32.0108417","Longitude":"-6.1544359","Name":"Assif Melloul Piste"},{"Latitude":"33.9239989","Longitude":"-6.9172549","Name":"Assiout"},{"Latitude":"31.6906358","Longitude":"-8.2627139","Name":"Autoroute Casablanca-Agadir"},{"Latitude":"33.2804112","Longitude":"-7.5923507","Name":"Aveneu Al Akaba"},{"Latitude":"35.1769786","Longitude":"-5.2697133","Name":"Avenida Buanan"},{"Latitude":"35.8767155","Longitude":"-5.3405056","Name":"Avenida Cadi Iyad"},{"Latitude":"35.2839902","Longitude":"-2.9482251","Name":"Avenida Donantes de Sangre"},{"Latitude":"35.2666223","Longitude":"-2.9449795","Name":"Avenida Frontera del Chino"},{"Latitude":"35.2946504","Longitude":"-2.9417788","Name":"Avenida Juan Carlos I Rey"},{"Latitude":"35.2865576","Longitude":"-2.9532915","Name":"Avenida Juventud"},{"Latitude":"35.8831915","Longitude":"-5.3315448","Name":"Avenida Miguel Arruda"},{"Latitude":"35.5727137","Longitude":"-5.3755197","Name":"Avenida Regulares de Tetuan"},{"Latitude":"35.8961399","Longitude":"-5.3266180","Name":"Avenida de España"},{"Latitude":"35.2913311","Longitude":"-2.9379935","Name":"Avenida de La Marina Española"},{"Latitude":"35.2850632","Longitude":"-2.9651873","Name":"Avenida de la Circunvalación"},{"Latitude":"35.2704658","Longitude":"-2.9359689","Name":"Avenida de la Frontera del Chino"},{"Latitude":"35.2887259","Longitude":"-2.9448028","Name":"Avenida de la Juventúd"},{"Latitude":"35.2909813","Longitude":"-2.9450324","Name":"Avenida de los Reyes Católicos"},{"Latitude":"35.2926018","Longitude":"-2.9355373","Name":"Avenida del General Macias"},{"Latitude":"35.8989338","Longitude":"-5.3485860","Name":"Avenida del Postigo"},{"Latitude":"35.5749326","Longitude":"-5.3498597","Name":"Avenue"},{"Latitude":"33.8817663","Longitude":"-5.5974038","Name":"Avenue 1"},{"Latitude":"35.5719217","Longitude":"-5.3769587","Name":"Avenue 10 Mai"},{"Latitude":"30.4070529","Longitude":"-9.5504384","Name":"Avenue 11 Janvier"},{"Latitude":"35.1779273","Longitude":"-5.2777538","Name":"Avenue 16 Novembre شارع 16 نوفمبر"},{"Latitude":"31.6583534","Longitude":"-8.0173620","Name":"Avenue 18 Novembre"},{"Latitude":"35.1822849","Longitude":"-2.9262744","Name":"Avenue 18 Novembre شارع ١٨ نوفمبر"},{"Latitude":"33.5394251","Longitude":"-7.5993674","Name":"Avenue 2 Mars"},{"Latitude":"34.0617347","Longitude":"-6.7764549","Name":"Avenue 20 Aout"},{"Latitude":"35.1779432","Longitude":"-2.9296495","Name":"Avenue 3 Mars"},{"Latitude":"33.8801160","Longitude":"-5.5960670","Name":"Avenue 4"},{"Latitude":"34.0502993","Longitude":"-6.8058586","Name":"Avenue 6 Novembre"},{"Latitude":"35.1043378","Longitude":"-3.8383538","Name":"Avenue 9 Juilet"},{"Latitude":"32.9908687","Longitude":"-7.6119130","Name":"Avenue 9 Juillet"},{"Latitude":"33.0021215","Longitude":"-7.6375908","Name":"Avenue A"},{"Latitude":"35.7884622","Longitude":"-5.8205277","Name":"Avenue A Imam Malik"},{"Latitude":"35.5902130","Longitude":"-5.3400475","Name":"Avenue Aassoubou Basselam"},{"Latitude":"33.8968510","Longitude":"-5.5505634","Name":"Avenue Abd Moumen Elyamani"},{"Latitude":"34.0313254","Longitude":"-6.7995165","Name":"Avenue Abda"},{"Latitude":"34.0387095","Longitude":"-4.9962905","Name":"Avenue Abdallah Chefchaouni"},{"Latitude":"35.5716292","Longitude":"-5.3592944","Name":"Avenue Abdel Khalek Torres"},{"Latitude":"32.2784732","Longitude":"-9.2429167","Name":"Avenue Abdelali Ben Chakroun"},{"Latitude":"34.0410405","Longitude":"-4.9982927","Name":"Avenue Abdelali Benchekroun"},{"Latitude":"32.2817288","Longitude":"-9.2287720","Name":"Avenue Abdelazziz Bencharkroun"},{"Latitude":"30.3740053","Longitude":"-9.5049367","Name":"Avenue Abdelerrahim Bouabid شارع عبد الرحيم بوعبيد"},{"Latitude":"34.0455579","Longitude":"-6.7837344","Name":"Avenue Abdelhamid Houssain"},{"Latitude":"33.5703120","Longitude":"-7.5221208","Name":"Avenue Abdelkader Sahraoui"},{"Latitude":"35.1750983","Longitude":"-2.9270002","Name":"Avenue Abdelkhalek Torres"},{"Latitude":"31.6779511","Longitude":"-8.0001739","Name":"Avenue Abdelkrim Al Khatib"},{"Latitude":"35.0116077","Longitude":"-3.0021916","Name":"Avenue Abdelkrim Al Khattabi"},{"Latitude":"33.8827212","Longitude":"-5.5698586","Name":"Avenue Abdelkrim Al Khattabi شارع عبد الكريم الخطابي"},{"Latitude":"33.5806974","Longitude":"-7.5920691","Name":"Avenue Abdelkrim Al-Khatib"},{"Latitude":"34.0169016","Longitude":"-6.8238334","Name":"Avenue Abdelkrim Benjelloun شارع عبد الكريم بن جلون"},{"Latitude":"35.1676453","Longitude":"-5.2673782","Name":"Avenue Abdelkrim El Khatabi شارع عبد الكريم الخطابي"},{"Latitude":"30.4005165","Longitude":"-9.5921481","Name":"Avenue Abdelkrim El Khatib"},{"Latitude":"34.0380618","Longitude":"-5.0001446","Name":"Avenue Abdelkrim El Khattabi"},{"Latitude":"32.3307790","Longitude":"-6.3590217","Name":"Avenue Abdelkrim Elkhattabi"},{"Latitude":"35.5647125","Longitude":"-5.3534668","Name":"Avenue Abdellah Al Fakhar"},{"Latitude":"35.5655881","Longitude":"-5.3977163","Name":"Avenue Abdellah Chefchaouni"},{"Latitude":"35.1721492","Longitude":"-5.2692841","Name":"Avenue Abdellah Chefchaouni شارع عبد الله الشفشاوني"},{"Latitude":"34.0673872","Longitude":"-6.7955643","Name":"Avenue Abdellah Echafchaouni"},{"Latitude":"30.3588736","Longitude":"-9.5364078","Name":"Avenue Abdellah Gennoun"},{"Latitude":"30.3727408","Longitude":"-9.5244769","Name":"Avenue Abdellah Guenoun"},{"Latitude":"34.0442776","Longitude":"-6.7781100","Name":"Avenue Abdellah Guenoune"},{"Latitude":"35.7647091","Longitude":"-5.8009583","Name":"Avenue Abdellah Ibn Rouaha"},{"Latitude":"30.3696871","Longitude":"-9.5361119","Name":"Avenue Abdellah Ibrahim"},{"Latitude":"35.1892793","Longitude":"-6.1495651","Name":"Avenue Abdelmoumen Ben Ali"},{"Latitude":"34.0237172","Longitude":"-6.8282296","Name":"Avenue Abdelmoumen شارع عبد المومن"},{"Latitude":"34.0243040","Longitude":"-5.0067734","Name":"Avenue Abdelouahed El Marrekchi"},{"Latitude":"35.5893885","Longitude":"-5.3565243","Name":"Avenue Abdelsalam Benouna"},{"Latitude":"33.8772857","Longitude":"-5.5382225","Name":"Avenue Abderahmane Ben Zidane عبد الرحمن بن زيدان"},{"Latitude":"33.9650165","Longitude":"-6.8711170","Name":"Avenue Abderrahim Bouabid شارع عبد الرحيم بوعبيد"},{"Latitude":"34.0256630","Longitude":"-5.0241136","Name":"Avenue Abderrahim Sakkat"},{"Latitude":"33.2522018","Longitude":"-8.5181447","Name":"Avenue Abderrahman Doukali"},{"Latitude":"33.0006454","Longitude":"-7.6199170","Name":"Avenue Abderrahmane Skirj"},{"Latitude":"35.7678436","Longitude":"-5.8138892","Name":"Avenue Abderrahmane Youssoufi"},{"Latitude":"35.7547982","Longitude":"-5.7956620","Name":"Avenue Abdeslam Ben Bouhout"},{"Latitude":"32.2903995","Longitude":"-9.2263739","Name":"Avenue Abdessalam Mjid"},{"Latitude":"33.9302225","Longitude":"-6.9470883","Name":"Avenue Abdrrahim Bouabid"},{"Latitude":"34.0411926","Longitude":"-5.0078706","Name":"Avenue Abi Bakr Essedik"},{"Latitude":"34.2487673","Longitude":"-6.6088386","Name":"Avenue Abi Chita El Jamaai"},{"Latitude":"34.0428918","Longitude":"-5.0055902","Name":"Avenue Abi Hanifa"},{"Latitude":"35.1697273","Longitude":"-5.2698065","Name":"Avenue Abi Hassan El Mendri شارع ابي الحسن المنظري"},{"Latitude":"35.1663761","Longitude":"-5.2697930","Name":"Avenue Abi Kacem Chabi زنقة ابي القاسم الشابي"},{"Latitude":"34.0434580","Longitude":"-5.0048905","Name":"Avenue Abi Naïm"},{"Latitude":"35.6141120","Longitude":"-5.2800411","Name":"Avenue Abi Rakrak"},{"Latitude":"34.0635244","Longitude":"-6.7902019","Name":"Avenue Abou Baker Essedik"},{"Latitude":"27.1555980","Longitude":"-13.1936538","Name":"Avenue Abou Baker Seddik"},{"Latitude":"35.7751720","Longitude":"-5.8047573","Name":"Avenue Abou Bakr Seddik"},{"Latitude":"34.0680337","Longitude":"-6.7870635","Name":"Avenue Abou Dar El Ghaffari"},{"Latitude":"35.7633049","Longitude":"-5.8229654","Name":"Avenue Abou El Kacem Chrif Sebti"},{"Latitude":"34.0163802","Longitude":"-6.8348299","Name":"Avenue Abou Faris Al Marini شارع أبو فارس المريني"},{"Latitude":"35.4643707","Longitude":"-6.0354826","Name":"Avenue Abou Ferras El Hamadani"},{"Latitude":"35.5765446","Longitude":"-5.3620040","Name":"Avenue Abou Inane"},{"Latitude":"35.1675091","Longitude":"-2.9316779","Name":"Avenue Abou Kacem Chabi"},{"Latitude":"35.5692661","Longitude":"-5.3903834","Name":"Avenue Abou Tammam"},{"Latitude":"34.0750036","Longitude":"-6.7727333","Name":"Avenue Aboubakr Assidiq"},{"Latitude":"30.3383673","Longitude":"-9.5009941","Name":"Avenue Aboukar Al Kadri"},{"Latitude":"30.3991670","Longitude":"-9.5483904","Name":"Avenue Abraham Ben Zedane"},{"Latitude":"34.0427903","Longitude":"-5.0121084","Name":"Avenue Abu Daoud"},{"Latitude":"34.0176986","Longitude":"-4.9875603","Name":"Avenue Abu Horaira Zohor"},{"Latitude":"34.0343907","Longitude":"-6.8193531","Name":"Avenue Ach Said Ahmed Hajji"},{"Latitude":"31.6572180","Longitude":"-7.9873325","Name":"Avenue Achatibi"},{"Latitude":"31.6467747","Longitude":"-8.0048758","Name":"Avenue Achjar"},{"Latitude":"35.7553794","Longitude":"-5.8176270","Name":"Avenue Achouhada"},{"Latitude":"30.3451940","Longitude":"-9.4890714","Name":"Avenue Acohade"},{"Latitude":"35.7703306","Longitude":"-5.8300361","Name":"Avenue Addardar"},{"Latitude":"35.7593569","Longitude":"-5.7920975","Name":"Avenue Addelwahed El Kassimi"},{"Latitude":"34.6601481","Longitude":"-1.8994439","Name":"Avenue Addifa"},{"Latitude":"33.9599395","Longitude":"-6.8579894","Name":"Avenue Addolb شارع الدلب"},{"Latitude":"35.5823593","Longitude":"-5.3465264","Name":"Avenue Aden"},{"Latitude":"35.6233512","Longitude":"-5.2731350","Name":"Avenue Agadir"},{"Latitude":"30.4009639","Longitude":"-9.5356449","Name":"Avenue Agaiz"},{"Latitude":"31.6808522","Longitude":"-8.0040550","Name":"Avenue Agdal"},{"Latitude":"35.1797857","Longitude":"-2.9238387","Name":"Avenue Agelira"},{"Latitude":"32.9960755","Longitude":"-7.6059840","Name":"Avenue Aghmat"},{"Latitude":"30.3462839","Longitude":"-9.5124194","Name":"Avenue Aglou"},{"Latitude":"30.3702843","Longitude":"-9.5337916","Name":"Avenue Ahmed Al Hiba"},{"Latitude":"30.3379114","Longitude":"-9.4837942","Name":"Avenue Ahmed Al-Hiba"},{"Latitude":"33.9736876","Longitude":"-6.8343517","Name":"Avenue Ahmed Balafrej شارع أحمد بلافريج"},{"Latitude":"34.0650319","Longitude":"-6.7983003","Name":"Avenue Ahmed Belafrej"},{"Latitude":"34.0351901","Longitude":"-6.8221084","Name":"Avenue Ahmed Ben Aboud"},{"Latitude":"30.3758959","Longitude":"-9.5343406","Name":"Avenue Ahmed Ben Al Mokhtar"},{"Latitude":"35.7526731","Longitude":"-5.7936285","Name":"Avenue Ahmed Ben Allal Bouaich"},{"Latitude":"33.8916522","Longitude":"-5.5040317","Name":"Avenue Ahmed Ben Chekroune"},{"Latitude":"34.9379098","Longitude":"-3.5341980","Name":"Avenue Ahmed Boulakrif"},{"Latitude":"35.5751178","Longitude":"-5.3531903","Name":"Avenue Ahmed Chaouki"},{"Latitude":"34.2653094","Longitude":"-6.5931728","Name":"Avenue Ahmed Chawki"},{"Latitude":"34.0391647","Longitude":"-5.0001499","Name":"Avenue Ahmed El Hansali"},{"Latitude":"31.5187341","Longitude":"-9.7597601","Name":"Avenue Ahmed El Mansour Eddahbi"},{"Latitude":"35.5913930","Longitude":"-5.3349164","Name":"Avenue Ahmed El Mokhtar Al Alami"},{"Latitude":"34.0153393","Longitude":"-6.8235210","Name":"Avenue Ahmed El Yazidi شارع أحمد اليزيدي"},{"Latitude":"30.3694723","Longitude":"-9.5472754","Name":"Avenue Ahmed Rachidi"},{"Latitude":"33.9752243","Longitude":"-6.8222699","Name":"Avenue Ahmed Reda Gadira"},{"Latitude":"35.7624271","Longitude":"-5.8211499","Name":"Avenue Ahmed Zerrouk"},{"Latitude":"30.4119917","Longitude":"-9.5464425","Name":"Avenue Ahnedal Nansour Dahei"},{"Latitude":"35.7338339","Longitude":"-5.8055602","Name":"Avenue Aicha Al-Moussafir"},{"Latitude":"35.5872792","Longitude":"-5.3570956","Name":"Avenue Aichaboum El Mouminine"},{"Latitude":"33.9447228","Longitude":"-6.8683809","Name":"Avenue Ailanthus"},{"Latitude":"33.8258453","Longitude":"-6.0846877","Name":"Avenue Ain Atas"},{"Latitude":"33.8254253","Longitude":"-6.0811123","Name":"Avenue Ain Harouda"},{"Latitude":"33.8251746","Longitude":"-6.0785133","Name":"Avenue Ain Ifran"},{"Latitude":"35.5840197","Longitude":"-5.3569704","Name":"Avenue Ain Jalout"},{"Latitude":"33.8254079","Longitude":"-6.0833524","Name":"Avenue Ain Oulmes"},{"Latitude":"30.3475870","Longitude":"-9.4950360","Name":"Avenue Ait Baamrane"},{"Latitude":"33.6902797","Longitude":"-7.3809370","Name":"Avenue Ait Melloul"},{"Latitude":"32.9986227","Longitude":"-7.6057202","Name":"Avenue Ait Meloul"},{"Latitude":"35.6163112","Longitude":"-5.2859695","Name":"Avenue Ajdir"},{"Latitude":"34.0420074","Longitude":"-6.7775372","Name":"Avenue Al Abasseine"},{"Latitude":"34.0017738","Longitude":"-6.8463342","Name":"Avenue Al Abtal شارع الابطال"},{"Latitude":"29.3807683","Longitude":"-10.1718070","Name":"Avenue Al Adarissa"},{"Latitude":"35.7386238","Longitude":"-5.8334680","Name":"Avenue Al Afw"},{"Latitude":"34.0195970","Longitude":"-6.8261137","Name":"Avenue Al Alaouiyine زنقة العلويين"},{"Latitude":"34.0618214","Longitude":"-6.7783626","Name":"Avenue Al Amana"},{"Latitude":"33.8950673","Longitude":"-5.5597912","Name":"Avenue Al Amir Moulay Al Hassane Ben Driss"},{"Latitude":"34.0382634","Longitude":"-6.7875408","Name":"Avenue Al Andalous"},{"Latitude":"34.6593489","Longitude":"-1.9013214","Name":"Avenue Al Aouda"},{"Latitude":"33.9525220","Longitude":"-6.8715687","Name":"Avenue Al Araar شارع العرعار"},{"Latitude":"35.6226775","Longitude":"-5.2723955","Name":"Avenue Al Araiche"},{"Latitude":"33.0044060","Longitude":"-7.6089804","Name":"Avenue Al Arbi Al Ouadi"},{"Latitude":"34.0685910","Longitude":"-6.7958688","Name":"Avenue Al Arsa"},{"Latitude":"33.9637341","Longitude":"-6.8687953","Name":"Avenue Al Arz شارع الأرز"},{"Latitude":"34.6628065","Longitude":"-1.8756748","Name":"Avenue Al Assil"},{"Latitude":"34.6770037","Longitude":"-1.8823532","Name":"Avenue Al Azhar"},{"Latitude":"35.7307721","Longitude":"-5.7661203","Name":"Avenue Al Bachacha"},{"Latitude":"35.7300934","Longitude":"-5.7660748","Name":"Avenue Al Bahja"},{"Latitude":"35.7681402","Longitude":"-5.8302574","Name":"Avenue Al Balah"},{"Latitude":"34.0715481","Longitude":"-6.7857713","Name":"Avenue Al Bassatine"},{"Latitude":"33.8899968","Longitude":"-6.3307951","Name":"Avenue Al Bassra"},{"Latitude":"34.0615280","Longitude":"-6.7865990","Name":"Avenue Al Benafssaj"},{"Latitude":"35.7322349","Longitude":"-5.7663793","Name":"Avenue Al Bicher"},{"Latitude":"33.9857799","Longitude":"-6.8802450","Name":"Avenue Al Faouz"},{"Latitude":"35.1686339","Longitude":"-2.9271115","Name":"Avenue Al Farabi"},{"Latitude":"35.7326755","Longitude":"-5.7655570","Name":"Avenue Al Farah"},{"Latitude":"35.6269426","Longitude":"-5.2887289","Name":"Avenue Al Farracha"},{"Latitude":"33.9659765","Longitude":"-6.8942766","Name":"Avenue Al Fath شارع الفتح"},{"Latitude":"34.0346269","Longitude":"-6.7986426","Name":"Avenue Al Fida"},{"Latitude":"27.1349838","Longitude":"-13.1870169","Name":"Avenue Al Forssane"},{"Latitude":"34.0380998","Longitude":"-4.9839683","Name":"Avenue Al Ghassani شارع الغساني"},{"Latitude":"34.0145222","Longitude":"-6.8453427","Name":"Avenue Al Ghazali شارع الغزالي"},{"Latitude":"35.7284321","Longitude":"-5.7669841","Name":"Avenue Al Ghibtae"},{"Latitude":"30.3567574","Longitude":"-9.5347582","Name":"Avenue Al Guessima"},{"Latitude":"34.6702481","Longitude":"-1.9285120","Name":"Avenue Al Hachmi Filali"},{"Latitude":"35.7312529","Longitude":"-5.7649268","Name":"Avenue Al Hanin"},{"Latitude":"33.9853379","Longitude":"-6.8228558","Name":"Avenue Al Haouz"},{"Latitude":"34.0126057","Longitude":"-6.8433237","Name":"Avenue Al Hatimi شارع الحاتمي"},{"Latitude":"34.7053906","Longitude":"-1.8990327","Name":"Avenue Al Hattab"},{"Latitude":"34.6540024","Longitude":"-1.9078861","Name":"Avenue Al Hidaya"},{"Latitude":"35.5697095","Longitude":"-5.3934744","Name":"Avenue Al Hijra"},{"Latitude":"35.7439130","Longitude":"-5.8335203","Name":"Avenue Al Hiwar"},{"Latitude":"35.7296547","Longitude":"-5.7664637","Name":"Avenue Al Hobour"},{"Latitude":"35.7498135","Longitude":"-5.8320159","Name":"Avenue Al Hoceima"},{"Latitude":"35.5693855","Longitude":"-5.3568864","Name":"Avenue Al Hocima"},{"Latitude":"33.9646918","Longitude":"-6.8689726","Name":"Avenue Al Hour شارع الحور"},{"Latitude":"34.0069331","Longitude":"-6.8654023","Name":"Avenue Al Houria شارع الحرية"},{"Latitude":"35.7292986","Longitude":"-5.7666846","Name":"Avenue Al Iftirar"},{"Latitude":"35.6271541","Longitude":"-5.2858192","Name":"Avenue Al Ijjas"},{"Latitude":"33.9863550","Longitude":"-6.8772969","Name":"Avenue Al Ijtihad"},{"Latitude":"35.7767089","Longitude":"-5.8343478","Name":"Avenue Al Imam At-Tirmidi"},{"Latitude":"30.3733064","Longitude":"-9.5498365","Name":"Avenue Al Imame Malik"},{"Latitude":"35.7514870","Longitude":"-5.8045266","Name":"Avenue Al Imarat Al Arabia"},{"Latitude":"35.5765532","Longitude":"-5.3422722","Name":"Avenue Al Inarra"},{"Latitude":"35.7311973","Longitude":"-5.7660668","Name":"Avenue Al Inchirah"},{"Latitude":"34.6584129","Longitude":"-1.9004457","Name":"Avenue Al Israe"},{"Latitude":"34.0651555","Longitude":"-6.7996003","Name":"Avenue Al Istiklal"},{"Latitude":"34.2622471","Longitude":"-6.5836423","Name":"Avenue Al Istiqual"},{"Latitude":"33.9811039","Longitude":"-6.8845328","Name":"Avenue Al Izdihar شارع الإزدهار"},{"Latitude":"35.5749335","Longitude":"-5.3796127","Name":"Avenue Al Jamiaa Al Arabia"},{"Latitude":"35.5713938","Longitude":"-5.3728288","Name":"Avenue Al Jazaer"},{"Latitude":"34.0466669","Longitude":"-6.7997941","Name":"Avenue Al Jazira Al Arabia"},{"Latitude":"35.6262190","Longitude":"-5.2894316","Name":"Avenue Al Jiza"},{"Latitude":"35.5736389","Longitude":"-5.3840697","Name":"Avenue Al Jouhara"},{"Latitude":"35.5865545","Longitude":"-5.3335363","Name":"Avenue Al Joulane"},{"Latitude":"35.1757820","Longitude":"-5.2755716","Name":"Avenue Al Kahira شارع القاهرة"},{"Latitude":"35.5890133","Longitude":"-5.3537884","Name":"Avenue Al Kandil"},{"Latitude":"34.0201036","Longitude":"-4.9848359","Name":"Avenue Al Karama"},{"Latitude":"35.7693099","Longitude":"-5.8309494","Name":"Avenue Al Karma"},{"Latitude":"35.7699334","Longitude":"-5.8300294","Name":"Avenue Al Kastanaä"},{"Latitude":"35.7681672","Longitude":"-5.7558194","Name":"Avenue Al Kayraouan"},{"Latitude":"35.6263901","Longitude":"-5.2902392","Name":"Avenue Al Kettan"},{"Latitude":"35.1714898","Longitude":"-2.9276915","Name":"Avenue Al Khansa"},{"Latitude":"35.5761915","Longitude":"-5.3422074","Name":"Avenue Al Khartoum"},{"Latitude":"30.3747127","Longitude":"-9.5474039","Name":"Avenue Al Khawarizmi"},{"Latitude":"35.7693436","Longitude":"-5.8289927","Name":"Avenue Al Khayzaran"},{"Latitude":"35.7703937","Longitude":"-5.8306611","Name":"Avenue Al Khoukh"},{"Latitude":"33.9914148","Longitude":"-6.8684252","Name":"Avenue Al Kifah شارع الكفاح"},{"Latitude":"33.8899734","Longitude":"-6.3278743","Name":"Avenue Al Kods"},{"Latitude":"30.3174410","Longitude":"-9.5040799","Name":"Avenue Al Kolia"},{"Latitude":"33.8921061","Longitude":"-6.3228964","Name":"Avenue Al Koos"},{"Latitude":"35.6270009","Longitude":"-5.2846210","Name":"Avenue Al Koroum"},{"Latitude":"31.6610401","Longitude":"-8.0130646","Name":"Avenue Al Machaar Al Haram"},{"Latitude":"30.9268084","Longitude":"-6.9056424","Name":"Avenue Al Maghreb Al Arabi"},{"Latitude":"34.0166319","Longitude":"-4.9748003","Name":"Avenue Al Majd"},{"Latitude":"31.6324318","Longitude":"-8.0006285","Name":"Avenue Al Mallakh"},{"Latitude":"34.0144031","Longitude":"-4.9913242","Name":"Avenue Al Manama"},{"Latitude":"31.6182186","Longitude":"-8.0691975","Name":"Avenue Al Manfalouti شارع المنفلوطي"},{"Latitude":"34.0207368","Longitude":"-6.8338803","Name":"Avenue Al Mansour Addahbi شارع المنصور الذهبي"},{"Latitude":"35.5856798","Longitude":"-5.3573142","Name":"Avenue Al Mansour Ben Abi Amer"},{"Latitude":"34.9215462","Longitude":"-2.3141522","Name":"Avenue Al Manzel"},{"Latitude":"29.3829130","Longitude":"-10.1725754","Name":"Avenue Al Manzil"},{"Latitude":"35.6266455","Longitude":"-5.2863389","Name":"Avenue Al Maouz"},{"Latitude":"35.7317243","Longitude":"-5.7670511","Name":"Avenue Al Marah"},{"Latitude":"31.6054368","Longitude":"-7.9705794","Name":"Avenue Al Markeb"},{"Latitude":"34.0302097","Longitude":"-6.8366593","Name":"Avenue Al Marsa شارع المرسى"},{"Latitude":"35.6196307","Longitude":"-5.2736552","Name":"Avenue Al Masira Khadra"},{"Latitude":"33.9735485","Longitude":"-6.8481477","Name":"Avenue Al Mass"},{"Latitude":"34.2510970","Longitude":"-6.5569738","Name":"Avenue Al Massira"},{"Latitude":"35.5711844","Longitude":"-5.3594805","Name":"Avenue Al Massira Al Khadra"},{"Latitude":"33.8894969","Longitude":"-6.3297129","Name":"Avenue Al Massjid"},{"Latitude":"33.9584183","Longitude":"-6.8509844","Name":"Avenue Al Melia شارع المليا"},{"Latitude":"31.6273384","Longitude":"-8.0467601","Name":"Avenue Al Midani"},{"Latitude":"35.5708233","Longitude":"-5.3905039","Name":"Avenue Al Moatassem"},{"Latitude":"33.8995970","Longitude":"-6.3205437","Name":"Avenue Al Mobadara"},{"Latitude":"35.6167774","Longitude":"-5.2760627","Name":"Avenue Al Mokaouama"},{"Latitude":"30.3248004","Longitude":"-9.5278159","Name":"Avenue Al Mokhtar Soussi"},{"Latitude":"35.7691966","Longitude":"-5.7546634","Name":"Avenue Al Monastir"},{"Latitude":"34.6617405","Longitude":"-1.8664165","Name":"Avenue Al Moqaouama شارع المقاومة"},{"Latitude":"34.0347783","Longitude":"-6.8237630","Name":"Avenue Al Moqawama"},{"Latitude":"34.0454378","Longitude":"-6.7782392","Name":"Avenue Al Morabitine"},{"Latitude":"33.9874437","Longitude":"-6.8816055","Name":"Avenue Al Mostakbal شارع المستقبل"},{"Latitude":"34.0450117","Longitude":"-6.7779135","Name":"Avenue Al Mouahidine"},{"Latitude":"30.4751273","Longitude":"-8.8845250","Name":"Avenue Al Moukaouama"},{"Latitude":"34.0229469","Longitude":"-6.8460180","Name":"Avenue Al Mouqaouama شارع المقاومة"},{"Latitude":"30.4172909","Longitude":"-9.5776024","Name":"Avenue Al Mouqawama"},{"Latitude":"30.4129232","Longitude":"-9.5886572","Name":"Avenue Al Mouqwama"},{"Latitude":"30.3538921","Longitude":"-9.5368248","Name":"Avenue Al Mourabitine"},{"Latitude":"35.5681856","Longitude":"-5.4011817","Name":"Avenue Al Moussaid Tber Al Mokhtar"},{"Latitude":"30.4651230","Longitude":"-8.8782725","Name":"Avenue Al Moustakbal"},{"Latitude":"35.1706221","Longitude":"-2.9261392","Name":"Avenue Al Moutanabi"},{"Latitude":"35.5769526","Longitude":"-5.3420415","Name":"Avenue Al Nakhil"},{"Latitude":"35.6217852","Longitude":"-5.2730694","Name":"Avenue Al Noceima"},{"Latitude":"34.0481503","Longitude":"-6.7958473","Name":"Avenue Al Ordone شارع الأردن"},{"Latitude":"30.4765708","Longitude":"-8.8934808","Name":"Avenue Al Ouahda"},{"Latitude":"34.0304510","Longitude":"-6.8048658","Name":"Avenue Al Ouattassine شارع الوطاسيين"},{"Latitude":"34.2469133","Longitude":"-6.5950935","Name":"Avenue Al Qadissia"},{"Latitude":"32.3283474","Longitude":"-6.3599296","Name":"Avenue Al Qods شارع القدس"},{"Latitude":"30.3627795","Longitude":"-9.5409293","Name":"Avenue Al Quaraouiyine"},{"Latitude":"35.7016793","Longitude":"-5.8189546","Name":"Avenue Al Quds شارع القدس"},{"Latitude":"34.0426675","Longitude":"-6.7861370","Name":"Avenue Al Sahrae"},{"Latitude":"34.0458390","Longitude":"-6.7998210","Name":"Avenue Al Salwa"},{"Latitude":"35.7298670","Longitude":"-5.7662478","Name":"Avenue Al Tbtissam"},{"Latitude":"35.6176039","Longitude":"-5.2741857","Name":"Avenue Al Wahna"},{"Latitude":"35.5733769","Longitude":"-5.3616017","Name":"Avenue Al Wazir Mohamed Seffar"},{"Latitude":"35.6178589","Longitude":"-5.2773502","Name":"Avenue Al Woroud"},{"Latitude":"35.5842134","Longitude":"-5.3558437","Name":"Avenue Al Yarmouk"},{"Latitude":"35.6177068","Longitude":"-5.2788059","Name":"Avenue Al Yassmin"},{"Latitude":"30.3377445","Longitude":"-9.5059051","Name":"Avenue Al Youssofia"},{"Latitude":"33.8986016","Longitude":"-6.3200409","Name":"Avenue Alakarma"},{"Latitude":"35.6849070","Longitude":"-5.3310768","Name":"Avenue Alaouyenne"},{"Latitude":"35.5812969","Longitude":"-5.3437690","Name":"Avenue Alexandrie"},{"Latitude":"33.8834330","Longitude":"-5.5755389","Name":"Avenue Alfarrane حي الفران"},{"Latitude":"32.8765901","Longitude":"-6.9081567","Name":"Avenue Alfred Bauge"},{"Latitude":"35.6122564","Longitude":"-5.2819871","Name":"Avenue Algerie"},{"Latitude":"33.5340259","Longitude":"-7.7748951","Name":"Avenue Alhambra"},{"Latitude":"34.0628168","Longitude":"-6.7925445","Name":"Avenue Ali Ben Abi Taleb شارع علي بن أبي طالب"},{"Latitude":"30.3692962","Longitude":"-9.5284563","Name":"Avenue Ali Beni Abi Talib"},{"Latitude":"35.5755097","Longitude":"-5.3857314","Name":"Avenue Ali Bno Abi Taleb"},{"Latitude":"35.5824075","Longitude":"-5.3411022","Name":"Avenue Ali Yaeta"},{"Latitude":"35.7685667","Longitude":"-5.8305162","Name":"Avenue Allabalb"},{"Latitude":"35.5818544","Longitude":"-5.3423760","Name":"Avenue Alladikia"},{"Latitude":"35.5889582","Longitude":"-5.3411646","Name":"Avenue Allal Al Fassi"},{"Latitude":"34.0657900","Longitude":"-6.7960289","Name":"Avenue Allal Ben Abdallah شارع علال بن عبد الله"},{"Latitude":"34.0152058","Longitude":"-6.8335567","Name":"Avenue Allal Ben Abdellah شارع علال بن عبد الله"},{"Latitude":"33.8946939","Longitude":"-5.5436628","Name":"Avenue Allal Ben Abdellah شارع علال بن عبدالله"},{"Latitude":"33.9859735","Longitude":"-6.8612191","Name":"Avenue Allal El Fassi شارع علال الفاسي"},{"Latitude":"35.7693893","Longitude":"-5.8306785","Name":"Avenue Allouz"},{"Latitude":"32.9379220","Longitude":"-5.6555179","Name":"Avenue Amalou"},{"Latitude":"30.4415099","Longitude":"-9.5816995","Name":"Avenue Amaragh"},{"Latitude":"31.6122852","Longitude":"-7.9591332","Name":"Avenue Ameziane"},{"Latitude":"33.9743009","Longitude":"-6.8452951","Name":"Avenue Amir Sidi Mohammed شارع الأمير سيدي محمد"},{"Latitude":"35.5812653","Longitude":"-5.3457995","Name":"Avenue Amman"},{"Latitude":"33.9072677","Longitude":"-6.9224272","Name":"Avenue Ammar Bnou Yasser"},{"Latitude":"35.6136542","Longitude":"-5.2849284","Name":"Avenue Amtiwa"},{"Latitude":"35.6147034","Longitude":"-5.2837084","Name":"Avenue Anjra"},{"Latitude":"34.0676207","Longitude":"-6.7701108","Name":"Avenue Annacer شارع النصر"},{"Latitude":"33.9623716","Longitude":"-6.8785901","Name":"Avenue Annakhil شارع النخيل"},{"Latitude":"35.6747569","Longitude":"-5.3217749","Name":"Avenue Annaser"},{"Latitude":"34.0262392","Longitude":"-5.0111832","Name":"Avenue Annasr شارع النصر"},{"Latitude":"33.9960928","Longitude":"-6.8671483","Name":"Avenue Annour شارع النور"},{"Latitude":"35.0984987","Longitude":"-3.8430329","Name":"Avenue Anoual"},{"Latitude":"30.4000792","Longitude":"-9.5354081","Name":"Avenue Anssri"},{"Latitude":"30.3734778","Longitude":"-9.5457771","Name":"Avenue Anwal"},{"Latitude":"30.3916961","Longitude":"-9.5627403","Name":"Avenue Aousserd"},{"Latitude":"34.2755371","Longitude":"-6.6069413","Name":"Avenue Aqid Allam"},{"Latitude":"30.3447527","Longitude":"-9.5140374","Name":"Avenue Aqqa"},{"Latitude":"35.6119326","Longitude":"-5.2833525","Name":"Avenue Arabie Saoudite"},{"Latitude":"33.0033187","Longitude":"-7.6145724","Name":"Avenue Arbi El Wadi"},{"Latitude":"35.6178106","Longitude":"-5.2776134","Name":"Avenue Argan"},{"Latitude":"30.4429020","Longitude":"-9.5808935","Name":"Avenue Argana"},{"Latitude":"34.0701076","Longitude":"-6.7539472","Name":"Avenue Ariha شارع أريحا"},{"Latitude":"35.7687473","Longitude":"-5.8288345","Name":"Avenue Arranj"},{"Latitude":"35.7305441","Longitude":"-5.7663095","Name":"Avenue Arrida"},{"Latitude":"34.2591225","Longitude":"-6.5650143","Name":"Avenue Arriyada"},{"Latitude":"34.0436398","Longitude":"-6.7985751","Name":"Avenue Arryana"},{"Latitude":"35.6196307","Longitude":"-5.2736552","Name":"Avenue Asafi"},{"Latitude":"35.5788592","Longitude":"-5.3426063","Name":"Avenue Asouwan"},{"Latitude":"35.1780397","Longitude":"-5.2818207","Name":"Avenue Assa Azzag شارع اسا الزاك"},{"Latitude":"35.7691663","Longitude":"-5.8287887","Name":"Avenue Assabir"},{"Latitude":"35.6264883","Longitude":"-5.2894792","Name":"Avenue Assakar"},{"Latitude":"33.5920614","Longitude":"-7.4895552","Name":"Avenue Assalam شارع السلام"},{"Latitude":"34.6733670","Longitude":"-1.8793722","Name":"Avenue Assalwa"},{"Latitude":"33.9573842","Longitude":"-6.8782938","Name":"Avenue Assanaoubar شارع الصنوبر"},{"Latitude":"33.9602671","Longitude":"-6.8690740","Name":"Avenue Assandar شارع السندر"},{"Latitude":"35.7695232","Longitude":"-5.8285743","Name":"Avenue Assaoussan"},{"Latitude":"31.6568095","Longitude":"-8.0077659","Name":"Avenue Assif"},{"Latitude":"30.3430595","Longitude":"-9.4838035","Name":"Avenue Assila"},{"Latitude":"35.6861390","Longitude":"-5.3265533","Name":"Avenue Assilah"},{"Latitude":"30.3689523","Longitude":"-9.5289968","Name":"Avenue Assmaa Bent Abi Baker"},{"Latitude":"35.7303373","Longitude":"-5.7671329","Name":"Avenue Assorour"},{"Latitude":"34.0618291","Longitude":"-6.7712420","Name":"Avenue Assourour"},{"Latitude":"35.6259262","Longitude":"-5.2893866","Name":"Avenue Atinne"},{"Latitude":"33.9974419","Longitude":"-6.8442719","Name":"Avenue Atlas شارع الأطلس"},{"Latitude":"30.3234991","Longitude":"-5.8380649","Name":"Avenue Atlas-Zaonite"},{"Latitude":"35.6274445","Longitude":"-5.2870178","Name":"Avenue Atoffa"},{"Latitude":"33.8979070","Longitude":"-6.3167644","Name":"Avenue Attahle"},{"Latitude":"35.5835763","Longitude":"-5.3554548","Name":"Avenue Attahrir"},{"Latitude":"30.3210063","Longitude":"-9.5048742","Name":"Avenue Attakafol"},{"Latitude":"33.8955790","Longitude":"-6.3215207","Name":"Avenue Attanimia"},{"Latitude":"33.9552413","Longitude":"-6.8825041","Name":"Avenue Attarfaa"},{"Latitude":"33.9562985","Longitude":"-6.8584875","Name":"Avenue Atthuya"},{"Latitude":"33.9669962","Longitude":"-6.8609794","Name":"Avenue Attine شارع التين"},{"Latitude":"35.7687974","Longitude":"-5.8299905","Name":"Avenue Attout"},{"Latitude":"35.5740347","Longitude":"-5.3572780","Name":"Avenue Avicenne"},{"Latitude":"32.2839015","Longitude":"-9.2340796","Name":"Avenue Ayad Tounssi"},{"Latitude":"34.2732236","Longitude":"-6.5990232","Name":"Avenue Azharoun"},{"Latitude":"34.0176347","Longitude":"-6.8211150","Name":"Avenue Azilal شارع أزيلال"},{"Latitude":"35.7866705","Longitude":"-5.8367639","Name":"Avenue Azrou"},{"Latitude":"33.9676501","Longitude":"-6.8790569","Name":"Avenue Azzaitoune شارع الزيتون"},{"Latitude":"35.7692860","Longitude":"-5.8293897","Name":"Avenue Azzanjabil"},{"Latitude":"35.5714069","Longitude":"-5.3523441","Name":"Avenue Azzarkae"},{"Latitude":"30.3319124","Longitude":"-9.5090086","Name":"Avenue Azzaytoune"},{"Latitude":"35.7687093","Longitude":"-5.8293857","Name":"Avenue Azzaâtar"},{"Latitude":"34.6829453","Longitude":"-1.9386934","Name":"Avenue B"},{"Latitude":"34.0643670","Longitude":"-4.9642713","Name":"Avenue Bab Khoukha"},{"Latitude":"30.4729966","Longitude":"-8.8882203","Name":"Avenue Bab Targhount"},{"Latitude":"31.6733892","Longitude":"-8.0010979","Name":"Avenue Badr"},{"Latitude":"33.8890616","Longitude":"-6.3291067","Name":"Avenue Baghdad"},{"Latitude":"35.6160784","Longitude":"-5.2801847","Name":"Avenue Bahr Chamal"},{"Latitude":"34.0342672","Longitude":"-6.8223027","Name":"Avenue Bani Marine"},{"Latitude":"35.5953233","Longitude":"-5.3452832","Name":"Avenue Banzert"},{"Latitude":"34.0578474","Longitude":"-4.9824588","Name":"Avenue Batha"},{"Latitude":"35.5806926","Longitude":"-5.3486554","Name":"Avenue Bejaia"},{"Latitude":"35.7806655","Longitude":"-5.8131221","Name":"Avenue Belgique شارع بلجيكا"},{"Latitude":"35.7590275","Longitude":"-5.8289842","Name":"Avenue Ben Abi Zarae"},{"Latitude":"33.2285581","Longitude":"-8.4957093","Name":"Avenue Ben Badis"},{"Latitude":"35.7569239","Longitude":"-5.8188960","Name":"Avenue Ben Hammouch"},{"Latitude":"35.5712787","Longitude":"-5.3718136","Name":"Avenue Ben Hassan"},{"Latitude":"35.5712946","Longitude":"-5.3947813","Name":"Avenue Ben Houdaifa"},{"Latitude":"35.6169361","Longitude":"-5.2851319","Name":"Avenue Ben Kariche"},{"Latitude":"33.8307105","Longitude":"-4.8281699","Name":"Avenue Ben Seffar"},{"Latitude":"35.7625636","Longitude":"-5.8229508","Name":"Avenue Ben Taib Al Alami"},{"Latitude":"34.0284457","Longitude":"-6.8062720","Name":"Avenue Benguerir شارع بن جرير"},{"Latitude":"35.5683077","Longitude":"-5.3424869","Name":"Avenue Beni Hafida"},{"Latitude":"35.6834888","Longitude":"-5.3276020","Name":"Avenue Beni Mellal"},{"Latitude":"34.0018308","Longitude":"-4.9839454","Name":"Avenue Benzert"},{"Latitude":"30.4345573","Longitude":"-9.5695723","Name":"Avenue Berkan"},{"Latitude":"34.9495600","Longitude":"-2.1021121","Name":"Avenue Berkane"},{"Latitude":"33.8925828","Longitude":"-5.5713531","Name":"Avenue Berrima طلعة بريمة"},{"Latitude":"35.5827323","Longitude":"-5.3485246","Name":"Avenue Beyrout"},{"Latitude":"34.0090654","Longitude":"-4.9802196","Name":"Avenue Beyrouth"},{"Latitude":"35.5757199","Longitude":"-5.3837393","Name":"Avenue Bilal Ibn Rabah"},{"Latitude":"30.3715347","Longitude":"-9.5322939","Name":"Avenue Bir Anzarane"},{"Latitude":"35.2448862","Longitude":"-3.9368067","Name":"Avenue Bir Anzaren"},{"Latitude":"30.9274672","Longitude":"-6.9213036","Name":"Avenue Bir Inzarene"},{"Latitude":"33.9583777","Longitude":"-6.8471452","Name":"Avenue Bir Kacem"},{"Latitude":"35.6161699","Longitude":"-5.2850131","Name":"Avenue Bni Arous"},{"Latitude":"35.6154961","Longitude":"-5.2855153","Name":"Avenue Bni Bouzra"},{"Latitude":"35.6168358","Longitude":"-5.2861317","Name":"Avenue Bni Gerfet"},{"Latitude":"35.6162323","Longitude":"-5.2843554","Name":"Avenue Bni Hassan"},{"Latitude":"35.5714985","Longitude":"-5.3441164","Name":"Avenue Bni Hdifa"},{"Latitude":"35.6164678","Longitude":"-5.2831498","Name":"Avenue Bni Hozmar"},{"Latitude":"35.6175766","Longitude":"-5.2849938","Name":"Avenue Bni Idder"},{"Latitude":"35.6154505","Longitude":"-5.2834837","Name":"Avenue Bni M'saouar"},{"Latitude":"35.6139512","Longitude":"-5.2851848","Name":"Avenue Bni Mansour"},{"Latitude":"35.6165667","Longitude":"-5.2860136","Name":"Avenue Bni Ouariaghel"},{"Latitude":"35.6173234","Longitude":"-5.2838704","Name":"Avenue Bni Rzin"},{"Latitude":"35.6155975","Longitude":"-5.2848965","Name":"Avenue Bni Said"},{"Latitude":"35.6151250","Longitude":"-5.2848012","Name":"Avenue Bni Ziat"},{"Latitude":"35.6155485","Longitude":"-5.2852022","Name":"Avenue Bni Zjel"},{"Latitude":"32.2861237","Longitude":"-9.2354091","Name":"Avenue Bordeaux"},{"Latitude":"34.0279177","Longitude":"-5.0083215","Name":"Avenue Bou Rkaiz"},{"Latitude":"34.0553656","Longitude":"-6.8012405","Name":"Avenue Bouabid شارع بوعبيد"},{"Latitude":"33.0082631","Longitude":"-7.6270357","Name":"Avenue Bouchaib Ben Labsir"},{"Latitude":"31.6117197","Longitude":"-7.9688430","Name":"Avenue Bouis"},{"Latitude":"30.4007565","Longitude":"-9.5547440","Name":"Avenue Boujdour"},{"Latitude":"34.0478076","Longitude":"-6.7842212","Name":"Avenue Boukraa شارع بوكراع"},{"Latitude":"34.6778611","Longitude":"-1.8963888","Name":"Avenue Bourchid Mbarek"},{"Latitude":"34.9373055","Longitude":"-3.5332390","Name":"Avenue Bouregrague"},{"Latitude":"33.9922450","Longitude":"-6.7336137","Name":"Avenue Bouregreg"},{"Latitude":"35.1663723","Longitude":"-2.9212663","Name":"Avenue Bouzahzah زنقة بوزهزاه"},{"Latitude":"32.3429605","Longitude":"-6.3475151","Name":"Avenue Bouzakri Ben Khalouk"},{"Latitude":"30.4428188","Longitude":"-9.5895611","Name":"Avenue Bouzerz"},{"Latitude":"34.6758342","Longitude":"-1.9275324","Name":"Avenue Brahim El Houssaini"},{"Latitude":"30.3307011","Longitude":"-9.4940655","Name":"Avenue Brahim Erroudani"},{"Latitude":"30.4738317","Longitude":"-8.8794586","Name":"Avenue Brahim Roudani"},{"Latitude":"34.0197595","Longitude":"-6.8524144","Name":"Avenue Brahim Roudani شارع إبراهيم روداني"},{"Latitude":"35.6237088","Longitude":"-5.2747706","Name":"Avenue Brusjour"},{"Latitude":"35.1035277","Longitude":"-3.8392655","Name":"Avenue Cadi Ayad"},{"Latitude":"30.4153456","Longitude":"-9.5707896","Name":"Avenue Cadi Ayyad"},{"Latitude":"33.5359810","Longitude":"-7.7730538","Name":"Avenue Cantara"},{"Latitude":"35.1812560","Longitude":"-2.9276119","Name":"Avenue Casablanca شارع الدار البيضاء"},{"Latitude":"35.1729878","Longitude":"-5.2737681","Name":"Avenue Cebta شارع سبتة"},{"Latitude":"33.2358451","Longitude":"-8.4989038","Name":"Avenue Chahid Errachidi"},{"Latitude":"33.9581124","Longitude":"-6.8818966","Name":"Avenue Chajarat Al Qods شارع شجرة القدس"},{"Latitude":"35.1694875","Longitude":"-5.2694641","Name":"Avenue Chakib Arsalan شارع شكيب ارسلان"},{"Latitude":"34.2566397","Longitude":"-6.5922173","Name":"Avenue Chakib Arsalane"},{"Latitude":"33.5841386","Longitude":"-7.5580426","Name":"Avenue Chaouki Jilali Meskini"},{"Latitude":"35.5763864","Longitude":"-5.3847706","Name":"Avenue Charid Karbalaa"},{"Latitude":"35.6843455","Longitude":"-5.3250119","Name":"Avenue Chefcaouen"},{"Latitude":"35.0098167","Longitude":"-3.0120503","Name":"Avenue Chefchaouen"},{"Latitude":"35.5885414","Longitude":"-5.3366481","Name":"Avenue Cheikh Mae El Ayenin"},{"Latitude":"35.5656634","Longitude":"-5.3698267","Name":"Avenue Cheikh Mohamed Al Mekki Nassiri"},{"Latitude":"34.0176525","Longitude":"-6.8282329","Name":"Avenue Chellah شارع شالة"},{"Latitude":"34.0053346","Longitude":"-4.9872961","Name":"Avenue Chenguit"},{"Latitude":"34.9238735","Longitude":"-2.3368099","Name":"Avenue Cherâa"},{"Latitude":"35.5739605","Longitude":"-5.3859977","Name":"Avenue Chifa"},{"Latitude":"35.5804876","Longitude":"-5.3555158","Name":"Avenue Chorafa"},{"Latitude":"35.7661521","Longitude":"-5.7919608","Name":"Avenue Chorfa"},{"Latitude":"35.7674916","Longitude":"-5.7910784","Name":"Avenue Chourafa"},{"Latitude":"34.0237100","Longitude":"-4.9932025","Name":"Avenue Chrstiani"},{"Latitude":"34.0218571","Longitude":"-4.9942432","Name":"Avenue Chrstiani Hay Bouramana"},{"Latitude":"30.3549243","Longitude":"-9.5339474","Name":"Avenue Chtouka"},{"Latitude":"33.5737050","Longitude":"-7.5637387","Name":"Avenue Collonel Allam"},{"Latitude":"33.9873099","Longitude":"-6.8375189","Name":"Avenue Commandant Al Harthi (Ex aérodrome)"},{"Latitude":"33.9878776","Longitude":"-6.8368966","Name":"Avenue Commandant Dirss El Harthi"},{"Latitude":"33.5356960","Longitude":"-7.7790966","Name":"Avenue Cordoba"},{"Latitude":"35.5704676","Longitude":"-5.3902423","Name":"Avenue Croissant Rouge"},{"Latitude":"33.5869327","Longitude":"-7.6679528","Name":"Avenue Côte d'Emeraude"},{"Latitude":"34.0703473","Longitude":"-6.7937859","Name":"Avenue D"},{"Latitude":"35.5797099","Longitude":"-5.3478192","Name":"Avenue Dacca"},{"Latitude":"35.5752389","Longitude":"-5.3845187","Name":"Avenue Dahira"},{"Latitude":"35.6842229","Longitude":"-5.3275336","Name":"Avenue Dakhla شارع الداخلة"},{"Latitude":"35.5834472","Longitude":"-5.3470098","Name":"Avenue Damas"},{"Latitude":"31.6559922","Longitude":"-8.0037049","Name":"Avenue Daoudiate"},{"Latitude":"35.5783181","Longitude":"-5.3447645","Name":"Avenue Daouha"},{"Latitude":"34.9371935","Longitude":"-3.5357811","Name":"Avenue Daraa"},{"Latitude":"35.5648921","Longitude":"-5.3585976","Name":"Avenue Dechira"},{"Latitude":"35.5798623","Longitude":"-5.3436276","Name":"Avenue Djibouti"},{"Latitude":"35.7751002","Longitude":"-5.8198689","Name":"Avenue Docteur Faraj"},{"Latitude":"33.5990610","Longitude":"-7.6488036","Name":"Avenue Docteur Mohamed Sijelmassi"},{"Latitude":"35.5958342","Longitude":"-5.3439783","Name":"Avenue Dubai"},{"Latitude":"31.6350124","Longitude":"-7.9887356","Name":"Avenue Dyour Saboun"},{"Latitude":"33.2017822","Longitude":"-8.5854728","Name":"Avenue E"},{"Latitude":"35.1629955","Longitude":"-2.9265247","Name":"Avenue Echabab"},{"Latitude":"33.2510539","Longitude":"-8.5144680","Name":"Avenue Echhouhada"},{"Latitude":"31.6268854","Longitude":"-8.0037598","Name":"Avenue Echouhada"},{"Latitude":"35.6133959","Longitude":"-5.2800087","Name":"Avenue Egipte"},{"Latitude":"33.8877491","Longitude":"-6.3187359","Name":"Avenue Egypt"},{"Latitude":"34.0452480","Longitude":"-5.0022424","Name":"Avenue Egypte"},{"Latitude":"35.1794701","Longitude":"-2.9236313","Name":"Avenue El Andalous"},{"Latitude":"31.5201135","Longitude":"-9.7556528","Name":"Avenue El Aqaba"},{"Latitude":"31.5079293","Longitude":"-9.7640979","Name":"Avenue El Aquasse"},{"Latitude":"32.3145065","Longitude":"-9.2327993","Name":"Avenue El Araar شارع العرعار"},{"Latitude":"34.9253294","Longitude":"-2.3327627","Name":"Avenue El Bakay Lhbil شارع البكاي لهبيل"},{"Latitude":"35.1667110","Longitude":"-2.9142657","Name":"Avenue El Fatouaki شارع الفطواكي"},{"Latitude":"34.0170106","Longitude":"-6.8561745","Name":"Avenue El Hachimi El Mestari زنقة الهاشمي المستاري"},{"Latitude":"33.8275215","Longitude":"-4.8274411","Name":"Avenue El Hassan Elyousi"},{"Latitude":"33.8240661","Longitude":"-6.0781378","Name":"Avenue El Hassan I"},{"Latitude":"33.8983937","Longitude":"-6.3188204","Name":"Avenue El Horia"},{"Latitude":"32.3211205","Longitude":"-9.2304131","Name":"Avenue El Houda شارع الهدى"},{"Latitude":"29.3829370","Longitude":"-10.1721986","Name":"Avenue El Houria"},{"Latitude":"34.0658564","Longitude":"-6.7902405","Name":"Avenue El Ibtihaj"},{"Latitude":"33.8226562","Longitude":"-4.8334964","Name":"Avenue El Idrissi"},{"Latitude":"35.1789308","Longitude":"-5.2797005","Name":"Avenue El Inbiat شارع الانبعاث"},{"Latitude":"30.4326264","Longitude":"-9.5619208","Name":"Avenue El Jadida"},{"Latitude":"33.8318134","Longitude":"-4.8246308","Name":"Avenue El Kabir"},{"Latitude":"34.6883995","Longitude":"-1.9157825","Name":"Avenue El Karaouine"},{"Latitude":"34.0132605","Longitude":"-6.8522474","Name":"Avenue El Kebibat شارع القبيبات"},{"Latitude":"35.5767184","Longitude":"-5.3531239","Name":"Avenue El Koufa"},{"Latitude":"31.5116712","Longitude":"-9.7576945","Name":"Avenue El Koutoubia"},{"Latitude":"33.9760396","Longitude":"-6.8815035","Name":"Avenue El Majd شارع المجد"},{"Latitude":"35.5760275","Longitude":"-5.3969163","Name":"Avenue El Mamoune"},{"Latitude":"33.9769973","Longitude":"-6.8865589","Name":"Avenue El Massira شارع المسيرة"},{"Latitude":"33.8347131","Longitude":"-4.8363742","Name":"Avenue El Morabitine"},{"Latitude":"35.1683982","Longitude":"-5.2695466","Name":"Avenue El Moukaouama شارع المقاومة"},{"Latitude":"33.8978664","Longitude":"-6.3205482","Name":"Avenue El Orouba"},{"Latitude":"31.5894987","Longitude":"-8.0514856","Name":"Avenue El Ouaha شارع الواحة"},{"Latitude":"29.6900164","Longitude":"-9.7283630","Name":"Avenue El Ouahda"},{"Latitude":"33.5361454","Longitude":"-7.7779891","Name":"Avenue El Paraiso"},{"Latitude":"31.6206711","Longitude":"-8.0083117","Name":"Avenue El Qadissia"},{"Latitude":"33.8981363","Longitude":"-6.3175984","Name":"Avenue El Wahda"},{"Latitude":"35.1702981","Longitude":"-2.9316545","Name":"Avenue El Woroude"},{"Latitude":"33.8972605","Longitude":"-6.3401681","Name":"Avenue Elarz"},{"Latitude":"30.4394264","Longitude":"-9.5818149","Name":"Avenue Elfid"},{"Latitude":"35.1670481","Longitude":"-5.2712603","Name":"Avenue Elkhaouarezmi شارع الخوارزمي"},{"Latitude":"35.6119326","Longitude":"-5.2833525","Name":"Avenue Emirat Arabie"},{"Latitude":"35.7486221","Longitude":"-5.8048268","Name":"Avenue Emirate Arabes"},{"Latitude":"32.3178633","Longitude":"-9.2290964","Name":"Avenue Ennasr شارع النصر"},{"Latitude":"32.3139940","Longitude":"-9.2315350","Name":"Avenue Ennour شارع النور"},{"Latitude":"34.2534487","Longitude":"-6.5726137","Name":"Avenue Er Riyad"},{"Latitude":"35.5640750","Longitude":"-5.3614032","Name":"Avenue Errachidia"},{"Latitude":"30.9261105","Longitude":"-6.9083127","Name":"Avenue Erraha"},{"Latitude":"34.0170262","Longitude":"-4.9723807","Name":"Avenue Errahma شارع الرحمة"},{"Latitude":"30.4402009","Longitude":"-9.5595217","Name":"Avenue Errazhidia"},{"Latitude":"31.6633573","Longitude":"-8.0061056","Name":"Avenue Errazi"},{"Latitude":"34.0218070","Longitude":"-6.7646805","Name":"Avenue Erryad"},{"Latitude":"34.9340921","Longitude":"-3.5214160","Name":"Avenue Espagne"},{"Latitude":"32.3129364","Longitude":"-9.2319113","Name":"Avenue Essalama شارع اسلمة"},{"Latitude":"35.2444404","Longitude":"-3.9309360","Name":"Avenue Essallam"},{"Latitude":"31.6268708","Longitude":"-8.0325615","Name":"Avenue Essaouira طريق الصويرة"},{"Latitude":"30.3325120","Longitude":"-9.5069395","Name":"Avenue Essmara"},{"Latitude":"35.6811696","Longitude":"-5.3216951","Name":"Avenue Es–Semara"},{"Latitude":"34.0244209","Longitude":"-5.0076975","Name":"Avenue Ettabari"},{"Latitude":"34.0138897","Longitude":"-4.9774164","Name":"Avenue Ettadhia"},{"Latitude":"33.9454549","Longitude":"-6.8635033","Name":"Avenue Eucalyptus"},{"Latitude":"35.7835377","Longitude":"-5.8294031","Name":"Avenue Ezz Ben Abdesselam"},{"Latitude":"34.0625880","Longitude":"-6.7850038","Name":"Avenue Ezzouhour"},{"Latitude":"33.2091563","Longitude":"-8.5820899","Name":"Avenue F"},{"Latitude":"34.0104991","Longitude":"-6.8218245","Name":"Avenue F. Roosevelt شارع روسفيلت"},{"Latitude":"33.8157895","Longitude":"-4.8348678","Name":"Avenue F.A.R."},{"Latitude":"34.0260682","Longitude":"-5.0197357","Name":"Avenue Fakih Mohamed El Azzouzi"},{"Latitude":"34.0046436","Longitude":"-6.8522716","Name":"Avenue Fal Ould Oumeir شارع فال ولد عمير"},{"Latitude":"30.3506227","Longitude":"-9.4965287","Name":"Avenue Far"},{"Latitude":"35.1755672","Longitude":"-5.2761988","Name":"Avenue Far شارع الجيش الملكي"},{"Latitude":"30.3863399","Longitude":"-9.5187655","Name":"Avenue Farhat Hachad"},{"Latitude":"31.6299346","Longitude":"-7.9949489","Name":"Avenue Fatima Zohra"},{"Latitude":"33.9960876","Longitude":"-6.8164566","Name":"Avenue Fatouaka"},{"Latitude":"30.3664366","Longitude":"-9.5454582","Name":"Avenue Fayçal Ibn Abdelaziz"},{"Latitude":"35.6864436","Longitude":"-5.3268792","Name":"Avenue Fes شارع فاس"},{"Latitude":"30.4332009","Longitude":"-9.5631225","Name":"Avenue Fkihben Salah"},{"Latitude":"35.6147034","Longitude":"-5.2837084","Name":"Avenue Fnidak"},{"Latitude":"35.6843348","Longitude":"-5.3270852","Name":"Avenue Fnideq"},{"Latitude":"35.7613857","Longitude":"-5.8392736","Name":"Avenue Foret Maamoura"},{"Latitude":"33.2575416","Longitude":"-8.5106063","Name":"Avenue Fquih Mohamed Errafi شارع الفقيه محمد الريفي"},{"Latitude":"33.5640770","Longitude":"-7.5895677","Name":"Avenue G"},{"Latitude":"35.1781735","Longitude":"-2.9264031","Name":"Avenue General Ameziane زنقة الجنرال أمزيان"},{"Latitude":"35.7690881","Longitude":"-5.7540793","Name":"Avenue Ghazala"},{"Latitude":"35.1697966","Longitude":"-5.2679698","Name":"Avenue Ghazouat Badr شارع غزوة بدر"},{"Latitude":"33.8896851","Longitude":"-6.3294822","Name":"Avenue Ghazza"},{"Latitude":"35.6144550","Longitude":"-5.2835634","Name":"Avenue Ghmara"},{"Latitude":"33.5352197","Longitude":"-7.7725978","Name":"Avenue Giralda"},{"Latitude":"33.5371184","Longitude":"-7.7729378","Name":"Avenue Granada"},{"Latitude":"31.5978928","Longitude":"-8.0511131","Name":"Avenue Guelmim شارع كلميم"},{"Latitude":"35.1779783","Longitude":"-5.2814814","Name":"Avenue Guelmime شارع كلميم"},{"Latitude":"31.5791319","Longitude":"-8.0582828","Name":"Avenue Guemassa"},{"Latitude":"35.5627898","Longitude":"-5.3605174","Name":"Avenue Guersive"},{"Latitude":"33.8918269","Longitude":"-6.3188687","Name":"Avenue Guinee"},{"Latitude":"33.9883047","Longitude":"-6.7365745","Name":"Avenue H'ssaine"},{"Latitude":"35.7796999","Longitude":"-5.8248031","Name":"Avenue Habib Bourguiba"},{"Latitude":"33.9994649","Longitude":"-6.8575542","Name":"Avenue Hadj Ahmed Cherkaoui شارع الحاج أحمد الشرقاوي"},{"Latitude":"35.7911220","Longitude":"-5.8269905","Name":"Avenue Hadj Mohamed Tazi"},{"Latitude":"35.7849319","Longitude":"-5.8311050","Name":"Avenue Hafid Ibn Hajar"},{"Latitude":"35.5873556","Longitude":"-5.3573154","Name":"Avenue Hafsa Oum El Mouminine"},{"Latitude":"33.9988639","Longitude":"-6.8189639","Name":"Avenue Haha شارع حاحا"},{"Latitude":"34.6616891","Longitude":"-1.9004323","Name":"Avenue Haifa"},{"Latitude":"30.4123431","Longitude":"-9.5869607","Name":"Avenue Haj Ahmed Akhouche"},{"Latitude":"30.3771718","Longitude":"-9.5393092","Name":"Avenue Haj Lahbib Talti"},{"Latitude":"35.5924955","Longitude":"-5.3517406","Name":"Avenue Haj Mohamed Bennouna"},{"Latitude":"33.5821287","Longitude":"-7.6061059","Name":"Avenue Haj Omar Rifi"},{"Latitude":"33.9036924","Longitude":"-6.9277486","Name":"Avenue Hamza Bnou Abdelmottaleb"},{"Latitude":"35.5725877","Longitude":"-5.3916068","Name":"Avenue Haroun Al Rachid"},{"Latitude":"35.7708235","Longitude":"-5.8217414","Name":"Avenue Haroun Errachid"},{"Latitude":"33.8329672","Longitude":"-4.8369519","Name":"Avenue Hassan 1er"},{"Latitude":"33.4403431","Longitude":"-5.2250719","Name":"Avenue Hassan 2 شارع الحسن الثاني"},{"Latitude":"35.5653132","Longitude":"-5.3926942","Name":"Avenue Hassan Ben Al Mehdi"},{"Latitude":"35.5933483","Longitude":"-5.3519994","Name":"Avenue Hassan Chaqor"},{"Latitude":"35.5697495","Longitude":"-5.3630713","Name":"Avenue Hassan I"},{"Latitude":"33.9149699","Longitude":"-6.9274003","Name":"Avenue Hassan I شارع الحسن الأول"},{"Latitude":"33.9258498","Longitude":"-6.9171698","Name":"Avenue Hassan II شارع الحسن الثاني"},{"Latitude":"28.9934277","Longitude":"-10.0692690","Name":"Avenue Hassan IIAvenue Hassan II شارع الحسن الثاني"},{"Latitude":"35.5759450","Longitude":"-5.3864810","Name":"Avenue Hassan Ibn Ali"},{"Latitude":"33.5910635","Longitude":"-7.6310794","Name":"Avenue Hassan Souktani شارع حسن السكتاني"},{"Latitude":"34.0378113","Longitude":"-4.9979670","Name":"Avenue Hassan Wazani"},{"Latitude":"35.5846229","Longitude":"-5.3573442","Name":"Avenue Hateine"},{"Latitude":"33.8896014","Longitude":"-6.3284987","Name":"Avenue Hayfa"},{"Latitude":"35.5806462","Longitude":"-5.3497089","Name":"Avenue Hews"},{"Latitude":"34.9364795","Longitude":"-3.5248352","Name":"Avenue Holland شارع هولندا"},{"Latitude":"35.5787555","Longitude":"-5.3632271","Name":"Avenue Homane Al Fatouaki"},{"Latitude":"34.0683640","Longitude":"-6.7965612","Name":"Avenue Hommad El Fatouki"},{"Latitude":"30.3645368","Longitude":"-9.5315772","Name":"Avenue Homman El Fetouaki"},{"Latitude":"35.5755732","Longitude":"-5.3435464","Name":"Avenue Houlouan"},{"Latitude":"31.6225199","Longitude":"-7.9898170","Name":"Avenue Houman El Fetouaki"},{"Latitude":"33.2443826","Longitude":"-8.5054171","Name":"Avenue Houmane Al Fetouaki"},{"Latitude":"34.0146173","Longitude":"-6.7692558","Name":"Avenue Houmane El Fatouaki"},{"Latitude":"32.4400386","Longitude":"-6.2068583","Name":"Avenue Houmane El Fettouaki"},{"Latitude":"34.0396262","Longitude":"-4.9953816","Name":"Avenue Hoummane Al Fetwaki"},{"Latitude":"34.0464939","Longitude":"-6.7905343","Name":"Avenue Houriya"},{"Latitude":"35.5713840","Longitude":"-5.3869231","Name":"Avenue Huelva"},{"Latitude":"35.7869347","Longitude":"-5.8150371","Name":"Avenue Ibn Al Abbar"},{"Latitude":"34.0206432","Longitude":"-5.0047915","Name":"Avenue Ibn Al Atir شارع ابن الأثير"},{"Latitude":"30.3966079","Longitude":"-9.5233676","Name":"Avenue Ibn Al Haytam"},{"Latitude":"34.0639511","Longitude":"-6.7694382","Name":"Avenue Ibn Al Haytem"},{"Latitude":"35.7620506","Longitude":"-5.8206658","Name":"Avenue Ibn Al Kattane"},{"Latitude":"34.0589785","Longitude":"-6.7886284","Name":"Avenue Ibn Al Khatib"},{"Latitude":"34.0078431","Longitude":"-6.8517918","Name":"Avenue Ibn Al Ouazzani شارع بن الوزاني"},{"Latitude":"34.0516437","Longitude":"-6.7749270","Name":"Avenue Ibn Ammar"},{"Latitude":"35.7611539","Longitude":"-5.8280781","Name":"Avenue Ibn Assakir"},{"Latitude":"35.4634335","Longitude":"-6.0402690","Name":"Avenue Ibn Batouta شارع ابن بطوطة"},{"Latitude":"35.7616392","Longitude":"-5.8279896","Name":"Avenue Ibn Baydar"},{"Latitude":"30.3647280","Longitude":"-9.5235008","Name":"Avenue Ibn Hazem"},{"Latitude":"35.5762146","Longitude":"-5.3632379","Name":"Avenue Ibn Hazen"},{"Latitude":"35.7863157","Longitude":"-5.8235353","Name":"Avenue Ibn Hazm"},{"Latitude":"34.0071062","Longitude":"-6.8418351","Name":"Avenue Ibn Hazm شارع ابن حزم"},{"Latitude":"35.6200796","Longitude":"-5.2799258","Name":"Avenue Ibn Hazme"},{"Latitude":"35.7618841","Longitude":"-5.8300683","Name":"Avenue Ibn Hicham"},{"Latitude":"31.6555663","Longitude":"-7.9965498","Name":"Avenue Ibn Jabran"},{"Latitude":"34.0075281","Longitude":"-6.8438977","Name":"Avenue Ibn Khaldoun شارع ابن خلدون"},{"Latitude":"34.0327533","Longitude":"-4.9870661","Name":"Avenue Ibn Khatib زنقة شفشاون"},{"Latitude":"35.5744955","Longitude":"-5.3539474","Name":"Avenue Ibn Kofail"},{"Latitude":"34.0365491","Longitude":"-5.0225223","Name":"Avenue Ibn Mandour"},{"Latitude":"30.4331697","Longitude":"-9.5921585","Name":"Avenue Ibn Nafis"},{"Latitude":"33.9888513","Longitude":"-6.8549485","Name":"Avenue Ibn Rochd شارع ابن رشد"},{"Latitude":"35.5724622","Longitude":"-5.3918778","Name":"Avenue Ibn Roumi"},{"Latitude":"33.9899804","Longitude":"-6.8514132","Name":"Avenue Ibn Sina شارع ابن سينا"},{"Latitude":"35.7615519","Longitude":"-5.8214757","Name":"Avenue Ibn Taib Al Alami"},{"Latitude":"35.7732966","Longitude":"-5.8055642","Name":"Avenue Ibn Taymya"},{"Latitude":"34.0141976","Longitude":"-6.8384340","Name":"Avenue Ibn Toumert شارع ابن تومرت"},{"Latitude":"35.7618286","Longitude":"-5.8290625","Name":"Avenue Ibn Zagour"},{"Latitude":"34.0270784","Longitude":"-5.0013354","Name":"Avenue Ibn Zaidoun"},{"Latitude":"35.7627199","Longitude":"-5.8253208","Name":"Avenue Ibn Zakour"},{"Latitude":"35.5767202","Longitude":"-5.3612597","Name":"Avenue Ibn Zaydoun"},{"Latitude":"35.1681162","Longitude":"-5.2701623","Name":"Avenue Ibn Zouhr شارع ابن زهر"},{"Latitude":"33.5991898","Longitude":"-7.5507295","Name":"Avenue Ibnou Laknana"},{"Latitude":"30.3667520","Longitude":"-9.5272560","Name":"Avenue Ibnou Tofail"},{"Latitude":"35.6177310","Longitude":"-5.2725314","Name":"Avenue Ibrahim Roudani"},{"Latitude":"30.4434524","Longitude":"-9.5908713","Name":"Avenue Id Aissa"},{"Latitude":"30.4412984","Longitude":"-9.5943435","Name":"Avenue Id Aoudout"},{"Latitude":"35.1828449","Longitude":"-2.9259279","Name":"Avenue Idris Premier شارع إدريس الأول"},{"Latitude":"33.5721701","Longitude":"-7.6245586","Name":"Avenue Idriss 1"},{"Latitude":"33.8980564","Longitude":"-5.5525468","Name":"Avenue Idriss 2"},{"Latitude":"33.8963007","Longitude":"-5.5452860","Name":"Avenue Idriss II شارع إدريس الثاني"},{"Latitude":"35.7701440","Longitude":"-5.8027815","Name":"Avenue Idriss Premier"},{"Latitude":"35.6244610","Longitude":"-5.2740201","Name":"Avenue Ifran"},{"Latitude":"30.3909014","Longitude":"-9.5389954","Name":"Avenue Ifrane"},{"Latitude":"30.3357242","Longitude":"-9.5019229","Name":"Avenue Iligh"},{"Latitude":"30.4251787","Longitude":"-9.5662801","Name":"Avenue Imam Al Boukhari"},{"Latitude":"34.0398167","Longitude":"-5.0046765","Name":"Avenue Imam Ali"},{"Latitude":"30.4209824","Longitude":"-9.5582027","Name":"Avenue Imam Boukhari"},{"Latitude":"35.7765174","Longitude":"-5.8057916","Name":"Avenue Imam Ghazali شارع الامام الغزالي"},{"Latitude":"33.9868213","Longitude":"-6.8454386","Name":"Avenue Imam Malik شارع الإمام مالك"},{"Latitude":"31.5882772","Longitude":"-8.0450191","Name":"Avenue Imam Mouslim"},{"Latitude":"30.3733485","Longitude":"-9.5417798","Name":"Avenue Imame Boukhari"},{"Latitude":"35.4665445","Longitude":"-6.0359457","Name":"Avenue Iman Al-Assili"},{"Latitude":"30.3751469","Longitude":"-9.5383451","Name":"Avenue Imouzzar"},{"Latitude":"35.6868503","Longitude":"-5.3289954","Name":"Avenue Imouzzed"},{"Latitude":"30.4328806","Longitude":"-9.5539219","Name":"Avenue Inezgane"},{"Latitude":"35.6131781","Longitude":"-5.2823451","Name":"Avenue Irak"},{"Latitude":"35.5994298","Longitude":"-5.3218739","Name":"Avenue Iraq"},{"Latitude":"34.9370383","Longitude":"-3.5358275","Name":"Avenue Isly"},{"Latitude":"34.0106212","Longitude":"-4.9830288","Name":"Avenue Ismailia"},{"Latitude":"30.3395711","Longitude":"-9.4901822","Name":"Avenue Issafine"},{"Latitude":"35.5751538","Longitude":"-5.3480230","Name":"Avenue Istanbul"},{"Latitude":"35.6260082","Longitude":"-5.2866229","Name":"Avenue Istiklal"},{"Latitude":"35.6834953","Longitude":"-5.3269221","Name":"Avenue Jabha"},{"Latitude":"33.9615251","Longitude":"-6.8584862","Name":"Avenue Jacaranda شارع الجكرندا"},{"Latitude":"35.5936973","Longitude":"-5.3452805","Name":"Avenue Jadda"},{"Latitude":"35.1707531","Longitude":"-2.9318583","Name":"Avenue Jakarta"},{"Latitude":"30.4129122","Longitude":"-9.5685594","Name":"Avenue Jamal Abdennacer"},{"Latitude":"33.2427261","Longitude":"-8.5267971","Name":"Avenue Jamal Eddine El Afg."},{"Latitude":"35.1696350","Longitude":"-5.2705483","Name":"Avenue Jamal Edin Elaafghani شارع جمال الدين الافغاني"},{"Latitude":"35.1673041","Longitude":"-5.2615111","Name":"Avenue Janah El Akhdar شارع الجناح الاخضر"},{"Latitude":"35.7680619","Longitude":"-5.7506243","Name":"Avenue Jandouba"},{"Latitude":"34.0226623","Longitude":"-6.8424667","Name":"Avenue Jazirat Al Arab شارع جزيرة العرب"},{"Latitude":"35.5930975","Longitude":"-5.3464848","Name":"Avenue Jbel Al Hakare"},{"Latitude":"35.6147311","Longitude":"-5.2817993","Name":"Avenue Jbel Allam"},{"Latitude":"35.5874893","Longitude":"-5.3507157","Name":"Avenue Jbel Atlas"},{"Latitude":"35.5890995","Longitude":"-5.3529891","Name":"Avenue Jbel Boughafer"},{"Latitude":"35.6151104","Longitude":"-5.2813786","Name":"Avenue Jbel Dersa"},{"Latitude":"35.5863609","Longitude":"-5.3529549","Name":"Avenue Jbel Ghorghiz"},{"Latitude":"35.5911754","Longitude":"-5.3522307","Name":"Avenue Jbel Hayane"},{"Latitude":"35.5890111","Longitude":"-5.3514589","Name":"Avenue Jbel Kelti"},{"Latitude":"35.6147896","Longitude":"-5.2825200","Name":"Avenue Jbel Moussa"},{"Latitude":"35.5895902","Longitude":"-5.3490476","Name":"Avenue Jbel Oukaimden"},{"Latitude":"35.5870976","Longitude":"-5.3524601","Name":"Avenue Jbel Saghrou"},{"Latitude":"35.5876551","Longitude":"-5.3483997","Name":"Avenue Jbel Tidghine"},{"Latitude":"35.5865011","Longitude":"-5.3524809","Name":"Avenue Jbel Toubkal"},{"Latitude":"35.5916936","Longitude":"-5.3499464","Name":"Avenue Jbel Zarhoune"},{"Latitude":"34.0182539","Longitude":"-6.8417707","Name":"Avenue Jean Jaurès شارع جان جوريس"},{"Latitude":"35.6155542","Longitude":"-5.2821802","Name":"Avenue Jibal Al Atlas"},{"Latitude":"35.6154546","Longitude":"-5.2821378","Name":"Avenue Jibal Rif"},{"Latitude":"35.6150274","Longitude":"-5.2816286","Name":"Avenue Jibel Ghorghiz"},{"Latitude":"32.2904197","Longitude":"-9.2405932","Name":"Avenue John Kennedy"},{"Latitude":"35.7858262","Longitude":"-5.8144122","Name":"Avenue Josafat"},{"Latitude":"35.5837106","Longitude":"-5.3425594","Name":"Avenue Joulan"},{"Latitude":"34.6851386","Longitude":"-1.9380811","Name":"Avenue K"},{"Latitude":"35.6218076","Longitude":"-5.2768654","Name":"Avenue Kadi Ayad"},{"Latitude":"34.0676296","Longitude":"-6.7982674","Name":"Avenue Kadour El Quoartassi"},{"Latitude":"34.0198027","Longitude":"-4.9716231","Name":"Avenue Kairaouan Al Qods"},{"Latitude":"34.0202985","Longitude":"-4.9779011","Name":"Avenue Kairriou"},{"Latitude":"33.9553753","Longitude":"-6.8846289","Name":"Avenue Kamal Zebdi شارع كمال الزبدي"},{"Latitude":"35.6166871","Longitude":"-5.2803714","Name":"Avenue Kanat Suis"},{"Latitude":"34.0145769","Longitude":"-4.9726246","Name":"Avenue Karouyine شارع القرويين"},{"Latitude":"34.2191901","Longitude":"-4.0077172","Name":"Avenue Kassou Maddah"},{"Latitude":"35.6131066","Longitude":"-5.2805232","Name":"Avenue Katar"},{"Latitude":"30.4274810","Longitude":"-9.5542250","Name":"Avenue Kenitra"},{"Latitude":"35.6814980","Longitude":"-5.3202993","Name":"Avenue Khalid Ibn Al Oualid"},{"Latitude":"35.4512140","Longitude":"-6.0344580","Name":"Avenue Khalid Ibn Al Walid شارع خالد بن الوليد"},{"Latitude":"33.9055838","Longitude":"-5.5483297","Name":"Avenue Khalid Ibn Oualid"},{"Latitude":"33.5873450","Longitude":"-7.6604573","Name":"Avenue Khalid Ibnou Al Oualid"},{"Latitude":"33.2305908","Longitude":"-8.5273540","Name":"Avenue Khalil Jabrane"},{"Latitude":"35.5772383","Longitude":"-5.3434787","Name":"Avenue Khartoum"},{"Latitude":"30.4323522","Longitude":"-9.5484522","Name":"Avenue Khemsset"},{"Latitude":"30.4317182","Longitude":"-9.5517859","Name":"Avenue Khouribga"},{"Latitude":"34.0039366","Longitude":"-4.9783798","Name":"Avenue Koufa"},{"Latitude":"35.1745302","Longitude":"-5.2740242","Name":"Avenue Kounming شارع كونمينغ"},{"Latitude":"35.5815571","Longitude":"-5.3443571","Name":"Avenue Kouwait"},{"Latitude":"35.5663985","Longitude":"-5.3604448","Name":"Avenue Ksar El Kabir"},{"Latitude":"34.0269070","Longitude":"-6.8420134","Name":"Avenue Laalou شارع لعلو"},{"Latitude":"35.6227003","Longitude":"-5.2739978","Name":"Avenue Laayoun"},{"Latitude":"31.5984512","Longitude":"-8.0493008","Name":"Avenue Laayoune شارع العيون"},{"Latitude":"32.3196491","Longitude":"-9.2265019","Name":"Avenue Lafkih El Haskouri"},{"Latitude":"35.1773786","Longitude":"-5.2811867","Name":"Avenue Lagouera شارع لكويرة"},{"Latitude":"35.5640663","Longitude":"-5.3580920","Name":"Avenue Lagouira"},{"Latitude":"30.3943753","Longitude":"-9.5952353","Name":"Avenue Lahoucine Achengli"},{"Latitude":"33.5512066","Longitude":"-7.5743916","Name":"Avenue Lahraouine شارع الهراويين"},{"Latitude":"31.5132834","Longitude":"-9.7627021","Name":"Avenue Laila Aicha"},{"Latitude":"35.7695874","Longitude":"-5.8277140","Name":"Avenue Lait Ben Saad"},{"Latitude":"32.9917249","Longitude":"-7.6159769","Name":"Avenue Lalla Aicha"},{"Latitude":"34.0413523","Longitude":"-6.8106651","Name":"Avenue Lalla Amina شارع لالة أمينة"},{"Latitude":"35.6254043","Longitude":"-5.2753695","Name":"Avenue Lalla Asma"},{"Latitude":"34.0408494","Longitude":"-6.8064749","Name":"Avenue Lalla Asmaa"},{"Latitude":"34.0454230","Longitude":"-5.0025143","Name":"Avenue Lalla Hasnae"},{"Latitude":"35.6218615","Longitude":"-5.2721608","Name":"Avenue Lalla Hassna"},{"Latitude":"33.9696736","Longitude":"-6.8584292","Name":"Avenue Lalla Meriem شارع للا مريم"},{"Latitude":"34.0422045","Longitude":"-5.0012222","Name":"Avenue Lalla Meryem شارع للا مريم"},{"Latitude":"33.5907520","Longitude":"-7.6130199","Name":"Avenue Lalla Yacout"},{"Latitude":"35.5691259","Longitude":"-5.3574939","Name":"Avenue Larach"},{"Latitude":"30.4372572","Longitude":"-9.5643025","Name":"Avenue Larache"},{"Latitude":"35.7694111","Longitude":"-5.8297518","Name":"Avenue Lay'th Bnou Saad"},{"Latitude":"33.8975945","Longitude":"-6.3401902","Name":"Avenue Laymoune"},{"Latitude":"35.1761783","Longitude":"-5.2813547","Name":"Avenue Layoune شارع العيون"},{"Latitude":"35.0139981","Longitude":"-3.0071426","Name":"Avenue Liban"},{"Latitude":"35.6131034","Longitude":"-5.2826353","Name":"Avenue Libie"},{"Latitude":"35.6128540","Longitude":"-5.2811797","Name":"Avenue Ligue Arabe"},{"Latitude":"34.0198323","Longitude":"-5.0031218","Name":"Avenue Lissan-Edine Ibn Al-Khatib شارع لسان الدين ابن الخطيب"},{"Latitude":"35.5714614","Longitude":"-5.3598274","Name":"Avenue Lmfadel Filali"},{"Latitude":"35.7741673","Longitude":"-5.8010857","Name":"Avenue Ludwig Van Beethoven"},{"Latitude":"35.5637815","Longitude":"-5.3673162","Name":"Avenue M'Diq"},{"Latitude":"31.5968504","Longitude":"-8.0447864","Name":"Avenue M'Hamid"},{"Latitude":"33.6023966","Longitude":"-7.6549688","Name":"Avenue MRue ben Guerir"},{"Latitude":"33.9963980","Longitude":"-6.8514373","Name":"Avenue Maa Al Aynayne شارع ماء العينين"},{"Latitude":"34.0042116","Longitude":"-6.7237064","Name":"Avenue Maamoura"},{"Latitude":"35.6834818","Longitude":"-5.3294227","Name":"Avenue Maarakat Anoual"},{"Latitude":"35.1667372","Longitude":"-5.2675040","Name":"Avenue Maarakat El Hamra شارع معركة الحمراء"},{"Latitude":"35.1608038","Longitude":"-5.2602947","Name":"Avenue Maarakat Loubar شارع معركة لوبار"},{"Latitude":"35.1723372","Longitude":"-5.2700914","Name":"Avenue Machichi شارع المشيشي"},{"Latitude":"34.0187799","Longitude":"-6.8495767","Name":"Avenue Madagascar شارع مدغشقر"},{"Latitude":"34.0331287","Longitude":"-6.8049366","Name":"Avenue Madyouna"},{"Latitude":"33.1907950","Longitude":"-8.5844649","Name":"Avenue Maghreb Arabe شارع المغرب العربي"},{"Latitude":"35.1646451","Longitude":"-5.2676967","Name":"Avenue Maghreb Arabi شارع المغرب العربي"},{"Latitude":"31.6549362","Longitude":"-8.0160043","Name":"Avenue Magra"},{"Latitude":"34.0284065","Longitude":"-5.0107976","Name":"Avenue Mahmoud Al Aqqad"},{"Latitude":"35.1946730","Longitude":"-6.1517871","Name":"Avenue Malek Ben Marhal"},{"Latitude":"33.5339632","Longitude":"-7.5979377","Name":"Avenue Mamar Tichka"},{"Latitude":"30.4659571","Longitude":"-8.8756576","Name":"Avenue Mansour Eddahabi"},{"Latitude":"35.2572282","Longitude":"-2.9302826","Name":"Avenue Marche Verte"},{"Latitude":"34.0536561","Longitude":"-6.8215546","Name":"Avenue Marmoucha"},{"Latitude":"35.6236580","Longitude":"-5.2737930","Name":"Avenue Marrakech"},{"Latitude":"35.6863852","Longitude":"-5.3277335","Name":"Avenue Martil"},{"Latitude":"34.2630428","Longitude":"-6.5992873","Name":"Avenue Martyr Mohamed Ben Luadoudi"},{"Latitude":"35.7569165","Longitude":"-5.8230249","Name":"Avenue Martyre Driss Ben Ali"},{"Latitude":"35.7573558","Longitude":"-5.8224414","Name":"Avenue Martyre El Khiriden Moussa"},{"Latitude":"35.5776385","Longitude":"-5.3451846","Name":"Avenue Masket"},{"Latitude":"30.3729828","Longitude":"-9.5439126","Name":"Avenue Massa"},{"Latitude":"33.2407572","Longitude":"-8.4941539","Name":"Avenue Massira Al Khadra"},{"Latitude":"35.1067220","Longitude":"-3.8403124","Name":"Avenue Massira El Khadra"},{"Latitude":"35.1729245","Longitude":"-5.2730858","Name":"Avenue Massira Khadra شارع المسيرة الخضراء"},{"Latitude":"30.4029571","Longitude":"-9.5501420","Name":"Avenue Massoude Al Wafqaoui"},{"Latitude":"35.0154547","Longitude":"-3.0113117","Name":"Avenue Mauritanie"},{"Latitude":"33.5771153","Longitude":"-7.5233361","Name":"Avenue Mbarek El-Gharass"},{"Latitude":"35.1818019","Longitude":"-6.1584157","Name":"Avenue Medhi Ibn Taomart"},{"Latitude":"34.0345360","Longitude":"-6.8057610","Name":"Avenue Mediouna"},{"Latitude":"33.9490650","Longitude":"-6.8691185","Name":"Avenue Mehdi Ben Barka شارع المهدي بن بركة"},{"Latitude":"30.3673604","Longitude":"-9.5231561","Name":"Avenue Mehdi Ben Toumart"},{"Latitude":"33.5402158","Longitude":"-7.5679844","Name":"Avenue Mekdad Lahrizi"},{"Latitude":"33.8880430","Longitude":"-5.5679731","Name":"Avenue Meknès شارع مكناس"},{"Latitude":"35.1567338","Longitude":"-5.2629595","Name":"Avenue Melilia شارع ملياية"},{"Latitude":"34.2240975","Longitude":"-3.3415170","Name":"Avenue Melouya"},{"Latitude":"30.4400496","Longitude":"-9.5858422","Name":"Avenue Mentaga"},{"Latitude":"33.5896129","Longitude":"-7.6780191","Name":"Avenue Mer Baltique"},{"Latitude":"35.5640990","Longitude":"-5.3576253","Name":"Avenue Mernissa"},{"Latitude":"33.5856749","Longitude":"-7.6164367","Name":"Avenue Mers Sultan"},{"Latitude":"30.3571553","Longitude":"-9.5329433","Name":"Avenue Mesquina"},{"Latitude":"33.9643348","Longitude":"-6.8761244","Name":"Avenue Mimosa شارع الميموزا"},{"Latitude":"35.6313720","Longitude":"-5.2848415","Name":"Avenue Miramar"},{"Latitude":"30.4408544","Longitude":"-9.5891574","Name":"Avenue Mirleft"},{"Latitude":"32.9971190","Longitude":"-7.6075358","Name":"Avenue Missour"},{"Latitude":"35.5773316","Longitude":"-5.3589966","Name":"Avenue Moatamid Ben Abbad"},{"Latitude":"35.5750960","Longitude":"-5.3818804","Name":"Avenue Moawia Ibn Abi Soufiane"},{"Latitude":"33.8293011","Longitude":"-4.8399537","Name":"Avenue Mohamed 5"},{"Latitude":"34.0347597","Longitude":"-5.0062727","Name":"Avenue Mohamed Abdou شارع محمد عبده"},{"Latitude":"34.0447305","Longitude":"-6.7846926","Name":"Avenue Mohamed Addou"},{"Latitude":"30.3973609","Longitude":"-9.5487607","Name":"Avenue Mohamed Al Fassi"},{"Latitude":"30.4209998","Longitude":"-9.5677467","Name":"Avenue Mohamed Al Hansali"},{"Latitude":"33.9537184","Longitude":"-6.8688449","Name":"Avenue Mohamed Al Yazidi شارع محمد اليزيدي"},{"Latitude":"33.5773966","Longitude":"-7.5330695","Name":"Avenue Mohamed Al-Ghazi"},{"Latitude":"33.5758393","Longitude":"-7.5301154","Name":"Avenue Mohamed Al-Jazouli"},{"Latitude":"35.1020405","Longitude":"-3.8391423","Name":"Avenue Mohamed Amezian"},{"Latitude":"35.5783535","Longitude":"-5.3622455","Name":"Avenue Mohamed Ameziane"},{"Latitude":"33.5839827","Longitude":"-7.5249776","Name":"Avenue Mohamed Balafrej"},{"Latitude":"33.9699973","Longitude":"-6.8657497","Name":"Avenue Mohamed Belarbi Alaoui شارع محمد بلعربي العلوي"},{"Latitude":"33.9820118","Longitude":"-6.8706521","Name":"Avenue Mohamed Ben Abdellah Regragui شارع محمد بن عبد الله الركراكي"},{"Latitude":"34.0425053","Longitude":"-4.9829476","Name":"Avenue Mohamed Ben Arbi Alaoui شارع محمد السلاوي"},{"Latitude":"35.5696045","Longitude":"-5.3697292","Name":"Avenue Mohamed Ben Larbi Torres"},{"Latitude":"34.0417813","Longitude":"-6.7917475","Name":"Avenue Mohamed Ben Lhassan Louazzani"},{"Latitude":"35.5786759","Longitude":"-5.3443792","Name":"Avenue Mohamed Daoud"},{"Latitude":"34.0136569","Longitude":"-6.8216598","Name":"Avenue Mohamed El Fassi شارع محمد الفاسي"},{"Latitude":"34.0425842","Longitude":"-6.7958888","Name":"Avenue Mohamed El Hansali"},{"Latitude":"35.1697127","Longitude":"-2.9279463","Name":"Avenue Mohamed Errazi"},{"Latitude":"34.0370022","Longitude":"-5.0022723","Name":"Avenue Mohamed Es Slaoui"},{"Latitude":"30.3418546","Longitude":"-9.5021398","Name":"Avenue Mohamed Ezerktouni"},{"Latitude":"30.3918685","Longitude":"-9.5546427","Name":"Avenue Mohamed Fassi"},{"Latitude":"33.5965167","Longitude":"-7.6587944","Name":"Avenue Mohamed Habib Sinaceur"},{"Latitude":"35.5787964","Longitude":"-5.3596605","Name":"Avenue Mohamed Hajjaj"},{"Latitude":"35.5729286","Longitude":"-5.3622166","Name":"Avenue Mohamed Harrak"},{"Latitude":"33.9182633","Longitude":"-5.4920401","Name":"Avenue Mohamed Ibn Abdellah"},{"Latitude":"30.4184464","Longitude":"-9.5727728","Name":"Avenue Mohamed Ikbal"},{"Latitude":"33.8651907","Longitude":"-5.5734613","Name":"Avenue Mohamed Lamnouni"},{"Latitude":"35.5748344","Longitude":"-5.3543528","Name":"Avenue Mohamed Lamriri"},{"Latitude":"35.5701219","Longitude":"-5.4005569","Name":"Avenue Mohamed Lemssasi"},{"Latitude":"33.5502389","Longitude":"-7.6710240","Name":"Avenue Mohamed Taib Naciri"},{"Latitude":"34.0553694","Longitude":"-6.8143183","Name":"Avenue Mohamed Taïb El Alaoui"},{"Latitude":"33.2534025","Longitude":"-8.5164844","Name":"Avenue Mohamed Toufani"},{"Latitude":"33.2592005","Longitude":"-8.5086856","Name":"Avenue Mohamed Trii"},{"Latitude":"33.9132775","Longitude":"-6.9246744","Name":"Avenue Mohamed V شارع الحسن الثاني"},{"Latitude":"34.0207105","Longitude":"-6.8373384","Name":"Avenue Mohamed V شارع محمد الخامس"},{"Latitude":"30.9202644","Longitude":"-6.9163209","Name":"Avenue Mohamed VI"},{"Latitude":"34.0371626","Longitude":"-4.9970284","Name":"Avenue Mohamed Zerktouni شارع محمد الزرقطوني"},{"Latitude":"35.2485236","Longitude":"-3.9312322","Name":"Avenue Mohamed Zraktouni"},{"Latitude":"31.6205547","Longitude":"-8.0577189","Name":"Avenue Mohammadia"},{"Latitude":"35.8542342","Longitude":"-5.3554916","Name":"Avenue Mohammed 5 شارع محمد الخامس"},{"Latitude":"35.7747548","Longitude":"-5.7818339","Name":"Avenue Mohammed 6"},{"Latitude":"34.9316952","Longitude":"-2.3179998","Name":"Avenue Mohammed Al-Durah"},{"Latitude":"35.5838218","Longitude":"-5.3359141","Name":"Avenue Mohammed Ali Chara"},{"Latitude":"34.6622881","Longitude":"-1.8812428","Name":"Avenue Mohammed Ben Abdel Khader"},{"Latitude":"30.4214820","Longitude":"-9.5832350","Name":"Avenue Mohammed Cheikh Saadi"},{"Latitude":"35.2057506","Longitude":"-3.7073761","Name":"Avenue Mohammed Choukri"},{"Latitude":"35.5834442","Longitude":"-5.3342756","Name":"Avenue Mohammed El Arbi Temsamani"},{"Latitude":"30.3346522","Longitude":"-9.5067331","Name":"Avenue Mohammed El Baamrani"},{"Latitude":"34.0151572","Longitude":"-5.0123600","Name":"Avenue Mohammed El Fassi"},{"Latitude":"32.3378116","Longitude":"-6.3484816","Name":"Avenue Mohammed V"},{"Latitude":"33.8999621","Longitude":"-5.5479012","Name":"Avenue Mohammed V شارع محمد الخامس"},{"Latitude":"33.8481846","Longitude":"-6.8502197","Name":"Avenue Mohammed VI"},{"Latitude":"33.8833396","Longitude":"-5.5707061","Name":"Avenue Mohammed VI شارع محمد السادس"},{"Latitude":"32.9979003","Longitude":"-7.6213821","Name":"Avenue Mohammed Zerktouni"},{"Latitude":"30.4385846","Longitude":"-9.5561448","Name":"Avenue Mohammedia"},{"Latitude":"35.6164399","Longitude":"-5.2799702","Name":"Avenue Mohit Atlassi"},{"Latitude":"34.0280220","Longitude":"-6.8462869","Name":"Avenue Mokhtar Gazoulit شارع المختار جزوليت"},{"Latitude":"34.0450884","Longitude":"-6.7800940","Name":"Avenue Mokhtar Souissi"},{"Latitude":"30.3681700","Longitude":"-9.5436397","Name":"Avenue Mokhtar Soussi شارع المختار السوسي"},{"Latitude":"33.5903943","Longitude":"-7.5755909","Name":"Avenue Molazim Nikili Ahmed"},{"Latitude":"35.1025685","Longitude":"-3.8386572","Name":"Avenue Mooha Hamou Zayani"},{"Latitude":"35.1733030","Longitude":"-2.9254586","Name":"Avenue Moscou"},{"Latitude":"34.0702602","Longitude":"-6.7703462","Name":"Avenue Moslim"},{"Latitude":"35.6154822","Longitude":"-5.2800497","Name":"Avenue Motajamid Chamali"},{"Latitude":"34.0695324","Longitude":"-6.7870911","Name":"Avenue Mouad Ibn Jabal"},{"Latitude":"34.0596460","Longitude":"-6.7797098","Name":"Avenue Mouad Ibnou Jabal"},{"Latitude":"35.7437609","Longitude":"-5.8026515","Name":"Avenue Mougadishiu"},{"Latitude":"35.5871859","Longitude":"-5.3376095","Name":"Avenue Mouha Hammou Zayani"},{"Latitude":"34.2176067","Longitude":"-4.0114367","Name":"Avenue Mouha Ohammo Zayani"},{"Latitude":"33.2436137","Longitude":"-8.5021750","Name":"Avenue Moukawama"},{"Latitude":"30.4690870","Longitude":"-8.8724509","Name":"Avenue Moukhtar Soussi"},{"Latitude":"34.2579686","Longitude":"-6.5918624","Name":"Avenue Moulay Abdel Aziz"},{"Latitude":"35.7589541","Longitude":"-5.8220448","Name":"Avenue Moulay Abdelaziz"},{"Latitude":"33.2555368","Longitude":"-8.5035191","Name":"Avenue Moulay Abdelhafid"},{"Latitude":"34.0537872","Longitude":"-6.7760438","Name":"Avenue Moulay Abdelkader"},{"Latitude":"35.1793096","Longitude":"-2.9221608","Name":"Avenue Moulay Abdellah"},{"Latitude":"34.2595615","Longitude":"-6.5885212","Name":"Avenue Moulay Abderrahmane"},{"Latitude":"35.1663476","Longitude":"-5.2675595","Name":"Avenue Moulay Abderrahmen Chrif شارع مولاي عبد الرحمن الشريف"},{"Latitude":"35.1701677","Longitude":"-5.2677566","Name":"Avenue Moulay Abdeslem Ben Mchich شارع مولاي عبد السلام بن مشيش"},{"Latitude":"34.0152193","Longitude":"-6.8320899","Name":"Avenue Moulay Al Hassan شارع مولاي الحسن"},{"Latitude":"35.6181631","Longitude":"-5.2769472","Name":"Avenue Moulay Al Mehdi"},{"Latitude":"35.1689440","Longitude":"-5.2654207","Name":"Avenue Moulay Ali Ben Rachid شارع مولاي علي بن راشد"},{"Latitude":"34.0396242","Longitude":"-6.8293172","Name":"Avenue Moulay Ali Cherif"},{"Latitude":"34.2274069","Longitude":"-4.0057158","Name":"Avenue Moulay Driss شارع مولاي ادريس"},{"Latitude":"35.5688052","Longitude":"-5.3744374","Name":"Avenue Moulay El Abbas"},{"Latitude":"35.1809330","Longitude":"-2.9273748","Name":"Avenue Moulay El Hassan El Mahdi شارع مولاي الحسن بن المهدي"},{"Latitude":"35.0087375","Longitude":"-2.9971232","Name":"Avenue Moulay El Mehdi"},{"Latitude":"31.4298000","Longitude":"-4.2366826","Name":"Avenue Moulay El-Hassane"},{"Latitude":"30.9349295","Longitude":"-6.9280634","Name":"Avenue Moulay Ettahar Bed Abdulkarim"},{"Latitude":"34.0239729","Longitude":"-6.7601081","Name":"Avenue Moulay Hafid"},{"Latitude":"35.7655231","Longitude":"-5.8270086","Name":"Avenue Moulay Hafid Ibn Abdelaziz"},{"Latitude":"35.7671641","Longitude":"-5.8195500","Name":"Avenue Moulay Hafid Ibn Abdelhafid"},{"Latitude":"34.0138430","Longitude":"-6.8347033","Name":"Avenue Moulay Hassan شارع مولاي الحسن"},{"Latitude":"33.9405834","Longitude":"-6.9025059","Name":"Avenue Moulay Idriss"},{"Latitude":"33.9291916","Longitude":"-6.9008886","Name":"Avenue Moulay Idriss 1"},{"Latitude":"31.5156708","Longitude":"-9.7610126","Name":"Avenue Moulay Idriss I"},{"Latitude":"33.9306924","Longitude":"-6.8970899","Name":"Avenue Moulay Idriss Ier"},{"Latitude":"35.1953406","Longitude":"-6.1575395","Name":"Avenue Moulay Ismail شارع مولاي إسماعيل"},{"Latitude":"34.0174223","Longitude":"-6.8239421","Name":"Avenue Moulay Ismail شارع مولاي اسماعيل"},{"Latitude":"34.0433515","Longitude":"-6.7970764","Name":"Avenue Moulay Larbi Al Alaoui شارع مولاي العربي العلوي"},{"Latitude":"33.8863426","Longitude":"-5.5718884","Name":"Avenue Moulay Melliana"},{"Latitude":"33.5959111","Longitude":"-7.5191390","Name":"Avenue Moulay Mohamed Baamrani"},{"Latitude":"33.9246019","Longitude":"-6.9156019","Name":"Avenue Moulay Rachid شارع مولاي رشيد"},{"Latitude":"34.0186752","Longitude":"-6.8327786","Name":"Avenue Moulay Slimane شارع مولاي سليمان"},{"Latitude":"34.0146984","Longitude":"-6.8255293","Name":"Avenue Moulay Yacoub شارع مولاي يعقوب"},{"Latitude":"34.0162170","Longitude":"-6.8353099","Name":"Avenue Moulay Youssef شارع مولاي يوسف"},{"Latitude":"34.6589380","Longitude":"-1.9176762","Name":"Avenue Moulouya"},{"Latitude":"33.8923405","Longitude":"-6.3253793","Name":"Avenue Mouritanie"},{"Latitude":"35.1740156","Longitude":"-2.9296135","Name":"Avenue Mousa Bnou Noussair"},{"Latitude":"35.6224715","Longitude":"-5.2765341","Name":"Avenue Mousa Ibn Nousair"},{"Latitude":"34.0589171","Longitude":"-5.0116646","Name":"Avenue Moussa Ben Noussair"},{"Latitude":"35.7789263","Longitude":"-5.8192456","Name":"Avenue Moussa Bnou Noussair"},{"Latitude":"35.6845471","Longitude":"-5.3233441","Name":"Avenue Moussa Ibn Noussair شارع موسى بن نصير"},{"Latitude":"35.5779236","Longitude":"-5.3452786","Name":"Avenue Moussel"},{"Latitude":"34.0667355","Longitude":"-6.7981124","Name":"Avenue Moustapha Almaani"},{"Latitude":"32.3361364","Longitude":"-6.3610280","Name":"Avenue Moutanabi"},{"Latitude":"31.6126254","Longitude":"-7.9671753","Name":"Avenue Msalla"},{"Latitude":"35.7803538","Longitude":"-5.8154677","Name":"Avenue Msallah"},{"Latitude":"33.9495912","Longitude":"-6.9272514","Name":"Avenue Mustapha Assayeh شارع مصطفى السايح"},{"Latitude":"35.5762915","Longitude":"-5.3558142","Name":"Avenue Mustapha Manfaloti"},{"Latitude":"33.8316396","Longitude":"-4.8381135","Name":"Avenue My Abdelaziz"},{"Latitude":"35.5700958","Longitude":"-5.3863015","Name":"Avenue My Hassan Ben Al Mehdi"},{"Latitude":"35.5700498","Longitude":"-5.3561153","Name":"Avenue Nador"},{"Latitude":"35.6102828","Longitude":"-5.2820490","Name":"Avenue Nahr Dijla"},{"Latitude":"35.6131594","Longitude":"-5.2797214","Name":"Avenue Nahr Nalouiya"},{"Latitude":"31.5913420","Longitude":"-8.0498037","Name":"Avenue Nakhil شارع النخيل"},{"Latitude":"35.5672610","Longitude":"-5.4008313","Name":"Avenue Nakib Al Mazdouki"},{"Latitude":"34.0152991","Longitude":"-4.9783263","Name":"Avenue Namaa"},{"Latitude":"34.0178228","Longitude":"-4.9770379","Name":"Avenue Namae"},{"Latitude":"35.1717452","Longitude":"-6.1441623","Name":"Avenue Narcisse"},{"Latitude":"34.0500371","Longitude":"-6.8231951","Name":"Avenue Nasser"},{"Latitude":"33.8941206","Longitude":"-5.5418825","Name":"Avenue Nehrou شارع نهرو"},{"Latitude":"35.1035105","Longitude":"-3.8389292","Name":"Avenue Nekor"},{"Latitude":"35.7748571","Longitude":"-5.7982640","Name":"Avenue New York"},{"Latitude":"33.8924493","Longitude":"-6.3192429","Name":"Avenue Niger"},{"Latitude":"35.7480317","Longitude":"-5.8376603","Name":"Avenue Nigeria"},{"Latitude":"32.3330210","Longitude":"-6.3339138","Name":"Avenue Nouakchott"},{"Latitude":"35.5813885","Longitude":"-5.3502560","Name":"Avenue Nouakchout"},{"Latitude":"34.7058804","Longitude":"-1.8990442","Name":"Avenue Noussour"},{"Latitude":"35.5746292","Longitude":"-5.3867498","Name":"Avenue Obaida Ibn El Jarrah"},{"Latitude":"34.0468369","Longitude":"-6.8130939","Name":"Avenue Ohoud"},{"Latitude":"35.5736834","Longitude":"-5.3790978","Name":"Avenue Okba Bnou Nafiaa"},{"Latitude":"35.5690574","Longitude":"-5.3704865","Name":"Avenue Omar Ben Al Khatab"},{"Latitude":"35.5721748","Longitude":"-5.3614515","Name":"Avenue Omar Ben Eloun"},{"Latitude":"30.4346885","Longitude":"-9.5777372","Name":"Avenue Omar Bno al Khatab"},{"Latitude":"34.0428953","Longitude":"-6.7822411","Name":"Avenue Omar Bnou Abdelazziz"},{"Latitude":"35.7766208","Longitude":"-5.8063770","Name":"Avenue Omar Bnou Khattab"},{"Latitude":"35.5655477","Longitude":"-5.4008985","Name":"Avenue Omar El Mokhtar"},{"Latitude":"30.3644002","Longitude":"-9.5358291","Name":"Avenue Omar Elkhayam"},{"Latitude":"34.0676846","Longitude":"-6.7972084","Name":"Avenue Omar Ibn Abdelaziz شارع عمر بن عبد العزيز"},{"Latitude":"34.9982863","Longitude":"-5.9106290","Name":"Avenue Omar Ibn Al Khattab"},{"Latitude":"34.0363018","Longitude":"-5.0148145","Name":"Avenue Omar Ibn Al Khattab شارع عمر ابن الخطاب"},{"Latitude":"32.3285638","Longitude":"-6.3596215","Name":"Avenue Omar Ibn El Khattab"},{"Latitude":"33.9987244","Longitude":"-6.8439098","Name":"Avenue Omar Ibn Khattab شارع عمر بن الخطاب"},{"Latitude":"34.0592615","Longitude":"-6.7900846","Name":"Avenue Omar Ibn Laass"},{"Latitude":"30.3662370","Longitude":"-9.5317045","Name":"Avenue Omar Ibn Lkhatab"},{"Latitude":"31.5842083","Longitude":"-8.0477885","Name":"Avenue Omar Khayyam شارع عمر الخيام"},{"Latitude":"34.0614258","Longitude":"-5.0107359","Name":"Avenue Oqba Ben Nafia"},{"Latitude":"34.0034143","Longitude":"-6.8492692","Name":"Avenue Oqba شارع عقبة"},{"Latitude":"34.2261398","Longitude":"-4.0082811","Name":"Avenue Oqbaa Nafiaa"},{"Latitude":"34.0592638","Longitude":"-6.7924449","Name":"Avenue Othman Bibn Affane"},{"Latitude":"35.5784830","Longitude":"-5.3835852","Name":"Avenue Othman Ibn Affane"},{"Latitude":"30.3706062","Longitude":"-9.5188165","Name":"Avenue Othmane Ben Affane"},{"Latitude":"33.2327940","Longitude":"-8.5051641","Name":"Avenue Othmane Ibnou Affane"},{"Latitude":"35.7770814","Longitude":"-5.7532920","Name":"Avenue Otman Salalji"},{"Latitude":"34.0140185","Longitude":"-4.9899572","Name":"Avenue Ouahrane"},{"Latitude":"35.5620883","Longitude":"-5.3597376","Name":"Avenue Oualili"},{"Latitude":"30.4379722","Longitude":"-9.5518781","Name":"Avenue Ouarzazat"},{"Latitude":"34.0084830","Longitude":"-6.8269984","Name":"Avenue Ouarzazate شارع ورزازات"},{"Latitude":"34.5818752","Longitude":"-5.9449460","Name":"Avenue Ouazzane"},{"Latitude":"35.5665350","Longitude":"-5.3673644","Name":"Avenue Oud Nil"},{"Latitude":"34.0499071","Longitude":"-4.4205715","Name":"Avenue Oued Addahab"},{"Latitude":"30.3690614","Longitude":"-9.5351333","Name":"Avenue Oued Al Makhazine"},{"Latitude":"34.0000936","Longitude":"-6.7233304","Name":"Avenue Oued Daraa"},{"Latitude":"34.6591992","Longitude":"-1.9171508","Name":"Avenue Oued Draa"},{"Latitude":"34.6591460","Longitude":"-1.9167333","Name":"Avenue Oued Draa 1"},{"Latitude":"33.5464861","Longitude":"-7.5640051","Name":"Avenue Oued Eddahab شارع وادي الذهب"},{"Latitude":"35.6099785","Longitude":"-5.2831136","Name":"Avenue Oued Nil"},{"Latitude":"35.5654005","Longitude":"-5.3814092","Name":"Avenue Oued Sebou"},{"Latitude":"34.0631429","Longitude":"-6.7905231","Name":"Avenue Oued Tensift"},{"Latitude":"35.6848591","Longitude":"-5.3243177","Name":"Avenue Ouezzane"},{"Latitude":"35.5710945","Longitude":"-5.3557066","Name":"Avenue Ouezzen"},{"Latitude":"35.7748137","Longitude":"-5.7950058","Name":"Avenue Oujda"},{"Latitude":"33.9575534","Longitude":"-6.8434779","Name":"Avenue Oulad Fares"},{"Latitude":"34.0592870","Longitude":"-6.7890677","Name":"Avenue Ould Amana"},{"Latitude":"30.4400340","Longitude":"-9.5625568","Name":"Avenue Ouled Teima"},{"Latitude":"33.5893080","Longitude":"-7.6020671","Name":"Avenue Ouled Ziane شارع أولاد زيان"},{"Latitude":"35.6142854","Longitude":"-5.2793212","Name":"Avenue Oum Rabiae"},{"Latitude":"35.5888595","Longitude":"-5.3598757","Name":"Avenue Oum Salama"},{"Latitude":"30.3705115","Longitude":"-9.5418053","Name":"Avenue Oume Al-Mouminine"},{"Latitude":"35.5746619","Longitude":"-5.3608829","Name":"Avenue Ounkaltoum Aragon"},{"Latitude":"33.0005467","Longitude":"-7.6113555","Name":"Avenue Ourika"},{"Latitude":"31.6478331","Longitude":"-8.0007063","Name":"Avenue Palestine شارع فلسطين"},{"Latitude":"34.0116759","Longitude":"-6.8426101","Name":"Avenue Pasteur شارع باستور"},{"Latitude":"34.0124990","Longitude":"-6.8285957","Name":"Avenue Patrice Lumumba شارع باتريس لومومبا"},{"Latitude":"32.2749445","Longitude":"-9.2457241","Name":"Avenue Phosphates"},{"Latitude":"35.7674690","Longitude":"-5.7615608","Name":"Avenue Plage Ain Assbaa"},{"Latitude":"35.7625815","Longitude":"-5.7578371","Name":"Avenue Plage Mrizika"},{"Latitude":"33.5985721","Longitude":"-7.5739816","Name":"Avenue Pommier"},{"Latitude":"34.0048063","Longitude":"-4.9846551","Name":"Avenue Port-Saïd"},{"Latitude":"30.4705026","Longitude":"-8.8761190","Name":"Avenue Prince Heritier Sidi Mohamed"},{"Latitude":"33.8945054","Longitude":"-6.3038041","Name":"Avenue Prince Moula Adbellah"},{"Latitude":"30.4207092","Longitude":"-9.5971577","Name":"Avenue Prince Moulay Abdellah"},{"Latitude":"31.6441063","Longitude":"-8.0086896","Name":"Avenue Prince Moulay Abdullah"},{"Latitude":"31.6141160","Longitude":"-8.0168524","Name":"Avenue Prince Moulay Rachid"},{"Latitude":"34.0228169","Longitude":"-6.7741837","Name":"Avenue Prince Sidi Mohammed"},{"Latitude":"34.0239389","Longitude":"-6.7698654","Name":"Avenue Prince Sidi Mohammed Abdellah"},{"Latitude":"32.2403677","Longitude":"-7.9614969","Name":"Avenue Princesse Lalla Maryem"},{"Latitude":"30.4204128","Longitude":"-9.5919717","Name":"Avenue Président Kennedy"},{"Latitude":"34.0156241","Longitude":"-4.9753016","Name":"Avenue Quaraouiyine شارع القرويين"},{"Latitude":"35.7527532","Longitude":"-5.7998814","Name":"Avenue R'gaia"},{"Latitude":"35.5804351","Longitude":"-5.3515870","Name":"Avenue Rabat"},{"Latitude":"34.0159134","Longitude":"-4.9720193","Name":"Avenue Rachad"},{"Latitude":"32.9896726","Longitude":"-7.6203335","Name":"Avenue Rahal El Meskini"},{"Latitude":"32.9896457","Longitude":"-7.6206191","Name":"Avenue Rahal El Meskini Boulevard Hassan II"},{"Latitude":"35.4679370","Longitude":"-6.0267493","Name":"Avenue Rahal Meskini"},{"Latitude":"32.3440321","Longitude":"-6.3525317","Name":"Avenue Ribat"},{"Latitude":"31.5885526","Longitude":"-8.0424502","Name":"Avenue Riddani"},{"Latitude":"35.1815871","Longitude":"-2.9250546","Name":"Avenue Rif"},{"Latitude":"33.9435560","Longitude":"-6.8691538","Name":"Avenue Robinia"},{"Latitude":"34.0313765","Longitude":"-4.9978420","Name":"Avenue Roi Houssaine"},{"Latitude":"34.2649731","Longitude":"-6.5718387","Name":"Avenue Roi Hussein"},{"Latitude":"35.5728102","Longitude":"-5.3828021","Name":"Avenue Rue Al Moutaz"},{"Latitude":"33.8951824","Longitude":"-5.5624181","Name":"Avenue Rwa Amzil"},{"Latitude":"35.5755798","Longitude":"-5.3614750","Name":"Avenue Ryad"},{"Latitude":"33.5537555","Longitude":"-7.5765734","Name":"Avenue Réda Guédira"},{"Latitude":"31.5185626","Longitude":"-9.7514377","Name":"Avenue Saada"},