[{"Latitude":"-15.9558561","Longitude":"-5.6562621","Name":"Airport Access Road"},{"Latitude":"-37.0687770","Longitude":"-12.3137949","Name":"Anchorstock Road"},{"Latitude":"-15.9491652","Longitude":"-5.6726562","Name":"Bottom Woods"},{"Latitude":"-37.0660380","Longitude":"-12.3128445","Name":"Calshot Crescent"},{"Latitude":"-15.9783549","Longitude":"-5.7326511","Name":"Casons"},{"Latitude":"-15.9243922","Longitude":"-5.7181219","Name":"Castle Terrace"},{"Latitude":"-15.9327077","Longitude":"-5.7125361","Name":"China Lane"},{"Latitude":"-15.9254202","Longitude":"-5.7181054","Name":"Church Lane"},{"Latitude":"-15.9427492","Longitude":"-5.7223095","Name":"Clay Gut"},{"Latitude":"-15.9457210","Longitude":"-5.6833550","Name":"Colt Sheds"},{"Latitude":"-15.9426227","Longitude":"-5.7198509","Name":"Commonwealth Avenue"},{"Latitude":"-15.9384200","Longitude":"-5.7105340","Name":"Constitution Hill"},{"Latitude":"-15.9353754","Longitude":"-5.7173296","Name":"Cow Path"},{"Latitude":"-37.0681114","Longitude":"-12.3084627","Name":"Day Street"},{"Latitude":"-15.9445150","Longitude":"-5.6881625","Name":"Deadwood"},{"Latitude":"-37.0662486","Longitude":"-12.3133599","Name":"Elliot Road"},{"Latitude":"-15.9348727","Longitude":"-5.7210981","Name":"Evergreen Drive"},{"Latitude":"-15.9303850","Longitude":"-5.7086700","Name":"Field Road"},{"Latitude":"-37.0682745","Longitude":"-12.3097080","Name":"Forsyth Thompson Street"},{"Latitude":"-37.0692799","Longitude":"-12.3129997","Name":"Hillside Road"},{"Latitude":"-15.9295350","Longitude":"-5.7171150","Name":"Ladder Hill Road"},{"Latitude":"-15.9502438","Longitude":"-5.6794147","Name":"Longwood Avenue"},{"Latitude":"-15.9323577","Longitude":"-5.7201711","Name":"Lower Half Tree Hollow"},{"Latitude":"-15.9244774","Longitude":"-5.7184335","Name":"Main Street"},{"Latitude":"-15.9351422","Longitude":"-5.7114476","Name":"Maldive Road"},{"Latitude":"-15.9293768","Longitude":"-5.7148083","Name":"Market Street"},{"Latitude":"-15.9322058","Longitude":"-5.7111016","Name":"Napoleon Street"},{"Latitude":"-37.0668084","Longitude":"-12.3106592","Name":"Prince Phillip Road"},{"Latitude":"-37.0677636","Longitude":"-12.3120844","Name":"Queen's Road"},{"Latitude":"-15.9488648","Longitude":"-5.7194931","Name":"Red Gate"},{"Latitude":"-15.9818580","Longitude":"-5.6920447","Name":"Sandy Bay Ridge"},{"Latitude":"-15.9982854","Longitude":"-5.7162970","Name":"Sandy Bay Road"},{"Latitude":"-15.9466896","Longitude":"-5.7227861","Name":"Sapper Way"},{"Latitude":"-37.0678570","Longitude":"-12.3108493","Name":"Scott Street"},{"Latitude":"-15.9235938","Longitude":"-5.7179882","Name":"Seafront"},{"Latitude":"-15.9285891","Longitude":"-5.7145885","Name":"Seales Corner"},{"Latitude":"-15.9285300","Longitude":"-5.7172942","Name":"Shy Road"},{"Latitude":"-37.0685645","Longitude":"-12.3083085","Name":"St Mary's Road"},{"Latitude":"-15.9308301","Longitude":"-5.7207870","Name":"Tern Drive"},{"Latitude":"-15.9406030","Longitude":"-5.7092820","Name":"The Briars"},{"Latitude":"-15.9284774","Longitude":"-5.7197332","Name":"The Pavement"},{"Latitude":"-15.9216610","Longitude":"-5.7177071","Name":"The Wharf"},{"Latitude":"-15.9797878","Longitude":"-5.7091311","Name":"Unity Cottage Road"},{"Latitude":"-37.0687518","Longitude":"-12.3123162","Name":"Watkins Road"},{"Latitude":"-15.9341400","Longitude":"-5.7177159","Name":"Wireless Station Drive"}]