[{"Latitude":"12.0847438","Longitude":"15.1340529","Name":"70404"},{"Latitude":"14.2681232","Longitude":"20.7792585","Name":"Abeche - Biltine"},{"Latitude":"11.4364477","Longitude":"19.5052925","Name":"Am Timan - Abu Deia - Mongo National Road"},{"Latitude":"11.4426468","Longitude":"19.3690386","Name":"Am Timan - Abu Deia - Mongo National Road طريق وطني أم تيمان أبو ضياء مونكو, أبو ديا"},{"Latitude":"11.0796091","Longitude":"20.3243465","Name":"Am Timan - Goz Beida - Abeche National Road"},{"Latitude":"11.0605419","Longitude":"20.2987808","Name":"Am Timan - Goz Beida - Abeche National Road طريق وطني أم تيمان أبو ضياء مونكو"},{"Latitude":"11.0326077","Longitude":"20.2872145","Name":"Am Timan - Haraze Regional Road"},{"Latitude":"11.0347707","Longitude":"20.2843886","Name":"Am Timan - Haraze Regional Road طريق إقليمي أم تيمان حراز"},{"Latitude":"14.4078570","Longitude":"21.6580456","Name":"Am Zoer - Guereda / أم زور - غيريدا"},{"Latitude":"12.0564382","Longitude":"15.3006539","Name":"Ancien Pont de Linia جسر لينيا القديم"},{"Latitude":"9.1277349","Longitude":"18.3852383","Name":"Avenue Charles de Gaulle شارع شارل ديغول"},{"Latitude":"8.5680973","Longitude":"16.0863092","Name":"Avenue Commercial لشارع التجاري"},{"Latitude":"12.1067105","Longitude":"15.0434637","Name":"Avenue Gaourang شارع كورانك"},{"Latitude":"12.0986439","Longitude":"15.0870914","Name":"Avenue Imam Thom Daman شارع الإمام توم دامان"},{"Latitude":"8.5724556","Longitude":"16.0663526","Name":"Avenue Jean-Paul II"},{"Latitude":"9.1489999","Longitude":"18.3860199","Name":"Avenue Kaskanaye"},{"Latitude":"8.5683966","Longitude":"16.0769811","Name":"Avenue Maurice Ngangtar"},{"Latitude":"8.5745224","Longitude":"16.0819255","Name":"Avenue Négor شارع نيغر"},{"Latitude":"12.0935484","Longitude":"15.0923554","Name":"Avenue du 10 Octobre / شارع 10 تشرين الأول"},{"Latitude":"9.5351017","Longitude":"15.4474660","Name":"Axe Bele-Berem-Gounou-gaya"},{"Latitude":"9.6553905","Longitude":"14.2218615","Name":"Axe Principale"},{"Latitude":"9.6558213","Longitude":"14.2245502","Name":"Axe Secondaire"},{"Latitude":"8.5328547","Longitude":"16.7485071","Name":"Banga - Begada Local Rd"},{"Latitude":"8.5064983","Longitude":"16.7313463","Name":"Begada - Doba Kurangati"},{"Latitude":"8.5619132","Longitude":"16.7664272","Name":"Bero - Banga Local Road"},{"Latitude":"9.2713551","Longitude":"16.1556800","Name":"Béré-DabgueFarm"},{"Latitude":"9.3291045","Longitude":"16.1442719","Name":"Béré-Delbiane"},{"Latitude":"17.9284063","Longitude":"19.1008301","Name":"Chari Chifini شارع شيفيني"},{"Latitude":"12.1054787","Longitude":"15.0997972","Name":"Chari-mongo شار ع شاري-مونقو"},{"Latitude":"16.4865740","Longitude":"21.7918356","Name":"Chibli"},{"Latitude":"10.1254664","Longitude":"16.1415955","Name":"Chinese Petrol road"},{"Latitude":"12.0503443","Longitude":"15.3027333","Name":"Contournement التجنب لينيا"},{"Latitude":"9.1074889","Longitude":"16.1530486","Name":"Delbiane-Bao"},{"Latitude":"8.7107770","Longitude":"15.8704381","Name":"Deli - vers Bainamar"},{"Latitude":"9.8778185","Longitude":"15.8142063","Name":"Djuman - Koyom - Lai"},{"Latitude":"8.7875929","Longitude":"16.9008536","Name":"Doba - Donga Manga"},{"Latitude":"9.0725231","Longitude":"16.8825405","Name":"Doba - Donga Manga دبا -  دنكا مانكا"},{"Latitude":"9.0732348","Longitude":"16.5569066","Name":"Doba - Lai National Road"},{"Latitude":"8.6242069","Longitude":"16.8812871","Name":"Doba - RCA border"},{"Latitude":"8.4949482","Longitude":"16.7245978","Name":"Doba Kurangati"},{"Latitude":"8.4785060","Longitude":"16.7169267","Name":"Doba Kurangati - Kome Local Rd"},{"Latitude":"12.4187938","Longitude":"15.0158134","Name":"Dyarmaya - Dandi / جرمايا - داندي"},{"Latitude":"8.5806127","Longitude":"16.0320461","Name":"Goudron Mota"},{"Latitude":"8.5676634","Longitude":"16.0504246","Name":"Goudron Mota غودرن متا"},{"Latitude":"14.5271255","Longitude":"22.1098486","Name":"Guereda - Iriba / غيريدا - إريبا"},{"Latitude":"9.3165182","Longitude":"15.8450530","Name":"Kelo-Bere-Lai"},{"Latitude":"11.5541911","Longitude":"16.0772202","Name":"Longmeadow Way"},{"Latitude":"13.5806799","Longitude":"15.2159786","Name":"Massakory-N'Gouri-Bol-Niger Border"},{"Latitude":"8.1431337","Longitude":"17.8273880","Name":"Moissala road"},{"Latitude":"12.3467043","Longitude":"18.6112217","Name":"Mongo - Ati National Road"},{"Latitude":"10.8680334","Longitude":"18.1306922","Name":"Mongo - Melfi - Sarh National Road"},{"Latitude":"10.8320643","Longitude":"15.0344254","Name":"Moroua-Pouss"},{"Latitude":"8.6793853","Longitude":"16.8364475","Name":"Moundou - Doba"},{"Latitude":"8.6891192","Longitude":"16.7491871","Name":"Moundou - Doba - Sarh"},{"Latitude":"8.5351193","Longitude":"16.0602446","Name":"Moundou - Doba - Sarh موندو - دوبا - ساره"},{"Latitude":"8.7062012","Longitude":"16.8134002","Name":"Moundou - Doba National Road"},{"Latitude":"8.8171538","Longitude":"16.0856181","Name":"Moundou - Kaga"},{"Latitude":"8.6132778","Longitude":"16.0673657","Name":"Moundou - Tilo موندو - تيلو"},{"Latitude":"12.1027313","Longitude":"15.0833482","Name":"N'Djamena - Moundou انجامينا - موندو"},{"Latitude":"13.6515178","Longitude":"16.4905238","Name":"Ndjamena - Massakory - Faya Largeau National Road"},{"Latitude":"12.0565304","Longitude":"15.3011719","Name":"Nouveau Pont de Linia جسر لينيا الجديد"},{"Latitude":"8.6450101","Longitude":"16.1066555","Name":"Oil service road"},{"Latitude":"9.0510415","Longitude":"18.4441215","Name":"Piste privée CST"},{"Latitude":"12.1336570","Longitude":"15.0762802","Name":"Rond Point Gaoui دوار غاوي"},{"Latitude":"12.1012557","Longitude":"15.1095703","Name":"Rond Point Gazelle دوار الغزلان"},{"Latitude":"8.5553683","Longitude":"16.0586373","Name":"Rond Point Mota"},{"Latitude":"8.5726395","Longitude":"16.0867689","Name":"Rond Point de l'amitié"},{"Latitude":"8.5448889","Longitude":"16.0668409","Name":"Rond Point de la Coton Tchad دوار في تشاد القطن"},{"Latitude":"8.5561204","Longitude":"16.0745244","Name":"Rond Point de la Femme Tchadienne"},{"Latitude":"8.5636756","Longitude":"16.0846812","Name":"Rond Point des Guides du Tchad"},{"Latitude":"8.5741107","Longitude":"16.0776515","Name":"Rond Point ملتو"},{"Latitude":"8.6512593","Longitude":"16.8611126","Name":"Rond-Point de la Paix"},{"Latitude":"12.1115305","Longitude":"14.9889404","Name":"Rue 1248 زنقة"},{"Latitude":"12.1092594","Longitude":"15.0400815","Name":"Rue 3,017 / زنقة 3017"},{"Latitude":"12.1119457","Longitude":"15.0428385","Name":"Rue 3,021 / زنقة 3021"},{"Latitude":"12.1125810","Longitude":"15.0439001","Name":"Rue 3,023 / زنقة 3023"},{"Latitude":"12.0992046","Longitude":"15.0699584","Name":"Rue 5009 / شارع 5009"},{"Latitude":"12.0920171","Longitude":"15.1316728","Name":"Rue AVD شارع آ في دي"},{"Latitude":"12.1145880","Longitude":"15.0469029","Name":"Rue Goz beida شارع قوز بيدا"},{"Latitude":"9.1381967","Longitude":"18.3823079","Name":"Rue Ketegala شارع كتقالا"},{"Latitude":"8.5499787","Longitude":"16.0628418","Name":"Rue Mota شارع متا"},{"Latitude":"12.1058471","Longitude":"15.0505281","Name":"Rue Schoelcher شارع شولشر"},{"Latitude":"12.1330062","Longitude":"15.0678415","Name":"Rue de 30m / شارع 30 متر"},{"Latitude":"12.1327646","Longitude":"15.0501199","Name":"Rue de 30m شارع 30 متر"},{"Latitude":"12.0988396","Longitude":"15.0675569","Name":"Rue de Merkey شارع مركي"},{"Latitude":"8.5197230","Longitude":"18.0180285","Name":"San Marcos"},{"Latitude":"10.2903347","Longitude":"19.9210560","Name":"Sarh - Kyabe - Am Timan"},{"Latitude":"9.2673286","Longitude":"18.3112914","Name":"Sarh - Kyabe - Am Timan National Road"},{"Latitude":"11.0241226","Longitude":"20.2776269","Name":"Sarh - Kyabe - Am Timan National Road طريق وطني ساركيابي أم تيمان"},{"Latitude":"9.6022911","Longitude":"18.3273326","Name":"Sarh - Melfi Mongo National Road"},{"Latitude":"9.0124520","Longitude":"18.4872007","Name":"Sarh - Sido (RCA Border)"},{"Latitude":"10.9260897","Longitude":"20.2514768","Name":"Sarh-Kyabe-AmTiman"},{"Latitude":"12.0645614","Longitude":"15.1484629","Name":"a - Linia - Masenya Regional Road"},{"Latitude":"10.5582685","Longitude":"19.8162134","Name":"residential building"},{"Latitude":"12.5835757","Longitude":"21.9609926","Name":"residential house"},{"Latitude":"13.7254051","Longitude":"15.7366554","Name":"route primaire"},{"Latitude":"13.6764855","Longitude":"20.7508082","Name":"أبوجودام"},{"Latitude":"13.6728324","Longitude":"20.7336537","Name":"إيرجوردي"},{"Latitude":"12.1105750","Longitude":"15.0492655","Name":"الجامع الكبير"},{"Latitude":"12.7299782","Longitude":"15.5889585","Name":"الطريق الوطني انجمينا - ماساكوري - فايا لارجو"},{"Latitude":"9.1414738","Longitude":"18.3925338","Name":"النجم"},{"Latitude":"12.1025758","Longitude":"15.0834239","Name":"انجامينا - موندو"},{"Latitude":"13.7495480","Longitude":"20.6968397","Name":"بتوما"},{"Latitude":"13.6544174","Longitude":"20.7453162","Name":"بدينا"},{"Latitude":"14.3663021","Longitude":"21.0874227","Name":"بلتن - أم زور Biltine-Am Zoer"},{"Latitude":"13.6497440","Longitude":"20.7166518","Name":"بناتيل"},{"Latitude":"13.7180972","Longitude":"20.5709834","Name":"تشيغشيكا"},{"Latitude":"12.1068152","Longitude":"15.0834153","Name":"تقاطع"},{"Latitude":"12.0561979","Longitude":"15.3017115","Name":"جسر لينيا القديم"},{"Latitude":"13.7996755","Longitude":"20.8382012","Name":"جيمينوفو"},{"Latitude":"12.1197253","Longitude":"15.0710432","Name":"دوار الإناث"},{"Latitude":"12.1288436","Longitude":"15.1061409","Name":"دوار حمامة"},{"Latitude":"12.1066381","Longitude":"15.0834082","Name":"دوار دامبي"},{"Latitude":"13.3005687","Longitude":"19.6712815","Name":"دونغور"},{"Latitude":"12.1074772","Longitude":"15.0428277","Name":"زنقة 3031"},{"Latitude":"12.1275102","Longitude":"15.0380615","Name":"زنقة الدرك"},{"Latitude":"12.1208089","Longitude":"15.0208157","Name":"زنقة بروسيت"},{"Latitude":"12.1106074","Longitude":"15.0434536","Name":"زنقة بول تريبيه"},{"Latitude":"12.1230012","Longitude":"15.0387943","Name":"زنقة مرسيليا"},{"Latitude":"12.1038336","Longitude":"15.0968316","Name":"شارع 10 أكتوبر 2003"},{"Latitude":"12.1328272","Longitude":"15.0502162","Name":"شارع 30 متر"},{"Latitude":"12.1747307","Longitude":"15.0092473","Name":"شارع أبو رتشا"},{"Latitude":"9.1389520","Longitude":"18.3928088","Name":"شارع الاستقلال"},{"Latitude":"9.1521756","Longitude":"18.3856441","Name":"شارع التجارة"},{"Latitude":"9.1242090","Longitude":"18.4013204","Name":"شارع الشباب"},{"Latitude":"13.8438533","Longitude":"20.8430153","Name":"شارع المطار"},{"Latitude":"13.8281667","Longitude":"20.8226705","Name":"شارع باغارين"},{"Latitude":"13.8381632","Longitude":"20.8238258","Name":"شارع بقرتين"},{"Latitude":"12.1236305","Longitude":"15.0943901","Name":"شارع بيرميل"},{"Latitude":"8.6018803","Longitude":"16.0712061","Name":"شارع تمبلباي"},{"Latitude":"12.1196855","Longitude":"15.0679366","Name":"شارع جبرين خير الله"},{"Latitude":"12.1122412","Longitude":"15.0835486","Name":"شارع سارة"},{"Latitude":"12.1303687","Longitude":"15.0785012","Name":"شارع فندق بونو"},{"Latitude":"9.1215530","Longitude":"18.3949902","Name":"شارع كاسكاناي"},{"Latitude":"12.1153627","Longitude":"14.9871860","Name":"شارع مليز"},{"Latitude":"12.0936196","Longitude":"15.0747259","Name":"شارع موبوتو"},{"Latitude":"12.1286174","Longitude":"15.0935444","Name":"شاري بيرميل"},{"Latitude":"13.8370261","Longitude":"20.8361331","Name":"طريق أبشي - بلتن"},{"Latitude":"13.3008746","Longitude":"19.6932332","Name":"طريق أبشي-أتي-انجمينا"},{"Latitude":"12.0587242","Longitude":"15.1498881","Name":"طريق إقليمي انجامينا لينيا ماسينيا Ndjamena - Linia - Masenya Regional Road"},{"Latitude":"12.0121099","Longitude":"15.2316322","Name":"طريق إقليمي انجامينا لينيا ماسينيا a - Linia - Masenya Regional Road"},{"Latitude":"12.0862887","Longitude":"15.1318356","Name":"طريق إقليمي انجمينا-بوسو"},{"Latitude":"9.0636822","Longitude":"18.3734377","Name":"طريق إقليمي ساره-مواسالا-كوري"},{"Latitude":"13.8525649","Longitude":"20.8336602","Name":"طريق المطار"},{"Latitude":"12.1286905","Longitude":"15.0917701","Name":"طريق تمبلباي"},{"Latitude":"9.1433893","Longitude":"18.3955312","Name":"طريق ساره-سيدو الوسطى"},{"Latitude":"8.6131307","Longitude":"18.6072114","Name":"طريق ساره-وسط سيدو -Sarh - Sido (RCA Border)"},{"Latitude":"12.1637684","Longitude":"15.1278124","Name":"طريق محلي انجمينا-كاوي"},{"Latitude":"14.4974487","Longitude":"20.9093157","Name":"طريق وطني ألبشي بلتن Abeche - Biltine National Road"},{"Latitude":"11.2381057","Longitude":"20.0993210","Name":"طريق وطني أم تيمان - أبو ضياء - مونقو"},{"Latitude":"9.1485221","Longitude":"18.3740169","Name":"طريق وطني ساره-دوبا-موندو"},{"Latitude":"11.8725854","Longitude":"18.9437911","Name":"طريق وطني مونقو-أبو ضياء-أم تيمان"},{"Latitude":"12.1903620","Longitude":"18.6851021","Name":"طريق وطني مونقو-أتي"},{"Latitude":"13.7055271","Longitude":"20.6404737","Name":"فاشا"},{"Latitude":"9.1334541","Longitude":"18.3553795","Name":"قنطرة باليمبا"},{"Latitude":"9.1330033","Longitude":"18.3547538","Name":"قنطرة جديدة"},{"Latitude":"9.1333106","Longitude":"18.3547820","Name":"قنطرة قديمة"},{"Latitude":"13.8315507","Longitude":"20.8043880","Name":"كينن"},{"Latitude":"8.5722321","Longitude":"16.0865577","Name":"لشارع التجاري"},{"Latitude":"13.7450227","Longitude":"20.6864215","Name":"مجيلبي"},{"Latitude":"12.1283323","Longitude":"15.0731775","Name":"محول تمبلباي"},{"Latitude":"13.8625139","Longitude":"20.8084949","Name":"مسار باغارين"},{"Latitude":"13.6896390","Longitude":"20.5781220","Name":"مسار تشيغشيكا"},{"Latitude":"12.2291409","Longitude":"21.3888882","Name":"مسار جبل"},{"Latitude":"13.6707238","Longitude":"18.6338993","Name":"ممر أفنات"},{"Latitude":"13.5310978","Longitude":"18.5834235","Name":"ممر أولاد"},{"Latitude":"13.5495026","Longitude":"18.5879181","Name":"ممر أولاد دوغلاس"},{"Latitude":"13.6880219","Longitude":"18.6339296","Name":"ممر أولاد دوغلاس-أفنات-بيرغاردي"},{"Latitude":"13.6425267","Longitude":"18.5819591","Name":"ممر أولاد دوغلاس-البيضاء"},{"Latitude":"13.7340703","Longitude":"18.5650824","Name":"ممر البيضاء"},{"Latitude":"13.5202442","Longitude":"18.5898902","Name":"ممر الهلالي"},{"Latitude":"13.7648198","Longitude":"18.6481149","Name":"ممر بئر 11"},{"Latitude":"13.6717711","Longitude":"18.6344620","Name":"ممر بئر أفنات"},{"Latitude":"13.7647872","Longitude":"18.6477846","Name":"ممر بيرغاردي"},{"Latitude":"13.5288203","Longitude":"18.5868165","Name":"ممر ريدينا-أولاد دوغلاس"},{"Latitude":"13.2126576","Longitude":"18.3413964","Name":"وسط المدينة"}]