[{"Latitude":"14.6323316","Longitude":"-61.0804965","Name":"165 route de la fontaine didier"},{"Latitude":"14.6185205","Longitude":"-61.0780964","Name":"Al Des Colibris"},{"Latitude":"14.7356438","Longitude":"-60.9617759","Name":"All. des Amandiers"},{"Latitude":"14.6321742","Longitude":"-61.1246484","Name":"Alleé Anguilla"},{"Latitude":"14.6319095","Longitude":"-61.1238945","Name":"Alleé Aruba"},{"Latitude":"14.6338322","Longitude":"-61.1230668","Name":"Alleé Barbade"},{"Latitude":"14.6331716","Longitude":"-61.1255130","Name":"Alleé Barbuda"},{"Latitude":"14.6383875","Longitude":"-61.1358073","Name":"Alleé Bel-air"},{"Latitude":"14.6340646","Longitude":"-61.1245672","Name":"Alleé Bermude"},{"Latitude":"14.6382259","Longitude":"-61.1360442","Name":"Alleé Biguine"},{"Latitude":"14.6384519","Longitude":"-61.1365862","Name":"Alleé Calenda"},{"Latitude":"14.6379138","Longitude":"-61.1356200","Name":"Alleé Calypso"},{"Latitude":"14.6350013","Longitude":"-61.1235209","Name":"Alleé Caïman"},{"Latitude":"14.6351395","Longitude":"-61.1242673","Name":"Alleé Curaçao"},{"Latitude":"14.6122440","Longitude":"-60.9102852","Name":"Alleé De L'herbe Coton"},{"Latitude":"14.4817798","Longitude":"-60.9907811","Name":"Alleé De Paletuviers"},{"Latitude":"14.8344673","Longitude":"-61.0642819","Name":"Alleé Des Amandiers"},{"Latitude":"14.6140247","Longitude":"-60.9090660","Name":"Alleé Des Azalées"},{"Latitude":"14.4666036","Longitude":"-60.9315319","Name":"Alleé Des Begonias"},{"Latitude":"14.6139293","Longitude":"-60.9091675","Name":"Alleé Des Bougainvillées"},{"Latitude":"14.7357785","Longitude":"-60.9633534","Name":"Alleé Des Colibres"},{"Latitude":"14.6127010","Longitude":"-60.9098982","Name":"Alleé Des Cotonniers"},{"Latitude":"14.6143560","Longitude":"-60.9098888","Name":"Alleé Des Lauriers Roses"},{"Latitude":"14.7357587","Longitude":"-60.9629334","Name":"Alleé Des Merles"},{"Latitude":"14.4659428","Longitude":"-60.9289197","Name":"Alleé Des Palmiers"},{"Latitude":"14.6131430","Longitude":"-60.9082098","Name":"Alleé Des Pensées Créoles 1"},{"Latitude":"14.7358479","Longitude":"-60.9627641","Name":"Alleé Des Tourterelles"},{"Latitude":"14.6009101","Longitude":"-61.0883593","Name":"Alleé Du Champ Bertin"},{"Latitude":"14.4670227","Longitude":"-60.9302556","Name":"Alleé Du Fromager"},{"Latitude":"14.6369070","Longitude":"-61.1234270","Name":"Alleé Grenadine"},{"Latitude":"14.6337155","Longitude":"-61.1286779","Name":"Alleé Guadeloupe"},{"Latitude":"14.6351003","Longitude":"-61.1270247","Name":"Alleé Haiti"},{"Latitude":"14.6366081","Longitude":"-61.1250734","Name":"Alleé Jamaïque"},{"Latitude":"14.6149580","Longitude":"-60.9102264","Name":"Alleé Jasmin Café"},{"Latitude":"14.6163578","Longitude":"-60.9064688","Name":"Alleé Kannal D'lo Cho"},{"Latitude":"14.6172347","Longitude":"-60.8878845","Name":"Alleé Konn Lanbi"},{"Latitude":"14.6385443","Longitude":"-61.1362778","Name":"Alleé Laghia"},{"Latitude":"14.6360296","Longitude":"-61.1231973","Name":"Alleé Margarita"},{"Latitude":"14.6381027","Longitude":"-61.1363505","Name":"Alleé Mazurka"},{"Latitude":"14.6391055","Longitude":"-61.1352529","Name":"Alleé Meringue"},{"Latitude":"14.5500348","Longitude":"-61.0510392","Name":"Alleé Muscade"},{"Latitude":"14.6354066","Longitude":"-61.1239090","Name":"Alleé Puerto Rico"},{"Latitude":"14.6358938","Longitude":"-61.1265353","Name":"Alleé Sainte-Lucie"},{"Latitude":"14.6163224","Longitude":"-60.9060445","Name":"Alleé Ti Brisan"},{"Latitude":"14.6184197","Longitude":"-60.8877517","Name":"Alleé Zabitan"},{"Latitude":"14.4832417","Longitude":"-61.0233789","Name":"Allée Alpinia"},{"Latitude":"14.6194023","Longitude":"-60.8963358","Name":"Allée Balé Dou"},{"Latitude":"14.4828386","Longitude":"-61.0102589","Name":"Allée Bassin Salé"},{"Latitude":"14.6327419","Longitude":"-61.1177418","Name":"Allée Bel Horizon"},{"Latitude":"14.6180437","Longitude":"-60.8945313","Name":"Allée Chadwon"},{"Latitude":"14.6178070","Longitude":"-60.8943442","Name":"Allée Chadwon Béni 3"},{"Latitude":"14.5735881","Longitude":"-60.9796017","Name":"Allée De Colombes"},{"Latitude":"14.6218075","Longitude":"-60.9010584","Name":"Allée Des Aigrettes"},{"Latitude":"14.6208607","Longitude":"-60.9011099","Name":"Allée Des Lituites"},{"Latitude":"14.6218328","Longitude":"-60.9017228","Name":"Allée Des Sarcelles"},{"Latitude":"14.5736202","Longitude":"-60.9779291","Name":"Allée Du Crabier"},{"Latitude":"14.5986853","Longitude":"-60.9421019","Name":"Allée Framboisin"},{"Latitude":"14.6187767","Longitude":"-60.8908438","Name":"Allée Gwo Konsoul"},{"Latitude":"14.4841740","Longitude":"-61.0220068","Name":"Allée Jacynthe d'Eau"},{"Latitude":"14.6203515","Longitude":"-60.9014047","Name":"Allée Kayali"},{"Latitude":"14.5466941","Longitude":"-60.9658410","Name":"Allée Louis Toto Boutrin"},{"Latitude":"14.6202950","Longitude":"-60.9010339","Name":"Allée Pat Jon"},{"Latitude":"14.6199404","Longitude":"-60.8957147","Name":"Allée Patjouli"},{"Latitude":"14.5458643","Longitude":"-61.0438601","Name":"Allée Pointe Galy"},{"Latitude":"14.7344928","Longitude":"-60.9725753","Name":"Allée Pomme Rose"},{"Latitude":"14.6303035","Longitude":"-61.1175748","Name":"Allée Principale"},{"Latitude":"14.7544345","Longitude":"-61.1695347","Name":"Allée Pécoul"},{"Latitude":"14.5467081","Longitude":"-60.9654310","Name":"Allée Stéphanie Daron"},{"Latitude":"14.4698912","Longitude":"-60.9235105","Name":"Allée Ti Mare"},{"Latitude":"14.4920675","Longitude":"-61.0814095","Name":"Allée Zéphire"},{"Latitude":"14.7608243","Longitude":"-60.9108918","Name":"Allée de La Canne à Sucre"},{"Latitude":"14.5393815","Longitude":"-61.0642255","Name":"Allée de Neptune"},{"Latitude":"14.5860867","Longitude":"-60.9607543","Name":"Allée de l'Abricotier"},{"Latitude":"14.6173801","Longitude":"-61.0962727","Name":"Allée de l'Alamanda"},{"Latitude":"14.7869286","Longitude":"-60.9992751","Name":"Allée de l'Amitié"},{"Latitude":"14.5723410","Longitude":"-60.9778458","Name":"Allée de l'Oiseau Cohé"},{"Latitude":"14.5726145","Longitude":"-60.9788316","Name":"Allée de l'Organiste"},{"Latitude":"14.5389339","Longitude":"-61.0386466","Name":"Allée de l'Émeraude"},{"Latitude":"14.5395537","Longitude":"-61.0637883","Name":"Allée de l'Éventail des Mers"},{"Latitude":"14.7599305","Longitude":"-60.9100068","Name":"Allée de la Bagasse"},{"Latitude":"14.4694246","Longitude":"-61.0462929","Name":"Allée de la Bonne Humeur"},{"Latitude":"14.6203096","Longitude":"-61.0855225","Name":"Allée de la Bruyère"},{"Latitude":"14.5803741","Longitude":"-60.9587971","Name":"Allée de la Caféière"},{"Latitude":"14.7610791","Longitude":"-60.9108605","Name":"Allée de la Canne à Sucre"},{"Latitude":"14.5788031","Longitude":"-60.9554716","Name":"Allée de la Case à Farine"},{"Latitude":"14.6291526","Longitude":"-61.1110041","Name":"Allée de la Consolation"},{"Latitude":"14.6306397","Longitude":"-61.1181208","Name":"Allée de la Corniche"},{"Latitude":"14.5783279","Longitude":"-60.9813878","Name":"Allée de la Cotonnerie"},{"Latitude":"14.7876131","Longitude":"-60.9983797","Name":"Allée de la Générosité"},{"Latitude":"14.6249360","Longitude":"-61.0774290","Name":"Allée de la Louisiane"},{"Latitude":"14.5354765","Longitude":"-61.0698089","Name":"Allée de la Murène"},{"Latitude":"14.5381055","Longitude":"-61.0678073","Name":"Allée de la Nacre"},{"Latitude":"14.5362962","Longitude":"-61.0700812","Name":"Allée de la Palangre"},{"Latitude":"14.4822289","Longitude":"-61.0165222","Name":"Allée de la Papaye"},{"Latitude":"14.5467706","Longitude":"-60.9650872","Name":"Allée de la Prise"},{"Latitude":"14.4849536","Longitude":"-61.0218003","Name":"Allée de la Rose de Porcelaine"},{"Latitude":"14.7874525","Longitude":"-60.9980946","Name":"Allée de la Sagesse"},{"Latitude":"14.4673778","Longitude":"-61.0474437","Name":"Allée de la Sympathie"},{"Latitude":"14.5749843","Longitude":"-60.9778710","Name":"Allée de la Sérénade"},{"Latitude":"14.5554147","Longitude":"-60.8401591","Name":"Allée des Acacias"},{"Latitude":"14.5547371","Longitude":"-60.8403566","Name":"Allée des Acacias Impasse 1"},{"Latitude":"14.5549422","Longitude":"-60.8401608","Name":"Allée des Acacias Impasse 2"},{"Latitude":"14.5554147","Longitude":"-60.8398604","Name":"Allée des Acacias Impasse 3"},{"Latitude":"14.5554147","Longitude":"-60.8401591","Name":"Allée des Acacias Impasse 4"},{"Latitude":"14.5558794","Longitude":"-60.8401609","Name":"Allée des Acacias Impasse 5"},{"Latitude":"14.6337944","Longitude":"-61.0510874","Name":"Allée des Acaliphas"},{"Latitude":"14.4839040","Longitude":"-61.0347067","Name":"Allée des Aigues-Marines"},{"Latitude":"14.5319575","Longitude":"-61.0660370","Name":"Allée des Alizés"},{"Latitude":"14.4839950","Longitude":"-61.0035496","Name":"Allée des Amandes"},{"Latitude":"14.6770065","Longitude":"-60.9439397","Name":"Allée des Amandiers"},{"Latitude":"14.4843973","Longitude":"-61.0337606","Name":"Allée des Améthystes"},{"Latitude":"14.5919848","Longitude":"-60.9524144","Name":"Allée des Ananas"},{"Latitude":"14.6187483","Longitude":"-60.9920783","Name":"Allée des Anthuriums"},{"Latitude":"14.5342552","Longitude":"-61.0680438","Name":"Allée des Anémones"},{"Latitude":"14.4895052","Longitude":"-61.0793271","Name":"Allée des Arlésiens"},{"Latitude":"14.5353083","Longitude":"-61.0630051","Name":"Allée des Barbadines"},{"Latitude":"14.5745749","Longitude":"-60.9730491","Name":"Allée des Bassignacs"},{"Latitude":"14.5561541","Longitude":"-60.8393173","Name":"Allée des Bleuets"},{"Latitude":"14.5891418","Longitude":"-60.9501768","Name":"Allée des Bégonias"},{"Latitude":"14.6027026","Longitude":"-60.9492375","Name":"Allée des Cachimans"},{"Latitude":"14.4748900","Longitude":"-60.9595154","Name":"Allée des Campêches"},{"Latitude":"14.5766304","Longitude":"-60.9775870","Name":"Allée des Caïmites"},{"Latitude":"14.6196099","Longitude":"-60.8878520","Name":"Allée des Ciriques"},{"Latitude":"14.4829119","Longitude":"-61.0342354","Name":"Allée des Citrines"},{"Latitude":"14.6200027","Longitude":"-61.0851820","Name":"Allée des Citronelles"},{"Latitude":"14.4987987","Longitude":"-61.0831833","Name":"Allée des Cocotiers"},{"Latitude":"14.5923511","Longitude":"-60.9482048","Name":"Allée des Coqs"},{"Latitude":"14.6279834","Longitude":"-61.0975721","Name":"Allée des Coquelicots"},{"Latitude":"14.5566258","Longitude":"-60.8390357","Name":"Allée des Coquelicots Impasse 6"},{"Latitude":"14.5566284","Longitude":"-60.8396298","Name":"Allée des Coquelicots Impasse 7"},{"Latitude":"14.5606826","Longitude":"-60.9592430","Name":"Allée des Cygnes"},{"Latitude":"14.5558827","Longitude":"-60.8391345","Name":"Allée des Dahlias"},{"Latitude":"14.5558827","Longitude":"-60.8391345","Name":"Allée des Dahlias Impasse 8"},{"Latitude":"14.5554121","Longitude":"-60.8391337","Name":"Allée des Dahlias Impasse 9"},{"Latitude":"14.7545319","Longitude":"-60.9684040","Name":"Allée des Donjons"},{"Latitude":"14.5397332","Longitude":"-61.0605465","Name":"Allée des Embruns"},{"Latitude":"14.4811153","Longitude":"-61.0335043","Name":"Allée des Emeraudes"},{"Latitude":"14.5651026","Longitude":"-60.9571184","Name":"Allée des Fauvettes"},{"Latitude":"14.5809037","Longitude":"-60.9572857","Name":"Allée des Figuiers"},{"Latitude":"14.7606232","Longitude":"-60.9120895","Name":"Allée des Fourneaux"},{"Latitude":"14.5523845","Longitude":"-61.0530386","Name":"Allée des Frangipaniers"},{"Latitude":"14.5553955","Longitude":"-60.8387509","Name":"Allée des Fuchsias"},{"Latitude":"14.5915423","Longitude":"-60.9481566","Name":"Allée des Gardenias"},{"Latitude":"14.4832222","Longitude":"-61.0334143","Name":"Allée des Grenats"},{"Latitude":"14.5566008","Longitude":"-60.8380348","Name":"Allée des Géraniums"},{"Latitude":"14.5885300","Longitude":"-60.9520120","Name":"Allée des Géris"},{"Latitude":"14.6771404","Longitude":"-60.9428236","Name":"Allée des Hibiscus"},{"Latitude":"14.5410134","Longitude":"-61.0612548","Name":"Allée des Hippocampes"},{"Latitude":"14.4822786","Longitude":"-61.0183656","Name":"Allée des Icaques"},{"Latitude":"14.6329954","Longitude":"-61.0490673","Name":"Allée des Ixoras"},{"Latitude":"14.5889135","Longitude":"-60.9519347","Name":"Allée des Jacinthes"},{"Latitude":"14.4846149","Longitude":"-61.0327506","Name":"Allée des Jades"},{"Latitude":"14.6751790","Longitude":"-60.9443882","Name":"Allée des Lataniers"},{"Latitude":"14.6759574","Longitude":"-60.9429214","Name":"Allée des Lauriers"},{"Latitude":"14.5966238","Longitude":"-60.9408081","Name":"Allée des Libellules"},{"Latitude":"14.6200929","Longitude":"-61.0544308","Name":"Allée des Manguiers"},{"Latitude":"14.5626504","Longitude":"-60.9587103","Name":"Allée des Maracudjas"},{"Latitude":"14.4812527","Longitude":"-61.0151703","Name":"Allée des Monbins"},{"Latitude":"14.6777633","Longitude":"-60.9463198","Name":"Allée des Moubins"},{"Latitude":"14.6312834","Longitude":"-61.0355931","Name":"Allée des Muscadiers"},{"Latitude":"14.5384751","Longitude":"-61.0636168","Name":"Allée des Méduses"},{"Latitude":"14.6171077","Longitude":"-61.0959471","Name":"Allée des Mésanges"},{"Latitude":"14.4841738","Longitude":"-61.0204656","Name":"Allée des Oiseaux du Paradis"},{"Latitude":"14.5460103","Longitude":"-60.8416379","Name":"Allée des Orchidées"},{"Latitude":"14.6753962","Longitude":"-60.9434574","Name":"Allée des Palmistes"},{"Latitude":"14.6246243","Longitude":"-61.0755499","Name":"Allée des Perruches"},{"Latitude":"14.6099542","Longitude":"-61.0895207","Name":"Allée des Pervenches"},{"Latitude":"14.6343061","Longitude":"-61.1154200","Name":"Allée des Pitons"},{"Latitude":"14.5793699","Longitude":"-60.9534674","Name":"Allée des Poiriers"},{"Latitude":"14.4804850","Longitude":"-61.0275582","Name":"Allée des Pommes Cannelle"},{"Latitude":"14.5746025","Longitude":"-60.9708985","Name":"Allée des Pommes Lianes"},{"Latitude":"14.5364426","Longitude":"-61.0645915","Name":"Allée des Quénettes"},{"Latitude":"14.6175749","Longitude":"-60.9922603","Name":"Allée des Quénettiers"},{"Latitude":"14.5076788","Longitude":"-61.0873222","Name":"Allée des Raisiniers"},{"Latitude":"14.5603244","Longitude":"-60.9574671","Name":"Allée des Ramiers"},{"Latitude":"14.6096725","Longitude":"-61.0896698","Name":"Allée des Resedas"},{"Latitude":"14.5841697","Longitude":"-60.9595442","Name":"Allée des Rois"},{"Latitude":"14.6759820","Longitude":"-60.9432370","Name":"Allée des Roseaux"},{"Latitude":"14.5460103","Longitude":"-60.8416379","Name":"Allée des Rosiers"},{"Latitude":"14.4822620","Longitude":"-61.0340166","Name":"Allée des Rubis"},{"Latitude":"14.4806487","Longitude":"-61.0322386","Name":"Allée des Saphirs"},{"Latitude":"14.5745398","Longitude":"-60.9719695","Name":"Allée des Sapotilles"},{"Latitude":"14.5900802","Longitude":"-60.9749718","Name":"Allée des Sarcelles"},{"Latitude":"14.6175051","Longitude":"-60.8884974","Name":"Allée des Soudons"},{"Latitude":"14.5875011","Longitude":"-60.9476159","Name":"Allée des Sucriers"},{"Latitude":"14.5331544","Longitude":"-61.0632695","Name":"Allée des Surelles"},{"Latitude":"14.4709488","Longitude":"-61.0712413","Name":"Allée des Ti-Baumes"},{"Latitude":"14.4845648","Longitude":"-61.0361802","Name":"Allée des Topazes"},{"Latitude":"14.5740764","Longitude":"-60.9783102","Name":"Allée des Tourterelles"},{"Latitude":"14.4822569","Longitude":"-61.0330724","Name":"Allée des Turquoises"},{"Latitude":"14.5375519","Longitude":"-61.0675621","Name":"Allée des Turritelles"},{"Latitude":"14.5678211","Longitude":"-60.9578385","Name":"Allée des chocolatiers"},{"Latitude":"14.5884984","Longitude":"-60.9488478","Name":"Allée des grands Bois"},{"Latitude":"14.5565817","Longitude":"-60.8385314","Name":"Allée des Églantines"},{"Latitude":"14.6766282","Longitude":"-60.9433273","Name":"Allée des Épineuses"},{"Latitude":"14.5373911","Longitude":"-61.0702593","Name":"Allée des Étoiles de Mer"},{"Latitude":"14.5790758","Longitude":"-60.9780787","Name":"Allée du Cachibou"},{"Latitude":"14.5358503","Longitude":"-61.0631601","Name":"Allée du Cachiman"},{"Latitude":"14.4871996","Longitude":"-61.0750324","Name":"Allée du Campechier"},{"Latitude":"14.4867372","Longitude":"-61.0737179","Name":"Allée du Caneficier"},{"Latitude":"14.5725193","Longitude":"-60.9795734","Name":"Allée du Carouge"},{"Latitude":"14.5743772","Longitude":"-60.9789578","Name":"Allée du Cayali"},{"Latitude":"14.5772721","Longitude":"-60.9753893","Name":"Allée du Champ Fleury"},{"Latitude":"14.5876941","Longitude":"-60.9545724","Name":"Allée du Chiendent"},{"Latitude":"14.5893261","Longitude":"-60.9762631","Name":"Allée du Col Vert"},{"Latitude":"14.5731874","Longitude":"-60.9805263","Name":"Allée du Colibri"},{"Latitude":"14.6133187","Longitude":"-61.0986315","Name":"Allée du Diamant"},{"Latitude":"14.4809804","Longitude":"-61.0339561","Name":"Allée du Gaïac"},{"Latitude":"14.4841225","Longitude":"-61.0041098","Name":"Allée du Gingembre"},{"Latitude":"14.4829022","Longitude":"-61.0098364","Name":"Allée du Gommier"},{"Latitude":"14.5873852","Longitude":"-60.9613624","Name":"Allée du Jujube"},{"Latitude":"14.5717370","Longitude":"-60.9660259","Name":"Allée du Ladja"},{"Latitude":"14.5380991","Longitude":"-61.0622136","Name":"Allée du Lagon"},{"Latitude":"14.5788987","Longitude":"-60.9624192","Name":"Allée du Lotus"},{"Latitude":"14.4680470","Longitude":"-61.0475126","Name":"Allée du Morne Larcher"},{"Latitude":"14.5783642","Longitude":"-60.9544585","Name":"Allée du Patagon"},{"Latitude":"14.5927866","Longitude":"-60.9398161","Name":"Allée du Poète"},{"Latitude":"14.5881286","Longitude":"-60.9643491","Name":"Allée du Prunier"},{"Latitude":"14.4705512","Longitude":"-61.0704460","Name":"Allée du Quenettier"},{"Latitude":"14.7607952","Longitude":"-60.9133803","Name":"Allée du Rhum Paille"},{"Latitude":"14.4734286","Longitude":"-61.0424599","Name":"Allée du Rocher"},{"Latitude":"14.4834084","Longitude":"-61.0044775","Name":"Allée du Safran"},{"Latitude":"14.4730228","Longitude":"-60.9626097","Name":"Allée du Stade"},{"Latitude":"14.4708959","Longitude":"-61.0720024","Name":"Allée du Tamarinier"},{"Latitude":"14.5409944","Longitude":"-61.0370077","Name":"Allée du Tott Mitan"},{"Latitude":"14.5881109","Longitude":"-60.9634617","Name":"Allée du Tulipier"},{"Latitude":"14.5877468","Longitude":"-60.9753229","Name":"Allée du chateau d'eau"},{"Latitude":"14.5765895","Longitude":"-60.9548853","Name":"Allée la Palmeraie"},{"Latitude":"14.6106296","Longitude":"-61.0876085","Name":"Ancienne Route de Schoelcher"},{"Latitude":"14.5958350","Longitude":"-61.0001882","Name":"Arrêt Minute"},{"Latitude":"14.6140497","Longitude":"-61.0724289","Name":"Avenue Abbé Lavigne"},{"Latitude":"14.4392362","Longitude":"-60.8783046","Name":"Avenue Aimee Cesaire"},{"Latitude":"14.4733308","Longitude":"-60.8741460","Name":"Avenue Aimé Césaire"},{"Latitude":"14.6081186","Longitude":"-61.0498198","Name":"Avenue Antoine Vitez"},{"Latitude":"14.6202683","Longitude":"-61.0859231","Name":"Avenue Camille Klébert"},{"Latitude":"14.7396516","Longitude":"-60.9631711","Name":"Avenue Casimir Branglidor"},{"Latitude":"14.6050225","Longitude":"-61.0792933","Name":"Avenue Condorcet"},{"Latitude":"14.6225760","Longitude":"-61.0579151","Name":"Avenue Coridon"},{"Latitude":"14.4680211","Longitude":"-60.9307364","Name":"Avenue Des Alamandas"},{"Latitude":"14.6331287","Longitude":"-61.1235986","Name":"Avenue Des Caraïbes"},{"Latitude":"14.4668202","Longitude":"-60.9266912","Name":"Avenue Des Hibiscus"},{"Latitude":"14.4671063","Longitude":"-60.9277154","Name":"Avenue Des Sucriers"},{"Latitude":"14.6155679","Longitude":"-61.0880225","Name":"Avenue Emile Maurice"},{"Latitude":"14.6168890","Longitude":"-61.0514109","Name":"Avenue Eugène Mona"},{"Latitude":"14.5731943","Longitude":"-60.9746607","Name":"Avenue Frantz Fanon"},{"Latitude":"14.4725210","Longitude":"-60.8703244","Name":"Avenue François Miterrand"},{"Latitude":"14.5703086","Longitude":"-60.9765619","Name":"Avenue François Mitterand"},{"Latitude":"14.4730529","Longitude":"-60.8692542","Name":"Avenue François Mitterrand"},{"Latitude":"14.5743213","Longitude":"-60.9720557","Name":"Avenue Félix Éboué"},{"Latitude":"14.6179218","Longitude":"-60.9926743","Name":"Avenue Georges Gratiant"},{"Latitude":"14.6328520","Longitude":"-61.0509088","Name":"Avenue Georges Plissonneau"},{"Latitude":"14.6081007","Longitude":"-61.0468508","Name":"Avenue Jacques Roumain"},{"Latitude":"14.5745821","Longitude":"-60.9662716","Name":"Avenue Jean Jaurès"},{"Latitude":"14.6062703","Longitude":"-61.0498288","Name":"Avenue Jean-Marie Serrault"},{"Latitude":"14.6120617","Longitude":"-61.0483795","Name":"Avenue Jean-Marie Tjibaou"},{"Latitude":"14.7777522","Longitude":"-60.9936366","Name":"Avenue Lassalle"},{"Latitude":"14.6207718","Longitude":"-61.0498692","Name":"Avenue Louis Domergue"},{"Latitude":"14.6164589","Longitude":"-61.0846144","Name":"Avenue Louis Moreau"},{"Latitude":"14.6188401","Longitude":"-61.0884311","Name":"Avenue Louis Moreau Gottschalk"},{"Latitude":"14.6080972","Longitude":"-61.0482586","Name":"Avenue Léon Gontran Damas"},{"Latitude":"14.6143626","Longitude":"-61.0467627","Name":"Avenue Léona Gabriel"},{"Latitude":"14.6136481","Longitude":"-61.0482155","Name":"Avenue Léopold Sédar Senghor"},{"Latitude":"14.5717074","Longitude":"-60.9815294","Name":"Avenue Marc André"},{"Latitude":"14.6138220","Longitude":"-61.0521560","Name":"Avenue Maurice Bishop"},{"Latitude":"14.6125303","Longitude":"-60.9956834","Name":"Avenue Nelson Mandela"},{"Latitude":"14.6062472","Longitude":"-61.0468770","Name":"Avenue Nicolas Guillen"},{"Latitude":"14.6126119","Longitude":"-61.0662655","Name":"Avenue Pasteur"},{"Latitude":"14.6145805","Longitude":"-61.0723009","Name":"Avenue Paul Nardal"},{"Latitude":"14.6062703","Longitude":"-61.0498288","Name":"Avenue Professeur Judes Turiat"},{"Latitude":"14.6108408","Longitude":"-61.0453967","Name":"Avenue Raoul Follereau"},{"Latitude":"14.6218642","Longitude":"-61.0585580","Name":"Avenue Richard Granvorka"},{"Latitude":"14.5037030","Longitude":"-61.0842802","Name":"Avenue Robert Deloy"},{"Latitude":"14.6051437","Longitude":"-61.0780898","Name":"Avenue Saint-John Perse"},{"Latitude":"14.6103269","Longitude":"-61.0482348","Name":"Avenue Salvator Allende"},{"Latitude":"14.6067334","Longitude":"-61.0512453","Name":"Avenue Ti-Émile Casérus"},{"Latitude":"14.6081007","Longitude":"-61.0468508","Name":"Avenue Victor Coridun"},{"Latitude":"14.6012212","Longitude":"-61.0570738","Name":"Avenue Victor Lamon"},{"Latitude":"14.6177104","Longitude":"-61.0846465","Name":"Avenue de Cluny"},{"Latitude":"14.6054058","Longitude":"-61.0455223","Name":"Avenue de Dillon"},{"Latitude":"14.6151246","Longitude":"-61.0990276","Name":"Avenue de Madiana"},{"Latitude":"14.6191010","Longitude":"-61.1041689","Name":"Avenue de l'Anse Madame"},{"Latitude":"14.6461670","Longitude":"-61.1410434","Name":"Avenue de l'Europe"},{"Latitude":"14.5368319","Longitude":"-61.0343876","Name":"Avenue de l'Impératrice"},{"Latitude":"14.5390400","Longitude":"-61.0355671","Name":"Avenue de l'Impératrice Joséphine"},{"Latitude":"14.6244646","Longitude":"-61.0501092","Name":"Avenue de l'Orée du Parc Montgéralde"},{"Latitude":"14.5733804","Longitude":"-60.9779925","Name":"Avenue de la Maurice"},{"Latitude":"14.6207810","Longitude":"-61.0471560","Name":"Avenue de la Plaine"},{"Latitude":"14.6270763","Longitude":"-61.0371681","Name":"Avenue de la Solidarité"},{"Latitude":"14.6222746","Longitude":"-61.0484399","Name":"Avenue de la Vallée"},{"Latitude":"14.4676787","Longitude":"-60.9279101","Name":"Avenue des Amandiers"},{"Latitude":"14.6189810","Longitude":"-61.0394172","Name":"Avenue des Arawaks"},{"Latitude":"14.6228403","Longitude":"-61.0504291","Name":"Avenue des Balcons Montgéralde"},{"Latitude":"14.6986175","Longitude":"-60.9101796","Name":"Avenue des Bougainvilliers"},{"Latitude":"14.6111211","Longitude":"-61.0854264","Name":"Avenue des Caneficiers"},{"Latitude":"14.6043927","Longitude":"-61.0669016","Name":"Avenue des Caraïbes"},{"Latitude":"14.7018748","Longitude":"-60.9171151","Name":"Avenue des Cayalis"},{"Latitude":"14.7107437","Longitude":"-61.1820059","Name":"Avenue des Droits de L'Enfant"},{"Latitude":"14.4672812","Longitude":"-60.9256451","Name":"Avenue des Flamboyants"},{"Latitude":"14.6200237","Longitude":"-61.0499186","Name":"Avenue des Hameaux Montgéralde"},{"Latitude":"14.4867304","Longitude":"-60.9029004","Name":"Avenue des Insurrections Anti-Esclavagistes"},{"Latitude":"14.7443735","Longitude":"-61.0162092","Name":"Avenue des Jeunes"},{"Latitude":"14.6192792","Longitude":"-61.0388307","Name":"Avenue des Paradisiers"},{"Latitude":"14.6978488","Longitude":"-60.9130006","Name":"Avenue des Poiriers"},{"Latitude":"14.6007994","Longitude":"-61.0562079","Name":"Avenue des Tourelles"},{"Latitude":"14.6222631","Longitude":"-61.0489816","Name":"Avenue des Versants Montgéralde"},{"Latitude":"14.5265666","Longitude":"-60.9767782","Name":"Avenue des Écoles"},{"Latitude":"14.7372445","Longitude":"-60.9601734","Name":"Avenue du Brésil"},{"Latitude":"14.6139344","Longitude":"-61.0751090","Name":"Avenue du Docteur Juvénal Linval"},{"Latitude":"14.6108543","Longitude":"-61.0468385","Name":"Avenue du Docteur Monrose"},{"Latitude":"14.6982770","Longitude":"-60.9177808","Name":"Avenue du Flamboyant"},{"Latitude":"14.8726480","Longitude":"-61.1789861","Name":"Avenue du Général de Gaulle"},{"Latitude":"14.6051620","Longitude":"-61.0610514","Name":"Avenue du Morne Pichevin"},{"Latitude":"14.6220772","Longitude":"-61.0478833","Name":"Avenue du Parc Montgéralde"},{"Latitude":"14.6157095","Longitude":"-61.0912989","Name":"Avenue du Petit Florentin"},{"Latitude":"14.6187896","Longitude":"-61.0858717","Name":"Avenue du Petit Paradis"},{"Latitude":"14.7357629","Longitude":"-60.9569157","Name":"Avenue du Raisinier"},{"Latitude":"14.7554567","Longitude":"-60.9849349","Name":"Bois Jade"},{"Latitude":"14.6112894","Longitude":"-60.9415906","Name":"Bois Neuf"},{"Latitude":"14.5988528","Longitude":"-60.8917295","Name":"Bois Soldat"},{"Latitude":"14.6062921","Longitude":"-61.0734191","Name":"Boulevard Adhémar Modock"},{"Latitude":"14.6021897","Longitude":"-61.0682997","Name":"Boulevard Alfassa"},{"Latitude":"14.6078441","Longitude":"-61.0729789","Name":"Boulevard Allègre"},{"Latitude":"14.6093655","Longitude":"-61.0822839","Name":"Boulevard Amilcar Cabral"},{"Latitude":"14.6087980","Longitude":"-61.0740811","Name":"Boulevard Amiral de Gueydon"},{"Latitude":"14.6171253","Longitude":"-61.0003309","Name":"Boulevard Amédée Despointes"},{"Latitude":"14.7702751","Longitude":"-60.9854172","Name":"Boulevard Antonin Jérome Mercan"},{"Latitude":"14.7758254","Longitude":"-60.9875542","Name":"Boulevard Celeste"},{"Latitude":"14.5455792","Longitude":"-60.8384063","Name":"Boulevard Charles de Gaulle"},{"Latitude":"14.6028527","Longitude":"-61.0665571","Name":"Boulevard Chevalier de Sainte-Marthe"},{"Latitude":"14.6768317","Longitude":"-61.1673702","Name":"Boulevard Duvallon"},{"Latitude":"14.7856137","Longitude":"-60.9949863","Name":"Boulevard Désir Jox"},{"Latitude":"14.7590953","Longitude":"-60.9188956","Name":"Boulevard François Mitterand"},{"Latitude":"14.6076756","Longitude":"-61.0720462","Name":"Boulevard Général de Gaulle"},{"Latitude":"14.6775829","Longitude":"-60.9380447","Name":"Boulevard Henri Auzé"},{"Latitude":"14.6268510","Longitude":"-61.0688578","Name":"Boulevard Huygues Despointes"},{"Latitude":"14.4677776","Longitude":"-60.9216981","Name":"Boulevard Kennedy"},{"Latitude":"14.7444032","Longitude":"-61.1733818","Name":"Boulevard Laigret"},{"Latitude":"14.5472945","Longitude":"-60.8376737","Name":"Boulevard Louis Landa"},{"Latitude":"14.6031526","Longitude":"-61.0742545","Name":"Boulevard Léopold Bissold"},{"Latitude":"14.6083225","Longitude":"-61.0522920","Name":"Boulevard Nelson Mandela"},{"Latitude":"14.6026750","Longitude":"-61.0786335","Name":"Boulevard Robert Attuly"},{"Latitude":"14.8739027","Longitude":"-61.1788912","Name":"Boulevard Sainte-Catherine"},{"Latitude":"14.4864287","Longitude":"-60.9033091","Name":"Boulevard Septembre 1970"},{"Latitude":"14.6023857","Longitude":"-61.0731369","Name":"Boulevard Thélus Léro"},{"Latitude":"14.6048797","Longitude":"-61.0799679","Name":"Boulevard de Verdun"},{"Latitude":"14.5475289","Longitude":"-60.8377959","Name":"Boulevard de l'Atlantique"},{"Latitude":"14.7764536","Longitude":"-60.9931172","Name":"Boulevard de la Canne"},{"Latitude":"14.6046736","Longitude":"-61.0807882","Name":"Boulevard de la Marne"},{"Latitude":"14.6029795","Longitude":"-61.0885797","Name":"Boulevard de la Pointe des Nègres"},{"Latitude":"14.6143751","Longitude":"-61.0416993","Name":"Boulevard de la Pointe des Sables"},{"Latitude":"14.6065071","Longitude":"-61.0541372","Name":"Boulevard de la T.S.F."},{"Latitude":"14.7772452","Longitude":"-60.9902717","Name":"Boulevard de la Voie Lactée"},{"Latitude":"14.6168641","Longitude":"-60.9053671","Name":"Boulevard des Fusillés"},{"Latitude":"14.5013651","Longitude":"-61.0834508","Name":"Boulevard des Glycéridias"},{"Latitude":"14.6265389","Longitude":"-61.1121629","Name":"Boulevard des Pêcheurs"},{"Latitude":"14.6072237","Longitude":"-61.0933779","Name":"Boulevard du 25 Juin 1635"},{"Latitude":"14.6081046","Longitude":"-61.0911992","Name":"Boulevard du 25 Juin 1935"},{"Latitude":"14.7111145","Longitude":"-61.1836422","Name":"Boulevard du Front de Mer"},{"Latitude":"14.6075584","Longitude":"-61.0684870","Name":"Boulevard du Général de Gaulle"},{"Latitude":"14.6317097","Longitude":"-61.0676545","Name":"Boulevard du Nord"},{"Latitude":"14.6196875","Longitude":"-61.0390473","Name":"Boulevard du Soleil Levant"},{"Latitude":"14.4736360","Longitude":"-61.0419890","Name":"CD Petite Anse"},{"Latitude":"14.7307091","Longitude":"-61.1418987","Name":"Canal de Beauregard"},{"Latitude":"14.6278858","Longitude":"-60.9393776","Name":"Casse-cou"},{"Latitude":"14.6927851","Longitude":"-60.9803548","Name":"Chemin Abel Labonne"},{"Latitude":"14.6248438","Longitude":"-61.0193141","Name":"Chemin Acajou Prolongé"},{"Latitude":"14.5342484","Longitude":"-60.9323465","Name":"Chemin Agésilas"},{"Latitude":"14.6996013","Longitude":"-60.9430917","Name":"Chemin Anba Kako"},{"Latitude":"14.4820088","Longitude":"-61.0207866","Name":"Chemin Andrieu"},{"Latitude":"14.5481391","Longitude":"-60.9671389","Name":"Chemin Athanase Rabord"},{"Latitude":"14.6509965","Longitude":"-61.0138833","Name":"Chemin Balleu"},{"Latitude":"14.6243582","Longitude":"-61.0124351","Name":"Chemin Barracouda"},{"Latitude":"14.7196139","Longitude":"-61.0092901","Name":"Chemin Barre D'Englebernes"},{"Latitude":"14.6263549","Longitude":"-61.0254379","Name":"Chemin Basse Gondeau"},{"Latitude":"14.6208683","Longitude":"-60.9566145","Name":"Chemin Bellevue"},{"Latitude":"14.5478181","Longitude":"-60.9664345","Name":"Chemin Bernard Cayol"},{"Latitude":"14.7149780","Longitude":"-60.9891011","Name":"Chemin Birot"},{"Latitude":"14.6253570","Longitude":"-61.0095889","Name":"Chemin Bois D'inde"},{"Latitude":"14.6502679","Longitude":"-61.0125122","Name":"Chemin Bon Saint Côme"},{"Latitude":"14.5309929","Longitude":"-60.9628418","Name":"Chemin Boulevard"},{"Latitude":"14.7002453","Longitude":"-61.0060277","Name":"Chemin Briand de Bois Guibert"},{"Latitude":"14.7353298","Longitude":"-60.9579813","Name":"Chemin Cabria"},{"Latitude":"14.6238359","Longitude":"-61.0151928","Name":"Chemin Cannelle"},{"Latitude":"14.5855010","Longitude":"-60.9941266","Name":"Chemin Carrère"},{"Latitude":"14.5927657","Longitude":"-60.9539136","Name":"Chemin Castelly"},{"Latitude":"14.6258507","Longitude":"-61.0144140","Name":"Chemin Catalpa"},{"Latitude":"14.6366784","Longitude":"-61.0262251","Name":"Chemin Clemencin"},{"Latitude":"14.6390956","Longitude":"-61.0224747","Name":"Chemin Clemencin Voie 1"},{"Latitude":"14.6265578","Longitude":"-61.0144253","Name":"Chemin Corossol"},{"Latitude":"14.5087815","Longitude":"-60.9576697","Name":"Chemin Courbaril Louisy"},{"Latitude":"14.7355727","Longitude":"-60.9598820","Name":"Chemin D Fleur D'epee"},{"Latitude":"14.5997257","Longitude":"-60.8805626","Name":"Chemin Dartault"},{"Latitude":"14.6019420","Longitude":"-60.8760449","Name":"Chemin Darthault"},{"Latitude":"14.6713514","Longitude":"-60.9826609","Name":"Chemin Daubert"},{"Latitude":"14.6337766","Longitude":"-61.0197839","Name":"Chemin De La Brise"},{"Latitude":"14.7411961","Longitude":"-60.9795166","Name":"Chemin Degras"},{"Latitude":"14.7375897","Longitude":"-60.9676720","Name":"Chemin Des Caillemetes"},{"Latitude":"14.6402436","Longitude":"-61.0689600","Name":"Chemin Desbrosses la Vallée"},{"Latitude":"14.6553244","Longitude":"-61.0362123","Name":"Chemin Desgatte"},{"Latitude":"14.5935988","Longitude":"-60.9400134","Name":"Chemin Dolor Banal"},{"Latitude":"14.6854687","Longitude":"-61.1669729","Name":"Chemin Du Calebassier"},{"Latitude":"14.6952471","Longitude":"-61.1691987","Name":"Chemin Du Morne Table"},{"Latitude":"14.5660876","Longitude":"-60.9496577","Name":"Chemin Durivage"},{"Latitude":"14.5398781","Longitude":"-60.9280197","Name":"Chemin Edvard Bonheur"},{"Latitude":"14.6308980","Longitude":"-61.0095684","Name":"Chemin Evrard SUFFRIN"},{"Latitude":"14.6328749","Longitude":"-61.0106598","Name":"Chemin Evrard Suffrin"},{"Latitude":"14.5135692","Longitude":"-60.9727434","Name":"Chemin Figuier"},{"Latitude":"14.5853277","Longitude":"-60.9617013","Name":"Chemin Fond Bambous"},{"Latitude":"14.5913075","Longitude":"-60.9521987","Name":"Chemin Fond Maho"},{"Latitude":"14.5282443","Longitude":"-60.9449558","Name":"Chemin Grand Coulisse"},{"Latitude":"14.5666460","Longitude":"-60.8995842","Name":"Chemin Grosse Roche"},{"Latitude":"14.6285787","Longitude":"-60.9936198","Name":"Chemin Hortensia"},{"Latitude":"14.5806537","Longitude":"-60.9592631","Name":"Chemin Isaure Mamie"},{"Latitude":"14.6326831","Longitude":"-61.0094335","Name":"Chemin Jeanne d'Arc"},{"Latitude":"14.5182289","Longitude":"-60.9520970","Name":"Chemin Joseph Louis"},{"Latitude":"14.6447185","Longitude":"-61.0770763","Name":"Chemin Jules Beaumes"},{"Latitude":"14.6439906","Longitude":"-61.0751416","Name":"Chemin Jules Beaunes"},{"Latitude":"14.6556492","Longitude":"-61.0309286","Name":"Chemin Kevin Canne-Rose"},{"Latitude":"14.6019609","Longitude":"-60.9484738","Name":"Chemin La Cécille"},{"Latitude":"14.6450516","Longitude":"-61.0224307","Name":"Chemin La Haut"},{"Latitude":"14.6528694","Longitude":"-61.0272532","Name":"Chemin La Hubert"},{"Latitude":"14.5786150","Longitude":"-60.9525433","Name":"Chemin La Lindor"},{"Latitude":"14.5005566","Longitude":"-60.9556033","Name":"Chemin La Mauny"},{"Latitude":"14.5865501","Longitude":"-60.9657056","Name":"Chemin La Polydo"},{"Latitude":"14.5896629","Longitude":"-60.9488756","Name":"Chemin La Redou"},{"Latitude":"14.5874115","Longitude":"-60.9512966","Name":"Chemin La Retraite"},{"Latitude":"14.5896580","Longitude":"-60.9534587","Name":"Chemin Laguerre"},{"Latitude":"14.5233686","Longitude":"-60.9618575","Name":"Chemin Laurent"},{"Latitude":"14.6919751","Longitude":"-61.1641101","Name":"Chemin Le Lafayette"},{"Latitude":"14.5479566","Longitude":"-60.9681296","Name":"Chemin Lebreton"},{"Latitude":"14.5287442","Longitude":"-60.9277881","Name":"Chemin Leoture"},{"Latitude":"14.6254562","Longitude":"-61.0149731","Name":"Chemin Les Horizons"},{"Latitude":"14.5207108","Longitude":"-60.9583463","Name":"Chemin Louri"},{"Latitude":"14.6208115","Longitude":"-60.9426470","Name":"Chemin Luc"},{"Latitude":"14.5857783","Longitude":"-60.9415730","Name":"Chemin Ludger Poncy"},{"Latitude":"14.6513817","Longitude":"-60.9743760","Name":"Chemin Macaron"},{"Latitude":"14.6929017","Longitude":"-60.9876825","Name":"Chemin Magnan"},{"Latitude":"14.6476290","Longitude":"-61.0222032","Name":"Chemin Maison"},{"Latitude":"14.5086204","Longitude":"-60.9350616","Name":"Chemin Malanga"},{"Latitude":"14.5804538","Longitude":"-60.9523157","Name":"Chemin Mango Pitt"},{"Latitude":"14.7273402","Longitude":"-60.9650789","Name":"Chemin Mangotine"},{"Latitude":"14.7005854","Longitude":"-60.9449603","Name":"Chemin Mibi"},{"Latitude":"14.5473081","Longitude":"-60.9672059","Name":"Chemin Montabord"},{"Latitude":"14.5615174","Longitude":"-60.9424197","Name":"Chemin Monténor"},{"Latitude":"14.6186455","Longitude":"-60.9481903","Name":"Chemin Morne Bel Air"},{"Latitude":"14.5817774","Longitude":"-60.9516819","Name":"Chemin Morne Cabrit"},{"Latitude":"14.7008543","Longitude":"-60.9440479","Name":"Chemin Morne Labbé"},{"Latitude":"14.6288815","Longitude":"-60.9526535","Name":"Chemin Morne Pavillon"},{"Latitude":"14.5943863","Longitude":"-60.9518400","Name":"Chemin Morne Privat"},{"Latitude":"14.6278086","Longitude":"-61.0280470","Name":"Chemin Moussache"},{"Latitude":"14.5395315","Longitude":"-60.9340165","Name":"Chemin Paderna"},{"Latitude":"14.6300777","Longitude":"-61.1051660","Name":"Chemin Pelage"},{"Latitude":"14.5090106","Longitude":"-60.9626714","Name":"Chemin Perdaf"},{"Latitude":"14.6353120","Longitude":"-61.1012322","Name":"Chemin Petit Bois"},{"Latitude":"14.6553515","Longitude":"-60.9708437","Name":"Chemin Petite Riviére"},{"Latitude":"14.6340394","Longitude":"-61.0100431","Name":"Chemin Pierre Craspag"},{"Latitude":"14.5080584","Longitude":"-60.9455606","Name":"Chemin Pois Doux"},{"Latitude":"14.5297377","Longitude":"-60.9480225","Name":"Chemin Ravine Chien"},{"Latitude":"14.6948732","Longitude":"-60.9808379","Name":"Chemin Riviere Pomme"},{"Latitude":"14.6556152","Longitude":"-61.0845880","Name":"Chemin Rural Debahreme"},{"Latitude":"14.6503320","Longitude":"-61.0226407","Name":"Chemin Rural Du Cafiere"},{"Latitude":"14.5038528","Longitude":"-61.0717147","Name":"Chemin Rural de Cassière"},{"Latitude":"14.6876102","Longitude":"-61.1322137","Name":"Chemin Rural de L'Entenoire"},{"Latitude":"14.5373466","Longitude":"-60.9303628","Name":"Chemin Rémi Minot"},{"Latitude":"14.6675873","Longitude":"-61.0488003","Name":"Chemin Saffache"},{"Latitude":"14.5207088","Longitude":"-60.9594624","Name":"Chemin Sainville"},{"Latitude":"14.5208014","Longitude":"-60.9796272","Name":"Chemin Simon"},{"Latitude":"14.4655135","Longitude":"-60.9339419","Name":"Chemin Sud Top Matinik"},{"Latitude":"14.5357881","Longitude":"-60.9275734","Name":"Chemin Sévère Ozée"},{"Latitude":"14.6209721","Longitude":"-61.0142523","Name":"Chemin Tamaya"},{"Latitude":"14.6190049","Longitude":"-60.9111417","Name":"Chemin Trianon"},{"Latitude":"14.6993960","Longitude":"-60.9402516","Name":"Chemin Trou Lifride"},{"Latitude":"14.7026676","Longitude":"-60.9414956","Name":"Chemin Trou Man Lic"},{"Latitude":"14.5099251","Longitude":"-60.9982892","Name":"Chemin Victor Moussala"},{"Latitude":"14.6547550","Longitude":"-61.0342173","Name":"Chemin Villette"},{"Latitude":"14.6501308","Longitude":"-61.0131920","Name":"Chemin Violette"},{"Latitude":"14.6514659","Longitude":"-61.0358992","Name":"Chemin Virapin"},{"Latitude":"14.6350620","Longitude":"-61.0272078","Name":"Chemin Zephir"},{"Latitude":"14.5582641","Longitude":"-60.9546904","Name":"Chemin de Baringthon"},{"Latitude":"14.5110766","Longitude":"-60.9865155","Name":"Chemin de Bellevue"},{"Latitude":"14.7039412","Longitude":"-61.1239984","Name":"Chemin de Bernadette"},{"Latitude":"14.7726086","Longitude":"-61.0162618","Name":"Chemin de Bezaudin"},{"Latitude":"14.7330557","Longitude":"-60.9560048","Name":"Chemin de Bois Cotelette"},{"Latitude":"14.7064820","Longitude":"-61.0002330","Name":"Chemin de Bois D'Inde"},{"Latitude":"14.7261664","Longitude":"-60.9588146","Name":"Chemin de Bois Neuf"},{"Latitude":"14.5975912","Longitude":"-60.8874036","Name":"Chemin de Bois Soldat"},{"Latitude":"14.7469571","Longitude":"-60.9799846","Name":"Chemin de Brocade"},{"Latitude":"14.7002193","Longitude":"-60.9599759","Name":"Chemin de Café"},{"Latitude":"14.5239512","Longitude":"-60.9317875","Name":"Chemin de Caféière"},{"Latitude":"14.6158206","Longitude":"-61.0241398","Name":"Chemin de Californie"},{"Latitude":"14.7869970","Longitude":"-61.1369044","Name":"Chemin de Camp Chazeau"},{"Latitude":"14.7575515","Longitude":"-60.9670587","Name":"Chemin de Cosmy"},{"Latitude":"14.5468317","Longitude":"-60.9481869","Name":"Chemin de Courbaril"},{"Latitude":"14.7356534","Longitude":"-60.9677268","Name":"Chemin de Croix Guy"},{"Latitude":"14.6976775","Longitude":"-60.9858386","Name":"Chemin de Croix Odilon"},{"Latitude":"14.7687576","Longitude":"-61.1377770","Name":"Chemin de Fond Cacao"},{"Latitude":"14.5447990","Longitude":"-60.9425603","Name":"Chemin de Fond Masson"},{"Latitude":"14.7719957","Longitude":"-61.0128724","Name":"Chemin de Fourniols"},{"Latitude":"14.7273026","Longitude":"-60.9602479","Name":"Chemin de Gergault"},{"Latitude":"14.6882450","Longitude":"-61.0034010","Name":"Chemin de Glotin"},{"Latitude":"14.5441705","Longitude":"-60.9484659","Name":"Chemin de Glouglou"},{"Latitude":"14.7132873","Longitude":"-61.1458739","Name":"Chemin de Grande Ravine"},{"Latitude":"14.7384603","Longitude":"-60.9703025","Name":"Chemin de L'Eolienne"},{"Latitude":"14.7380923","Longitude":"-61.0060745","Name":"Chemin de La Levée"},{"Latitude":"14.6164467","Longitude":"-61.0955901","Name":"Chemin de Lavallée"},{"Latitude":"14.7001658","Longitude":"-60.9396365","Name":"Chemin de Lazaret"},{"Latitude":"14.7782480","Longitude":"-61.1379463","Name":"Chemin de Lourdes"},{"Latitude":"14.8729474","Longitude":"-61.1804425","Name":"Chemin de Malakoff"},{"Latitude":"14.5245458","Longitude":"-60.9287126","Name":"Chemin de Massonville"},{"Latitude":"14.7342306","Longitude":"-61.0033418","Name":"Chemin de Maximin"},{"Latitude":"14.4487669","Longitude":"-60.8594717","Name":"Chemin de Mondesir Pointe Sable"},{"Latitude":"14.7056445","Longitude":"-60.9642499","Name":"Chemin de Plaisable"},{"Latitude":"14.7240774","Longitude":"-60.9996033","Name":"Chemin de Poirier"},{"Latitude":"14.7077332","Longitude":"-61.1392923","Name":"Chemin de Quartier Jean"},{"Latitude":"14.5435788","Longitude":"-60.9462089","Name":"Chemin de Reprise"},{"Latitude":"14.5063584","Longitude":"-60.9827260","Name":"Chemin de Sagesse"},{"Latitude":"14.7343949","Longitude":"-60.9656610","Name":"Chemin de Savane Close"},{"Latitude":"14.7522414","Longitude":"-60.9244139","Name":"Chemin de Spoutourne"},{"Latitude":"14.6893869","Longitude":"-61.1352994","Name":"Chemin de Verrier à Chapeu Nègre"},{"Latitude":"14.7416197","Longitude":"-60.9503155","Name":"Chemin de l'AUtre Bord"},{"Latitude":"14.7423857","Longitude":"-60.9478917","Name":"Chemin de l'Autre Bord"},{"Latitude":"14.6893228","Longitude":"-61.1364405","Name":"Chemin de l'Entonnoir n°1"},{"Latitude":"14.6884515","Longitude":"-61.1354796","Name":"Chemin de l'Entonnoir n°2"},{"Latitude":"14.5658958","Longitude":"-60.9552346","Name":"Chemin de l'Espérance"},{"Latitude":"14.6991776","Longitude":"-60.9443307","Name":"Chemin de l'Estrade"},{"Latitude":"14.6904064","Longitude":"-60.9236345","Name":"Chemin de l'Ilet"},{"Latitude":"14.5650375","Longitude":"-60.9579925","Name":"Chemin de l'Or bleu"},{"Latitude":"14.5657013","Longitude":"-60.9439316","Name":"Chemin de l'Oranger"},{"Latitude":"14.7406695","Longitude":"-60.9740046","Name":"Chemin de la Brise"},{"Latitude":"14.5235702","Longitude":"-60.9731239","Name":"Chemin de la Canneraie"},{"Latitude":"14.5876354","Longitude":"-60.9711417","Name":"Chemin de la Cocoteraie"},{"Latitude":"14.7344461","Longitude":"-60.9638765","Name":"Chemin de la Colline"},{"Latitude":"14.7352704","Longitude":"-60.9442635","Name":"Chemin de la Dijon"},{"Latitude":"14.6360058","Longitude":"-61.0707041","Name":"Chemin de la Fontane"},{"Latitude":"14.6178712","Longitude":"-61.0767159","Name":"Chemin de la Houssaye"},{"Latitude":"14.7357266","Longitude":"-60.9643521","Name":"Chemin de la Maternité"},{"Latitude":"14.5267111","Longitude":"-60.9228350","Name":"Chemin de la Montfort"},{"Latitude":"14.7407218","Longitude":"-60.9702720","Name":"Chemin de la Mousson"},{"Latitude":"14.7426337","Longitude":"-60.9779547","Name":"Chemin de la Petite Rocade"},{"Latitude":"14.6196272","Longitude":"-60.8886312","Name":"Chemin de la Pointe Bateau"},{"Latitude":"14.7400735","Longitude":"-60.9479693","Name":"Chemin de la Pointe Marcussi"},{"Latitude":"14.5900619","Longitude":"-60.9757354","Name":"Chemin de la Repos"},{"Latitude":"14.5009140","Longitude":"-60.9477099","Name":"Chemin de la Rivière Oman"},{"Latitude":"14.6355203","Longitude":"-61.0231825","Name":"Chemin de la Source"},{"Latitude":"14.5538172","Longitude":"-60.9701894","Name":"Chemin des 3 Avé"},{"Latitude":"14.7018133","Longitude":"-61.1611944","Name":"Chemin des Aubergines"},{"Latitude":"14.6233116","Longitude":"-61.0200524","Name":"Chemin des Bambous"},{"Latitude":"14.6231715","Longitude":"-61.0133405","Name":"Chemin des Cerisiers"},{"Latitude":"14.5376296","Longitude":"-60.9278982","Name":"Chemin des Chachas"},{"Latitude":"14.6245264","Longitude":"-61.0155900","Name":"Chemin des Châtaigniers"},{"Latitude":"14.5597623","Longitude":"-60.9753157","Name":"Chemin des Cristallines"},{"Latitude":"14.7032358","Longitude":"-61.1586064","Name":"Chemin des Cycas"},{"Latitude":"14.7036955","Longitude":"-61.1604139","Name":"Chemin des Cycas 2"},{"Latitude":"14.6043310","Longitude":"-61.0788403","Name":"Chemin des Dardanelles"},{"Latitude":"14.5525005","Longitude":"-60.9652542","Name":"Chemin des Digues"},{"Latitude":"14.4689618","Longitude":"-60.9224283","Name":"Chemin des Eaux Découpées"},{"Latitude":"14.5632882","Longitude":"-60.9587054","Name":"Chemin des Ecoliers"},{"Latitude":"14.6978917","Longitude":"-61.1575853","Name":"Chemin des Filaos"},{"Latitude":"14.6260954","Longitude":"-61.0177890","Name":"Chemin des Flamboyants"},{"Latitude":"14.5624103","Longitude":"-60.9566519","Name":"Chemin des Frégates"},{"Latitude":"14.6969422","Longitude":"-61.1757859","Name":"Chemin des Glycerias"},{"Latitude":"14.5121217","Longitude":"-60.9409229","Name":"Chemin des Guatémalas"},{"Latitude":"14.8673306","Longitude":"-61.1276930","Name":"Chemin des Hauteurs Bourdon"},{"Latitude":"14.5695325","Longitude":"-60.9447958","Name":"Chemin des Icaquiers"},{"Latitude":"14.7261735","Longitude":"-60.9656616","Name":"Chemin des Lananiers"},{"Latitude":"14.5342190","Longitude":"-60.9312822","Name":"Chemin des Libéllules"},{"Latitude":"14.5780962","Longitude":"-60.9685113","Name":"Chemin des Mandariniers"},{"Latitude":"14.7488393","Longitude":"-60.9682260","Name":"Chemin des Ortolans"},{"Latitude":"14.7479517","Longitude":"-60.9673249","Name":"Chemin des Pipiris"},{"Latitude":"14.7323578","Longitude":"-60.9564997","Name":"Chemin des Pommes D'Eau"},{"Latitude":"14.7446886","Longitude":"-60.9673270","Name":"Chemin des Ramiers"},{"Latitude":"14.7472671","Longitude":"-60.9705770","Name":"Chemin des Rouges Gorges"},{"Latitude":"14.5071627","Longitude":"-60.9370485","Name":"Chemin des Sources"},{"Latitude":"14.5080762","Longitude":"-60.9860131","Name":"Chemin des Tamariniers"},{"Latitude":"14.5638483","Longitude":"-60.9373033","Name":"Chemin des Trois Gares"},{"Latitude":"14.5768715","Longitude":"-60.9627735","Name":"Chemin des Violettes"},{"Latitude":"14.6233914","Longitude":"-61.0113408","Name":"Chemin du Cacacoyer"},{"Latitude":"14.6230250","Longitude":"-61.0119237","Name":"Chemin du Cachiman"},{"Latitude":"14.5682802","Longitude":"-60.9486754","Name":"Chemin du Caïmitier"},{"Latitude":"14.5654935","Longitude":"-60.9394758","Name":"Chemin du Cerisier"},{"Latitude":"14.5674173","Longitude":"-60.9589735","Name":"Chemin du Courbaril"},{"Latitude":"14.7480851","Longitude":"-60.9654932","Name":"Chemin du Fall'Jaun"},{"Latitude":"14.6116795","Longitude":"-61.0032506","Name":"Chemin du Four à Chaud"},{"Latitude":"14.7229931","Longitude":"-60.9617711","Name":"Chemin du Galion"},{"Latitude":"14.6218850","Longitude":"-61.0089392","Name":"Chemin du Glycéria"},{"Latitude":"14.6200867","Longitude":"-61.0111693","Name":"Chemin du Gommier"},{"Latitude":"14.5683366","Longitude":"-60.9482075","Name":"Chemin du Goyavier"},{"Latitude":"14.5674062","Longitude":"-60.9419179","Name":"Chemin du Manguier"},{"Latitude":"14.6458107","Longitude":"-61.0748085","Name":"Chemin du Morne Larent"},{"Latitude":"14.7338685","Longitude":"-60.9615289","Name":"Chemin du Muletier"},{"Latitude":"14.7364793","Longitude":"-61.0065224","Name":"Chemin du Plateau"},{"Latitude":"14.7386802","Longitude":"-60.9691422","Name":"Chemin du Royaume"},{"Latitude":"14.5686617","Longitude":"-60.9472649","Name":"Chemin du Sapotillier"},{"Latitude":"14.6169042","Longitude":"-61.0858506","Name":"Chemin du Sud"},{"Latitude":"14.5639029","Longitude":"-60.9491304","Name":"Chemin du Tamarinier"},{"Latitude":"14.5815610","Longitude":"-60.9639929","Name":"Chemin en Seau"},{"Latitude":"14.5076720","Longitude":"-60.9906990","Name":"Chemin la Fleury"},{"Latitude":"14.5438276","Longitude":"-60.9320737","Name":"Chemin la Félix"},{"Latitude":"14.5229027","Longitude":"-60.9797575","Name":"Chemin la Laugier"},{"Latitude":"14.6965740","Longitude":"-60.9824830","Name":"Chemin la Nazaire"},{"Latitude":"14.5761355","Longitude":"-60.9542317","Name":"Chemin la Régis"},{"Latitude":"14.5872431","Longitude":"-60.9382570","Name":"Chemin la Saint Pierre"},{"Latitude":"14.6488195","Longitude":"-61.0163119","Name":"Chemin la Treize"},{"Latitude":"14.6473102","Longitude":"-61.0202563","Name":"Chemin la Treize, Voie 2"},{"Latitude":"14.5275496","Longitude":"-60.9697073","Name":"Chemin la Trenelle"},{"Latitude":"14.5902490","Longitude":"-60.9452547","Name":"Chemin rural de Fonds Marie Rose"},{"Latitude":"14.5940189","Longitude":"-60.9390828","Name":"Chemin rural de la Saint Pierre"},{"Latitude":"14.5459736","Longitude":"-60.9045263","Name":"Chemin rural dit de Morne Raidi"},{"Latitude":"14.5882412","Longitude":"-60.9429510","Name":"Chemin rural du Morne Ludger"},{"Latitude":"14.6203116","Longitude":"-61.0123646","Name":"Cheminn des Manceniliers"},{"Latitude":"14.6224977","Longitude":"-61.0134334","Name":"Chemn Du Courbaril"},{"Latitude":"14.5441082","Longitude":"-60.8359507","Name":"Cité Athanase"},{"Latitude":"14.5436584","Longitude":"-60.8358831","Name":"Cité Athanase 3"},{"Latitude":"14.6389406","Longitude":"-61.0994327","Name":"Cité Aubéry"},{"Latitude":"14.7425926","Longitude":"-60.9473879","Name":"Cité Beauséjour"},{"Latitude":"14.4724847","Longitude":"-60.8707779","Name":"Cité Diaka"},{"Latitude":"14.4330722","Longitude":"-60.8816218","Name":"Cité Flamboyants"},{"Latitude":"14.5324507","Longitude":"-60.9840202","Name":"Cité Lafayette"},{"Latitude":"14.5639328","Longitude":"-60.9330084","Name":"Cité Les Cocotiers"},{"Latitude":"14.5637154","Longitude":"-60.9336930","Name":"Cité Les Gommiers"},{"Latitude":"14.4762860","Longitude":"-60.8738397","Name":"Cité Mongérald"},{"Latitude":"14.6254099","Longitude":"-61.0584842","Name":"Cité Ozanam Redoute"},{"Latitude":"14.4461871","Longitude":"-60.8798039","Name":"Cité Pointe Marin"},{"Latitude":"14.6107802","Longitude":"-61.0917642","Name":"Cité Roy Camille"},{"Latitude":"14.6072831","Longitude":"-61.0929689","Name":"Cité Saint-Georges Nord"},{"Latitude":"14.6054090","Longitude":"-61.0930957","Name":"Cité Saint-Georges Sud"},{"Latitude":"14.5472024","Longitude":"-60.8382582","Name":"Cité le Jeune Voie N°1"},{"Latitude":"14.5472945","Longitude":"-60.8376737","Name":"Cité le Jeune Voie N°2"},{"Latitude":"14.5470116","Longitude":"-60.8381551","Name":"Cité le Jeune Voie N°3"},{"Latitude":"14.6121398","Longitude":"-61.0886656","Name":"Cité les Poiriers"},{"Latitude":"14.7813000","Longitude":"-60.9946914","Name":"Cours de l'Alliance"},{"Latitude":"14.6177837","Longitude":"-60.9386799","Name":"Desroses"},{"Latitude":"14.7494973","Longitude":"-61.0376327","Name":"Domaine de Beaufort"},{"Latitude":"14.6245530","Longitude":"-61.0722524","Name":"Domaine de Bellevue"},{"Latitude":"14.6323181","Longitude":"-61.0594619","Name":"Domaine de la Charmeuse"},{"Latitude":"14.7508901","Longitude":"-60.9686035","Name":"Entreé Des Bougainvillea"},{"Latitude":"14.7515747","Longitude":"-60.9719958","Name":"Entreé Morne Man Colin"},{"Latitude":"14.7485084","Longitude":"-60.9724849","Name":"Entré Des Morne Figue"},{"Latitude":"14.7369327","Longitude":"-60.9739626","Name":"Entré Du Papayer"},{"Latitude":"14.6279709","Longitude":"-61.0612891","Name":"Entrée Bocharel"},{"Latitude":"14.7372874","Longitude":"-60.9761364","Name":"Entrée de Sirocco"},{"Latitude":"14.7391729","Longitude":"-60.9744444","Name":"Entrée de la Bourrasque"},{"Latitude":"14.7394228","Longitude":"-60.9725067","Name":"Entrée de la Tornade"},{"Latitude":"14.7457238","Longitude":"-60.9662159","Name":"Entrée des Aigrettes"},{"Latitude":"14.7491392","Longitude":"-60.9702147","Name":"Entrée des Grives"},{"Latitude":"14.7437351","Longitude":"-60.9694043","Name":"Entrée des Mésanges"},{"Latitude":"14.7401497","Longitude":"-60.9707511","Name":"Entrée du BAC Dadou"},{"Latitude":"14.6030353","Longitude":"-61.0928085","Name":"Fonds Batelière"},{"Latitude":"14.5369248","Longitude":"-60.8824315","Name":"Fonds Gens Libres"},{"Latitude":"14.6046034","Longitude":"-60.8764192","Name":"Frégate est 3"},{"Latitude":"14.6042626","Longitude":"-60.8749499","Name":"Frégate est 4"},{"Latitude":"14.8211024","Longitude":"-61.2269165","Name":"Gite La Marie"},{"Latitude":"14.7454371","Longitude":"-60.9455323","Name":"Grande Avenue"},{"Latitude":"14.5805351","Longitude":"-60.9546849","Name":"Grande Savane"},{"Latitude":"14.5783627","Longitude":"-60.9550564","Name":"Grande Savane Fond Brule"},{"Latitude":"14.4302058","Longitude":"-60.8838602","Name":"Habitation Caritan"},{"Latitude":"14.8314049","Longitude":"-61.2241071","Name":"Habitation Céron"},{"Latitude":"14.5389339","Longitude":"-61.0592832","Name":"Hameau d'Alet"},{"Latitude":"14.5131275","Longitude":"-60.8256932","Name":"Hôtel Macabou"},{"Latitude":"14.7963723","Longitude":"-61.0065731","Name":"I P Emeraude"},{"Latitude":"14.6334183","Longitude":"-61.0484576","Name":"I P Rafael Venturi"},{"Latitude":"14.6322196","Longitude":"-61.0532520","Name":"Imp Marie Therése Armede"},{"Latitude":"14.6201180","Longitude":"-61.0405029","Name":"Imp Rene Braban"},{"Latitude":"14.5651674","Longitude":"-60.9443909","Name":"Impase de l'Oranger"},{"Latitude":"14.5631737","Longitude":"-60.9441201","Name":"Impase des 2 Sources"},{"Latitude":"14.5648153","Longitude":"-60.9431262","Name":"Impase du Mandarinier"},{"Latitude":"14.6228957","Longitude":"-61.0218926","Name":"Impasse Acomat"},{"Latitude":"14.6923469","Longitude":"-60.9735985","Name":"Impasse Adolphe et Agnès Maignant"},{"Latitude":"14.7633637","Longitude":"-60.9804382","Name":"Impasse Adoudou"},{"Latitude":"14.4330722","Longitude":"-60.8816218","Name":"Impasse Aimé Césaire"},{"Latitude":"14.6383287","Longitude":"-61.0517339","Name":"Impasse Albert Moscou"},{"Latitude":"14.6250111","Longitude":"-61.0130389","Name":"Impasse Altamira"},{"Latitude":"14.7634050","Longitude":"-60.9817409","Name":"Impasse Amilka"},{"Latitude":"14.7921149","Longitude":"-60.9989556","Name":"Impasse Ancienne Tannerie"},{"Latitude":"14.7405316","Longitude":"-60.9466228","Name":"Impasse Anse Bellegarde"},{"Latitude":"14.6082041","Longitude":"-61.0513910","Name":"Impasse Antoine Vitez"},{"Latitude":"14.6851184","Longitude":"-60.9334034","Name":"Impasse Bacouna"},{"Latitude":"14.7359339","Longitude":"-60.9580513","Name":"Impasse Baldiri"},{"Latitude":"14.6120027","Longitude":"-60.9857938","Name":"Impasse Ballerina"},{"Latitude":"14.6384526","Longitude":"-61.0662295","Name":"Impasse Beau Soleil"},{"Latitude":"14.6181258","Longitude":"-60.9992003","Name":"Impasse Belcourt"},{"Latitude":"14.6151636","Longitude":"-61.0033161","Name":"Impasse Bellegarde"},{"Latitude":"14.6218281","Longitude":"-61.0191282","Name":"Impasse Bois Café"},{"Latitude":"14.6276737","Longitude":"-61.0190505","Name":"Impasse Bois D'Amourette"},{"Latitude":"14.6226216","Longitude":"-61.0154824","Name":"Impasse Campeche"},{"Latitude":"14.6230815","Longitude":"-60.9960182","Name":"Impasse Canne Bleue"},{"Latitude":"14.6287036","Longitude":"-61.1160807","Name":"Impasse Cannelle"},{"Latitude":"14.6118782","Longitude":"-60.9864263","Name":"Impasse Carmel"},{"Latitude":"14.6326779","Longitude":"-61.0182305","Name":"Impasse Cassis"},{"Latitude":"14.6838976","Longitude":"-60.9371934","Name":"Impasse Charles Louisor"},{"Latitude":"14.6238487","Longitude":"-61.0229072","Name":"Impasse Charpentier"},{"Latitude":"14.6272787","Longitude":"-61.0216466","Name":"Impasse Christophine"},{"Latitude":"14.6156108","Longitude":"-60.9861416","Name":"Impasse Citronnelle"},{"Latitude":"14.6381804","Longitude":"-61.0217316","Name":"Impasse Clemencin Voie 2"},{"Latitude":"14.7622595","Longitude":"-60.9859061","Name":"Impasse Corossol"},{"Latitude":"14.5996312","Longitude":"-61.0545698","Name":"Impasse Cé ma Faute"},{"Latitude":"14.6223909","Longitude":"-61.0127212","Name":"Impasse Côtelette"},{"Latitude":"14.6162945","Longitude":"-61.1008356","Name":"Impasse Dagain"},{"Latitude":"14.7823243","Longitude":"-61.1338001","Name":"Impasse Demathias"},{"Latitude":"14.8045785","Longitude":"-61.0183423","Name":"Impasse Des Cultivareurs"},{"Latitude":"14.6948037","Longitude":"-61.1734345","Name":"Impasse Des Fleurs"},{"Latitude":"14.6346901","Longitude":"-61.0196807","Name":"Impasse Des Palmiers"},{"Latitude":"14.5778645","Longitude":"-60.9779186","Name":"Impasse Des Pois Doux"},{"Latitude":"14.6222939","Longitude":"-61.0840148","Name":"Impasse Du Petite Prince"},{"Latitude":"14.6272338","Longitude":"-61.0498005","Name":"Impasse Emiro"},{"Latitude":"14.6148645","Longitude":"-61.0543269","Name":"Impasse Emmanuel"},{"Latitude":"14.6072836","Longitude":"-61.0599373","Name":"Impasse Ernestine Andrée Céleste"},{"Latitude":"14.5764788","Longitude":"-60.9742359","Name":"Impasse Eudaric"},{"Latitude":"14.6304256","Longitude":"-61.1045956","Name":"Impasse Eulalie"},{"Latitude":"14.6290365","Longitude":"-61.1148601","Name":"Impasse Fond Bernier"},{"Latitude":"14.6070872","Longitude":"-61.0841737","Name":"Impasse Frantz Fanon"},{"Latitude":"14.6425742","Longitude":"-61.0236340","Name":"Impasse Gervais"},{"Latitude":"14.5987274","Longitude":"-61.0564314","Name":"Impasse Gwenzo"},{"Latitude":"14.6138683","Longitude":"-60.9864339","Name":"Impasse Hibiscus"},{"Latitude":"14.6329387","Longitude":"-61.0159366","Name":"Impasse Jacaranda"},{"Latitude":"14.6199161","Longitude":"-61.0303843","Name":"Impasse Jonquille"},{"Latitude":"14.6198663","Longitude":"-61.0299214","Name":"Impasse Jonquille 1"},{"Latitude":"14.6196577","Longitude":"-61.0300184","Name":"Impasse Jonquille 2"},{"Latitude":"14.5431729","Longitude":"-60.8362738","Name":"Impasse Landa"},{"Latitude":"14.5986553","Longitude":"-60.9949417","Name":"Impasse Lareinty 1"},{"Latitude":"14.6485432","Longitude":"-61.0568287","Name":"Impasse Latanier"},{"Latitude":"14.5667185","Longitude":"-60.9517541","Name":"Impasse Les Coquelicots"},{"Latitude":"14.5666677","Longitude":"-60.9493081","Name":"Impasse Les Ixoras"},{"Latitude":"14.5671550","Longitude":"-60.9493910","Name":"Impasse Les Lauriers"},{"Latitude":"14.5670631","Longitude":"-60.9509191","Name":"Impasse Les Plumbagos"},{"Latitude":"14.5665862","Longitude":"-60.9481595","Name":"Impasse Les Rosiers"},{"Latitude":"14.6228090","Longitude":"-61.0584703","Name":"Impasse Madere"},{"Latitude":"14.6290227","Longitude":"-61.0276627","Name":"Impasse Mahogany"},{"Latitude":"14.7758152","Longitude":"-60.9924925","Name":"Impasse Man Tine"},{"Latitude":"14.5726320","Longitude":"-60.9582119","Name":"Impasse Mango Fil"},{"Latitude":"14.6268943","Longitude":"-61.0191309","Name":"Impasse Mangot Vert"},{"Latitude":"14.5643463","Longitude":"-60.9606113","Name":"Impasse Manioc"},{"Latitude":"14.7650502","Longitude":"-60.9812142","Name":"Impasse Massissi"},{"Latitude":"14.6086429","Longitude":"-61.0141746","Name":"Impasse Morne Cabri"},{"Latitude":"14.7640867","Longitude":"-60.9846173","Name":"Impasse Mounzi"},{"Latitude":"14.6254404","Longitude":"-61.0207499","Name":"Impasse Musenda"},{"Latitude":"14.6743605","Longitude":"-60.9403611","Name":"Impasse Nicolas Labiche"},{"Latitude":"14.6252929","Longitude":"-61.1101037","Name":"Impasse Norley"},{"Latitude":"14.8685849","Longitude":"-61.1144327","Name":"Impasse Noël Augustin"},{"Latitude":"14.5765437","Longitude":"-60.9527767","Name":"Impasse Octave"},{"Latitude":"14.6227237","Longitude":"-61.0232015","Name":"Impasse Olive"},{"Latitude":"14.6220087","Longitude":"-61.0829665","Name":"Impasse Osiris"},{"Latitude":"14.6252545","Longitude":"-61.0236434","Name":"Impasse Paquerette"},{"Latitude":"14.6681312","Longitude":"-60.9825850","Name":"Impasse Plancel"},{"Latitude":"14.6249829","Longitude":"-61.0124876","Name":"Impasse Prune Moubin"},{"Latitude":"14.6250111","Longitude":"-61.0130389","Name":"Impasse Prune de Cythère"},{"Latitude":"14.6297609","Longitude":"-61.0279622","Name":"Impasse Pécome"},{"Latitude":"14.6270432","Longitude":"-61.1040248","Name":"Impasse Ramedace"},{"Latitude":"14.6227000","Longitude":"-61.0532780","Name":"Impasse René Barclay"},{"Latitude":"14.6215034","Longitude":"-61.0244318","Name":"Impasse Reseda"},{"Latitude":"14.6284622","Longitude":"-61.0224111","Name":"Impasse Rivière"},{"Latitude":"14.8044247","Longitude":"-61.0089608","Name":"Impasse Rocher"},{"Latitude":"14.8712202","Longitude":"-61.1225034","Name":"Impasse Roucouyer"},{"Latitude":"14.6119087","Longitude":"-60.9870625","Name":"Impasse Rouge Gorge"},{"Latitude":"14.6129174","Longitude":"-61.0546489","Name":"Impasse Saint-Christophe"},{"Latitude":"14.6223793","Longitude":"-61.0175684","Name":"Impasse Saint-James"},{"Latitude":"14.6482242","Longitude":"-61.0225779","Name":"Impasse Soudes"},{"Latitude":"14.6206656","Longitude":"-61.0169814","Name":"Impasse St James"},{"Latitude":"14.6243414","Longitude":"-61.0233262","Name":"Impasse Sureau"},{"Latitude":"14.6333864","Longitude":"-61.0160586","Name":"Impasse Tabebuia"},{"Latitude":"14.6129039","Longitude":"-60.9871377","Name":"Impasse Tendre Passion"},{"Latitude":"14.6070637","Longitude":"-61.0517509","Name":"Impasse Ti-Émile Casérus"},{"Latitude":"14.6403553","Longitude":"-61.0599983","Name":"Impasse Tire d'Aile"},{"Latitude":"14.7360378","Longitude":"-60.9583217","Name":"Impasse Toloman"},{"Latitude":"14.8736162","Longitude":"-61.1811690","Name":"Impasse Totor Louisin"},{"Latitude":"14.7600865","Longitude":"-60.9872451","Name":"Impasse Tourbillon"},{"Latitude":"14.6238235","Longitude":"-61.0210175","Name":"Impasse Valverde"},{"Latitude":"14.6344604","Longitude":"-61.0263755","Name":"Impasse Vilata"},{"Latitude":"14.6218010","Longitude":"-61.0846190","Name":"Impasse Yucca"},{"Latitude":"14.5668757","Longitude":"-60.9573639","Name":"Impasse de Bellevue"},{"Latitude":"14.4338422","Longitude":"-60.8811205","Name":"Impasse de Marguerite"},{"Latitude":"14.6229370","Longitude":"-61.0540774","Name":"Impasse de Moutte"},{"Latitude":"14.5737149","Longitude":"-60.9724284","Name":"Impasse de l'Abreuvoir"},{"Latitude":"14.5617637","Longitude":"-60.9411149","Name":"Impasse de l'Abricotier"},{"Latitude":"14.6124201","Longitude":"-61.0613965","Name":"Impasse de l'Ajoupa"},{"Latitude":"14.5638661","Longitude":"-60.9387349","Name":"Impasse de l'Amandier"},{"Latitude":"14.6261287","Longitude":"-61.0751182","Name":"Impasse de l'Andésite"},{"Latitude":"14.6069373","Longitude":"-61.0534057","Name":"Impasse de l'Angelin"},{"Latitude":"14.8671519","Longitude":"-61.1218202","Name":"Impasse de l'Azalée"},{"Latitude":"14.6131128","Longitude":"-61.0540663","Name":"Impasse de l'ENtrepot"},{"Latitude":"14.6860293","Longitude":"-60.9304487","Name":"Impasse de l'Habitation"},{"Latitude":"14.6365243","Longitude":"-61.0659414","Name":"Impasse de l'Harmonie"},{"Latitude":"14.8654902","Longitude":"-61.1203744","Name":"Impasse de l'Hibiscus"},{"Latitude":"14.7775033","Longitude":"-60.9941364","Name":"Impasse de l'Économe"},{"Latitude":"14.6095280","Longitude":"-61.0613330","Name":"Impasse de la Anse"},{"Latitude":"14.6081299","Longitude":"-61.0506075","Name":"Impasse de la Bonne Cuisine"},{"Latitude":"14.6253474","Longitude":"-61.1086643","Name":"Impasse de la Boucle"},{"Latitude":"14.5789181","Longitude":"-60.9799308","Name":"Impasse de la Case à Vent"},{"Latitude":"14.5766317","Longitude":"-60.9776155","Name":"Impasse de la Cassave"},{"Latitude":"14.7341729","Longitude":"-60.9627069","Name":"Impasse de la Colline"},{"Latitude":"14.6090713","Longitude":"-61.0552984","Name":"Impasse de la Glacière"},{"Latitude":"14.6137553","Longitude":"-61.0832592","Name":"Impasse de la Guyane"},{"Latitude":"14.6285962","Longitude":"-61.0390199","Name":"Impasse de la Lanterne"},{"Latitude":"14.5318321","Longitude":"-60.9819558","Name":"Impasse de la Marine"},{"Latitude":"14.7116249","Longitude":"-61.0013228","Name":"Impasse de la Maternelle"},{"Latitude":"14.6291828","Longitude":"-61.1041922","Name":"Impasse de la Perruche"},{"Latitude":"14.6264965","Longitude":"-61.1050868","Name":"Impasse de la Quenette"},{"Latitude":"14.6126990","Longitude":"-61.0555062","Name":"Impasse de la Ravine"},{"Latitude":"14.5737750","Longitude":"-60.9730268","Name":"Impasse de la Sablière"},{"Latitude":"14.5766554","Longitude":"-60.9533668","Name":"Impasse de la Saveur"},{"Latitude":"14.6395266","Longitude":"-61.0561436","Name":"Impasse de la Venelle"},{"Latitude":"14.6245996","Longitude":"-61.0213121","Name":"Impasse des Acacias"},{"Latitude":"14.6059550","Longitude":"-61.0913729","Name":"Impasse des Affranchis"},{"Latitude":"14.5003735","Longitude":"-61.0817342","Name":"Impasse des Alamandas"},{"Latitude":"14.7775383","Longitude":"-60.9927920","Name":"Impasse des Amareuses"},{"Latitude":"14.6930662","Longitude":"-60.9763619","Name":"Impasse des Ananas"},{"Latitude":"14.6424259","Longitude":"-61.0997883","Name":"Impasse des Arums"},{"Latitude":"14.7132327","Longitude":"-61.1801578","Name":"Impasse des Bleuets"},{"Latitude":"14.5008191","Longitude":"-61.0822370","Name":"Impasse des Bougainvilliers"},{"Latitude":"14.7768167","Longitude":"-60.9919496","Name":"Impasse des Capresses"},{"Latitude":"14.4789755","Longitude":"-61.0306042","Name":"Impasse des Chadek"},{"Latitude":"14.5795268","Longitude":"-60.9675043","Name":"Impasse des Citroniers"},{"Latitude":"14.5938231","Longitude":"-60.9402445","Name":"Impasse des Coccinelles"},{"Latitude":"14.7058435","Longitude":"-60.9173948","Name":"Impasse des Colibris"},{"Latitude":"14.6217357","Longitude":"-61.0135361","Name":"Impasse des Coquelicots"},{"Latitude":"14.7767845","Longitude":"-60.9898851","Name":"Impasse des Cosmonautes"},{"Latitude":"14.5762135","Longitude":"-60.9537808","Name":"Impasse des Délices"},{"Latitude":"14.4670554","Longitude":"-61.0654127","Name":"Impasse des Filaos"},{"Latitude":"14.6963364","Longitude":"-60.9151637","Name":"Impasse des Flamboyants"},{"Latitude":"14.7826928","Longitude":"-60.9945263","Name":"Impasse des Fleurs"},{"Latitude":"14.6020549","Longitude":"-61.0911352","Name":"Impasse des Glycines"},{"Latitude":"14.6325096","Longitude":"-61.0221020","Name":"Impasse des Goyaviers"},{"Latitude":"14.7790227","Longitude":"-60.9927805","Name":"Impasse des Hameaux"},{"Latitude":"14.6807213","Longitude":"-60.9293783","Name":"Impasse des Icaques"},{"Latitude":"14.5692302","Longitude":"-60.9454997","Name":"Impasse des Icaquiers"},{"Latitude":"14.6410804","Longitude":"-61.1005155","Name":"Impasse des Iris"},{"Latitude":"14.5978613","Longitude":"-61.0570186","Name":"Impasse des Kamos"},{"Latitude":"14.6213257","Longitude":"-61.0213956","Name":"Impasse des Lauriers"},{"Latitude":"14.6515512","Longitude":"-61.0145715","Name":"Impasse des Lilas"},{"Latitude":"14.6282590","Longitude":"-61.0391888","Name":"Impasse des Mangots Verts"},{"Latitude":"14.5977927","Longitude":"-60.9403275","Name":"Impasse des Merles"},{"Latitude":"14.6130076","Longitude":"-61.0550761","Name":"Impasse des Muguets"},{"Latitude":"14.6337722","Longitude":"-61.0205308","Name":"Impasse des Palmiers"},{"Latitude":"14.6339460","Longitude":"-61.0205183","Name":"Impasse des Palmiers 2"},{"Latitude":"14.6329526","Longitude":"-61.0184992","Name":"Impasse des Papayers"},{"Latitude":"14.5976789","Longitude":"-61.0569520","Name":"Impasse des Pisyetes"},{"Latitude":"14.5779894","Longitude":"-60.9618157","Name":"Impasse des Prunes"},{"Latitude":"14.6142165","Longitude":"-61.0933301","Name":"Impasse des Quissys"},{"Latitude":"14.6225627","Longitude":"-61.1022420","Name":"Impasse des Rayons Verts"},{"Latitude":"14.5357113","Longitude":"-60.9268517","Name":"Impasse des Rois Bois"},{"Latitude":"14.7137517","Longitude":"-61.1815102","Name":"Impasse des Rosiers"},{"Latitude":"14.6118281","Longitude":"-61.0947348","Name":"Impasse des Rutacées"},{"Latitude":"14.6119369","Longitude":"-61.0952032","Name":"Impasse des Sapotilles"},{"Latitude":"14.6140973","Longitude":"-61.0940176","Name":"Impasse des Thomazeau"},{"Latitude":"14.7059574","Longitude":"-60.9163442","Name":"Impasse des Tourterelles"},{"Latitude":"14.5764263","Longitude":"-60.9543710","Name":"Impasse des Tropiques"},{"Latitude":"14.5762746","Longitude":"-60.9654404","Name":"Impasse des Trèfles Caraïbes"},{"Latitude":"14.7428293","Longitude":"-61.0177910","Name":"Impasse des Voyageurs"},{"Latitude":"14.5979646","Longitude":"-61.0569594","Name":"Impasse des Watalibi"},{"Latitude":"14.6857777","Longitude":"-60.9336638","Name":"Impasse des Zagayas"},{"Latitude":"14.6031075","Longitude":"-60.9466117","Name":"Impasse des mornes"},{"Latitude":"14.7783228","Longitude":"-60.9939635","Name":"Impasse du Bac"},{"Latitude":"14.6237592","Longitude":"-61.0618699","Name":"Impasse du Basilic"},{"Latitude":"14.6256142","Longitude":"-61.0134606","Name":"Impasse du Caconier"},{"Latitude":"14.6184757","Longitude":"-61.0539856","Name":"Impasse du Calebassier"},{"Latitude":"14.6100270","Longitude":"-61.0613302","Name":"Impasse du Carbet"},{"Latitude":"14.5381672","Longitude":"-60.9295111","Name":"Impasse du Caïali"},{"Latitude":"14.5666136","Longitude":"-60.9406652","Name":"Impasse du Cerisier"},{"Latitude":"14.6901267","Longitude":"-60.9741297","Name":"Impasse du Chateau"},{"Latitude":"14.7437363","Longitude":"-61.0161522","Name":"Impasse du Cimetière"},{"Latitude":"14.7769532","Longitude":"-60.9938424","Name":"Impasse du Commandeur"},{"Latitude":"14.7103897","Longitude":"-61.1837495","Name":"Impasse du Corail"},{"Latitude":"14.7450600","Longitude":"-60.9431915","Name":"Impasse du Figuier"},{"Latitude":"14.6824588","Longitude":"-60.9297290","Name":"Impasse du Fromager"},{"Latitude":"14.6165347","Longitude":"-61.0612246","Name":"Impasse du Gwoka"},{"Latitude":"14.7764011","Longitude":"-60.9935277","Name":"Impasse du Géreur"},{"Latitude":"14.6378007","Longitude":"-61.0517264","Name":"Impasse du Hameau Fleuri"},{"Latitude":"14.8659780","Longitude":"-61.1202400","Name":"Impasse du Jasmin"},{"Latitude":"14.6219220","Longitude":"-61.1069920","Name":"Impasse du Lido"},{"Latitude":"14.6142912","Longitude":"-61.0794433","Name":"Impasse du Lotissement Berte"},{"Latitude":"14.6768722","Longitude":"-60.9414653","Name":"Impasse du Manguier"},{"Latitude":"14.5789388","Longitude":"-60.9804670","Name":"Impasse du Manioc"},{"Latitude":"14.6400815","Longitude":"-61.0390798","Name":"Impasse du Merisier"},{"Latitude":"14.6257492","Longitude":"-61.1045047","Name":"Impasse du Morne"},{"Latitude":"14.5625028","Longitude":"-60.9316038","Name":"Impasse du Muguet"},{"Latitude":"14.6147626","Longitude":"-61.0595923","Name":"Impasse du Petit Couvent"},{"Latitude":"14.5723049","Longitude":"-60.9784228","Name":"Impasse du Pipiri"},{"Latitude":"14.6125759","Longitude":"-61.0633158","Name":"Impasse du Plantin"},{"Latitude":"14.6172532","Longitude":"-61.0883459","Name":"Impasse du Poète"},{"Latitude":"14.7107437","Longitude":"-61.1820059","Name":"Impasse du Père Dionisi"},{"Latitude":"14.8709924","Longitude":"-61.1222179","Name":"Impasse du Raisinier"},{"Latitude":"14.6107198","Longitude":"-61.0956153","Name":"Impasse du Ramier"},{"Latitude":"14.5735938","Longitude":"-60.9800426","Name":"Impasse du Siffleur"},{"Latitude":"14.6199717","Longitude":"-61.0548954","Name":"Impasse du Verger"},{"Latitude":"14.5606442","Longitude":"-60.9350675","Name":"Impasse du Vetiver"},{"Latitude":"14.5950098","Longitude":"-60.9521484","Name":"Impasse la Colline"},{"Latitude":"14.6221933","Longitude":"-61.0203898","Name":"Impasse Églantine"},{"Latitude":"14.5636198","Longitude":"-60.9413195","Name":"La Ferme"},{"Latitude":"14.8276850","Longitude":"-61.1099986","Name":"La Racine"},{"Latitude":"14.6238884","Longitude":"-60.9427298","Name":"La Richard"},{"Latitude":"14.6627322","Longitude":"-61.0859766","Name":"La Trace"},{"Latitude":"14.4476691","Longitude":"-60.8817935","Name":"Les Boucaniers"},{"Latitude":"14.6282542","Longitude":"-61.0484718","Name":"Les Mages"},{"Latitude":"14.6349092","Longitude":"-61.0537421","Name":"Les Tuille Roses"},{"Latitude":"14.6317034","Longitude":"-61.0067765","Name":"Long Pré"},{"Latitude":"14.7357900","Longitude":"-60.9546225","Name":"Lot. Le Raisinier"},{"Latitude":"14.7464373","Longitude":"-60.9769887","Name":"Lot. les Dominants"},{"Latitude":"14.4727749","Longitude":"-61.0444226","Name":"Lotissement Anse Bleue"},{"Latitude":"14.4686945","Longitude":"-60.9561324","Name":"Lotissement Anse Mabouyas"},{"Latitude":"14.6271696","Longitude":"-61.0744146","Name":"Lotissement Athanase"},{"Latitude":"14.6898670","Longitude":"-60.9355504","Name":"Lotissement Beau Site"},{"Latitude":"14.6222630","Longitude":"-61.0184172","Name":"Lotissement Bellevue"},{"Latitude":"14.7333344","Longitude":"-60.9719346","Name":"Lotissement Brin d'Amour"},{"Latitude":"14.5353019","Longitude":"-61.0402142","Name":"Lotissement Canne à Sucre"},{"Latitude":"14.6190706","Longitude":"-61.0957224","Name":"Lotissement Case Navire"},{"Latitude":"14.5708263","Longitude":"-60.9846945","Name":"Lotissement Cocotte"},{"Latitude":"14.6241419","Longitude":"-61.0711158","Name":"Lotissement Domaine De Bellevue"},{"Latitude":"14.6242165","Longitude":"-61.0741862","Name":"Lotissement Dormoy"},{"Latitude":"14.6182008","Longitude":"-61.0806678","Name":"Lotissement Duplan"},{"Latitude":"14.6152236","Longitude":"-61.0978008","Name":"Lotissement Flamboyants"},{"Latitude":"14.7499880","Longitude":"-61.1678796","Name":"Lotissement Jardin Des Plantes"},{"Latitude":"14.4874964","Longitude":"-61.0779312","Name":"Lotissement La Batterie"},{"Latitude":"14.5857849","Longitude":"-60.9471460","Name":"Lotissement La Bon Temps"},{"Latitude":"14.6231845","Longitude":"-61.0707116","Name":"Lotissement La Carrière"},{"Latitude":"14.7604852","Longitude":"-60.9134785","Name":"Lotissement La Distillerie"},{"Latitude":"14.5469608","Longitude":"-60.8575492","Name":"Lotissement Le Point de Vue"},{"Latitude":"14.5887812","Longitude":"-60.9760293","Name":"Lotissement Le Vallon"},{"Latitude":"14.5017341","Longitude":"-60.9731609","Name":"Lotissement Les 3 Poiriers"},{"Latitude":"14.6264475","Longitude":"-61.0577539","Name":"Lotissement Les Alizés"},{"Latitude":"14.5746519","Longitude":"-60.9813612","Name":"Lotissement Les Goyaviers"},{"Latitude":"14.5477641","Longitude":"-60.8551374","Name":"Lotissement Les Hauts de Sigy"},{"Latitude":"14.5224191","Longitude":"-60.9689459","Name":"Lotissement Les Ibis Thoraille"},{"Latitude":"14.4474106","Longitude":"-60.8384545","Name":"Lotissement Les Mahoganys"},{"Latitude":"14.5097951","Longitude":"-60.8251555","Name":"Lotissement Macabou"},{"Latitude":"14.6220507","Longitude":"-61.0756115","Name":"Lotissement Modeste"},{"Latitude":"14.6822648","Longitude":"-60.9432727","Name":"Lotissement Moulin à Vent"},{"Latitude":"14.4894415","Longitude":"-61.0760665","Name":"Lotissement Oxygène"},{"Latitude":"14.4767693","Longitude":"-60.9625260","Name":"Lotissement Panoramique"},{"Latitude":"14.6241658","Longitude":"-61.1051304","Name":"Lotissement Petit Tamarin"},{"Latitude":"14.6251112","Longitude":"-61.0737973","Name":"Lotissement Rochers Union"},{"Latitude":"14.6170641","Longitude":"-61.0829821","Name":"Lotissement Sainte-Marie"},{"Latitude":"14.5411783","Longitude":"-60.8409093","Name":"Lotissement Sigy"},{"Latitude":"14.6721617","Longitude":"-60.9472516","Name":"Lotissement Sémaphore"},{"Latitude":"14.6792574","Longitude":"-60.9288671","Name":"Lotissement aux Quatre Vents"},{"Latitude":"14.6315092","Longitude":"-61.0201554","Name":"Lotissement la Brise"},{"Latitude":"14.6405724","Longitude":"-61.0721441","Name":"Lotissement la Fontane"},{"Latitude":"14.6404171","Longitude":"-61.0772415","Name":"Lotissement la Norville"},{"Latitude":"14.5426563","Longitude":"-60.8388198","Name":"Lotissement la Porte du Grand Sud"},{"Latitude":"14.6484176","Longitude":"-61.0597966","Name":"Lotissement les Abricots"},{"Latitude":"14.6341584","Longitude":"-61.0560609","Name":"Lotissement les Cerisiers"},{"Latitude":"14.6354878","Longitude":"-61.0728693","Name":"Lotissement les Colibris"},{"Latitude":"14.6481697","Longitude":"-61.0604781","Name":"Lotissement les Hameaux de la Vallée"},{"Latitude":"14.6276600","Longitude":"-61.0559223","Name":"Lotissement les Merveilles"},{"Latitude":"14.6411310","Longitude":"-61.0564410","Name":"Lotissement les Mimosas"},{"Latitude":"14.6356899","Longitude":"-61.0726006","Name":"Lotissement les Pitons"},{"Latitude":"14.6355869","Longitude":"-61.0727983","Name":"Lotissement les Vallons"},{"Latitude":"14.6287716","Longitude":"-61.0960987","Name":"Lotissement Émeraude"},{"Latitude":"14.6982707","Longitude":"-60.9151959","Name":"Montée des Palmiers"},{"Latitude":"14.7067195","Longitude":"-60.9174663","Name":"Montée du Clapotage"},{"Latitude":"14.7401890","Longitude":"-60.9643424","Name":"Morne Doudou"},{"Latitude":"14.6059469","Longitude":"-60.9442808","Name":"Morne L'Enfer 1"},{"Latitude":"14.6081111","Longitude":"-60.9441648","Name":"Morne L'Enfer 2"},{"Latitude":"14.6095995","Longitude":"-60.9450788","Name":"Morne Pitault"},{"Latitude":"14.6237841","Longitude":"-60.9377849","Name":"Morne Serpent"},{"Latitude":"14.7940354","Longitude":"-61.0016666","Name":"N1 Saint-Jacques"},{"Latitude":"14.5987399","Longitude":"-61.0548872","Name":"Passage Bingue"},{"Latitude":"14.5996270","Longitude":"-61.0562167","Name":"Passage Bwa Dressee"},{"Latitude":"14.6005256","Longitude":"-61.0537889","Name":"Passage Clémence Ayet"},{"Latitude":"14.6132040","Longitude":"-61.0751011","Name":"Passage Célestin Savigny"},{"Latitude":"14.5979867","Longitude":"-61.0552651","Name":"Passage Didine"},{"Latitude":"14.7342751","Longitude":"-60.9589860","Name":"Passage Du Filet D'eau"},{"Latitude":"14.7126373","Longitude":"-61.1837162","Name":"Passage Ernest Michel"},{"Latitude":"14.6073959","Longitude":"-61.0620925","Name":"Passage Frank Perdrix"},{"Latitude":"14.7129670","Longitude":"-61.1837541","Name":"Passage Fremcourt"},{"Latitude":"14.5977730","Longitude":"-61.0554646","Name":"Passage Honora Elisabeth"},{"Latitude":"14.5990237","Longitude":"-61.0544490","Name":"Passage Martin Valley"},{"Latitude":"14.5983474","Longitude":"-61.0551204","Name":"Passage Pelage"},{"Latitude":"14.6032885","Longitude":"-61.0750955","Name":"Passage Thevenard"},{"Latitude":"14.6005767","Longitude":"-61.0549805","Name":"Passage de la Belle Capresse"},{"Latitude":"14.6013420","Longitude":"-61.0540608","Name":"Passage de la Chabine Dorée"},{"Latitude":"14.6266491","Longitude":"-61.0490705","Name":"Passage de la Clarinette"},{"Latitude":"14.6016340","Longitude":"-61.0540556","Name":"Passage de la Grande Voile"},{"Latitude":"14.6003820","Longitude":"-61.0531968","Name":"Passage de la Sagesse"},{"Latitude":"14.6150811","Longitude":"-61.0747495","Name":"Passage de la Tolerie"},{"Latitude":"14.6013002","Longitude":"-61.0544485","Name":"Passage de la Yole"},{"Latitude":"14.6122851","Longitude":"-61.0751963","Name":"Passage des Cerfs Volants"},{"Latitude":"14.6211209","Longitude":"-61.0538303","Name":"Passage des Chachas"},{"Latitude":"14.7817087","Longitude":"-60.9928546","Name":"Passage des Esclaves"},{"Latitude":"14.5982710","Longitude":"-61.0563404","Name":"Passage des Grives"},{"Latitude":"14.5997082","Longitude":"-61.0539669","Name":"Passage des Habitués"},{"Latitude":"14.5637946","Longitude":"-60.9608520","Name":"Passage des Lucioles"},{"Latitude":"14.6002780","Longitude":"-61.0542324","Name":"Passage des Mille Fleurs"},{"Latitude":"14.5992553","Longitude":"-61.0554094","Name":"Passage du Bwa Dresse"},{"Latitude":"14.6010672","Longitude":"-61.0522995","Name":"Passage du Chaudron"},{"Latitude":"14.5988792","Longitude":"-61.0548323","Name":"Passage du Cotonnier"},{"Latitude":"14.6214870","Longitude":"-61.0540906","Name":"Passage du Coup d'Oeil"},{"Latitude":"14.6013332","Longitude":"-61.0543443","Name":"Passage du Gommier"},{"Latitude":"14.5991929","Longitude":"-61.0566191","Name":"Passage du Majoumbe"},{"Latitude":"14.5980995","Longitude":"-61.0550763","Name":"Passage du Malfini"},{"Latitude":"14.5995303","Longitude":"-61.0564434","Name":"Passage du Trident"},{"Latitude":"14.8219173","Longitude":"-61.0308771","Name":"Pave Monseigneur"},{"Latitude":"14.5890086","Longitude":"-60.8791099","Name":"Petite France"},{"Latitude":"14.7410087","Longitude":"-61.1761823","Name":"Place Bertin"},{"Latitude":"14.6151877","Longitude":"-60.9028789","Name":"Place Charles De Gaulle"},{"Latitude":"14.5706296","Longitude":"-60.9671558","Name":"Place François Mitterand"},{"Latitude":"14.7424034","Longitude":"-61.1762793","Name":"Place Félix Boisson"},{"Latitude":"14.6143714","Longitude":"-60.9027732","Name":"Place Hurrard"},{"Latitude":"14.4704186","Longitude":"-60.8717614","Name":"Place Joffre"},{"Latitude":"14.7121628","Longitude":"-61.1835950","Name":"Place Jules Grévy"},{"Latitude":"14.5759891","Longitude":"-60.9761281","Name":"Place Laurent Asselin de Beauville"},{"Latitude":"14.7104802","Longitude":"-61.0046606","Name":"Place René Maran"},{"Latitude":"14.4811662","Longitude":"-61.0230627","Name":"Place de Nègre Marron"},{"Latitude":"14.6115405","Longitude":"-61.0716844","Name":"Place de l'Abbé Grégoire"},{"Latitude":"14.4800059","Longitude":"-61.0333290","Name":"Place des Siffleurs"},{"Latitude":"14.6132181","Longitude":"-61.0709672","Name":"Place du 22 Mai 1848"},{"Latitude":"14.7491198","Longitude":"-61.1783589","Name":"Place du Marché du Fort"},{"Latitude":"14.5760585","Longitude":"-60.9761545","Name":"Place Éloi Virginie"},{"Latitude":"14.7371518","Longitude":"-60.9548206","Name":"Plag du Raisinier"},{"Latitude":"14.6204389","Longitude":"-61.0826055","Name":"Plateau-Roy"},{"Latitude":"14.5905219","Longitude":"-60.8544438","Name":"Pointe Cerisier"},{"Latitude":"14.6047944","Longitude":"-60.8707328","Name":"Pointe Jacques"},{"Latitude":"14.6013441","Longitude":"-61.0799098","Name":"Pont Lienafa"},{"Latitude":"14.4683175","Longitude":"-60.8560787","Name":"Pont O'Neil"},{"Latitude":"14.6024137","Longitude":"-61.0737850","Name":"Pont de la Rivière Madame"},{"Latitude":"14.7487060","Longitude":"-61.1776971","Name":"Pont sur la Roxelane"},{"Latitude":"14.7577773","Longitude":"-60.9885719","Name":"Qua Morne A Roche"},{"Latitude":"14.5437628","Longitude":"-60.8836051","Name":"Quartier Coulée d'or, Bellevue D5 , 97280 LE VAUCLIN"},{"Latitude":"14.7639298","Longitude":"-60.9861890","Name":"Rd 25 Derrier Morne"},{"Latitude":"14.6294733","Longitude":"-61.0481254","Name":"Res Le Madeleine"},{"Latitude":"14.7377520","Longitude":"-60.9742175","Name":"Res Venatchi"},{"Latitude":"14.6211452","Longitude":"-61.0150516","Name":"Res. Les Sucriers"},{"Latitude":"14.6218285","Longitude":"-61.0157486","Name":"Res. Varinia"},{"Latitude":"14.6237384","Longitude":"-61.0083930","Name":"Residence BWA Santal"},{"Latitude":"14.8288352","Longitude":"-61.0312903","Name":"Residence La Pointe"},{"Latitude":"14.4705048","Longitude":"-60.9276610","Name":"Residence Les Olympiades"},{"Latitude":"14.4693932","Longitude":"-60.9350031","Name":"Residence Morne Pavillon"},{"Latitude":"14.4695610","Longitude":"-60.9292280","Name":"Residence Oiseaux Des Iles"},{"Latitude":"14.8056670","Longitude":"-61.0135054","Name":"Rn 1 Saint-jacques"},{"Latitude":"14.7965726","Longitude":"-61.0071783","Name":"Rn1 Saint-jacques"},{"Latitude":"14.6444422","Longitude":"-61.0569246","Name":"Rocade du Bel Horizon"},{"Latitude":"14.6233172","Longitude":"-60.9889925","Name":"Rond-Point de Mangot Vulcin"},{"Latitude":"14.7586549","Longitude":"-60.9844912","Name":"Route De Bois Jadé"},{"Latitude":"14.5699966","Longitude":"-60.9830007","Name":"Route De Canal"},{"Latitude":"14.5996244","Longitude":"-60.9444539","Name":"Route De Fond Savane"},{"Latitude":"14.6857792","Longitude":"-61.1649506","Name":"Route Du Kayali"},{"Latitude":"14.7201244","Longitude":"-61.1211029","Name":"Route Forestière de Grand Fond"},{"Latitude":"14.7511648","Longitude":"-61.0396266","Name":"Route Forestière des 3 Sources"},{"Latitude":"14.4742527","Longitude":"-60.9588568","Name":"Route Mapou"},{"Latitude":"14.6988955","Longitude":"-60.9639849","Name":"Route Morne Galbas"},{"Latitude":"14.6168587","Longitude":"-61.0713535","Name":"Route de Balata"},{"Latitude":"14.6359107","Longitude":"-61.0399777","Name":"Route de Beauséjour Jambette"},{"Latitude":"14.5851491","Longitude":"-60.9551273","Name":"Route de Beauville"},{"Latitude":"14.7000157","Longitude":"-61.1782939","Name":"Route de Belfond"},{"Latitude":"14.5837644","Longitude":"-60.9507997","Name":"Route de Bois Neuf"},{"Latitude":"14.7365081","Longitude":"-60.9713406","Name":"Route de Brin D'Amour"},{"Latitude":"14.6169745","Longitude":"-61.0483432","Name":"Route de Chateauboeuf"},{"Latitude":"14.6954824","Longitude":"-60.9701119","Name":"Route de Chère Épice"},{"Latitude":"14.6228658","Longitude":"-61.0669866","Name":"Route de Citron Voie 2"},{"Latitude":"14.6223315","Longitude":"-61.0675658","Name":"Route de Citron Voie 3"},{"Latitude":"14.6234804","Longitude":"-61.0673012","Name":"Route de Citron Voie 4"},{"Latitude":"14.6236472","Longitude":"-61.0674807","Name":"Route de Citron Voie 6"},{"Latitude":"14.6240411","Longitude":"-61.0674752","Name":"Route de Citron Voie 8"},{"Latitude":"14.6129462","Longitude":"-61.0804835","Name":"Route de Cluny"},{"Latitude":"14.6199704","Longitude":"-61.0798694","Name":"Route de Didier"},{"Latitude":"14.5712500","Longitude":"-60.9585754","Name":"Route de Durivage"},{"Latitude":"14.7331965","Longitude":"-60.9625819","Name":"Route de Fleur D Epee"},{"Latitude":"14.5835186","Longitude":"-60.9532415","Name":"Route de Fond Brûlé"},{"Latitude":"14.7678761","Longitude":"-61.1237509","Name":"Route de Fond Rose"},{"Latitude":"14.5972437","Longitude":"-60.9499995","Name":"Route de Fond d'Or"},{"Latitude":"14.5940531","Longitude":"-60.9610148","Name":"Route de Fond d'Orange"},{"Latitude":"14.6581157","Longitude":"-60.9375656","Name":"Route de Four à Chaux"},{"Latitude":"14.5874296","Longitude":"-60.9725488","Name":"Route de GRande Rochelle"},{"Latitude":"14.6997688","Longitude":"-61.0118707","Name":"Route de La Boucle"},{"Latitude":"14.5605446","Longitude":"-60.9581619","Name":"Route de La Chassaing"},{"Latitude":"14.5243145","Longitude":"-60.9807659","Name":"Route de Medecin"},{"Latitude":"14.7515103","Longitude":"-60.9742005","Name":"Route de Morne Figue"},{"Latitude":"14.7540944","Longitude":"-60.9126167","Name":"Route de Morne Pavillon"},{"Latitude":"14.6207800","Longitude":"-61.0550345","Name":"Route de Moutte"},{"Latitude":"14.5127096","Longitude":"-60.9839177","Name":"Route de Médecin"},{"Latitude":"14.5600444","Longitude":"-60.9406072","Name":"Route de Petit Bourg"},{"Latitude":"14.6831148","Longitude":"-60.9295208","Name":"Route de Pointe Fort"},{"Latitude":"14.6363216","Longitude":"-61.0595743","Name":"Route de Ravine Vilaine"},{"Latitude":"14.6213733","Longitude":"-61.0602132","Name":"Route de Redoute"},{"Latitude":"14.6244686","Longitude":"-61.0603742","Name":"Route de Redoute Voie N°20"},{"Latitude":"14.5625399","Longitude":"-60.9692864","Name":"Route de Rivière la Manche"},{"Latitude":"14.7806165","Longitude":"-61.1340117","Name":"Route de Savane Petit"},{"Latitude":"14.6369473","Longitude":"-61.0988289","Name":"Route de Terreville"},{"Latitude":"14.6384957","Longitude":"-61.0715663","Name":"Route de Tivoli"},{"Latitude":"14.5352843","Longitude":"-61.0289948","Name":"Route de Trois-Îlets"},{"Latitude":"14.7029118","Longitude":"-60.9872573","Name":"Route de Vert Pré"},{"Latitude":"14.4579189","Longitude":"-61.0613208","Name":"Route de l'Anse Caffard"},{"Latitude":"14.7602213","Longitude":"-60.9249427","Name":"Route de l'Anse Rouge"},{"Latitude":"14.6244847","Longitude":"-61.1026804","Name":"Route de l'Enclos"},{"Latitude":"14.6230195","Longitude":"-61.0554479","Name":"Route de l'Entraide"},{"Latitude":"14.8331640","Longitude":"-61.0571906","Name":"Route de l'Hôpital"},{"Latitude":"14.6232469","Longitude":"-61.0762888","Name":"Route de l'Union"},{"Latitude":"14.6165872","Longitude":"-61.0990204","Name":"Route de l'Université"},{"Latitude":"14.7542264","Longitude":"-60.9379617","Name":"Route de la Caravelle"},{"Latitude":"14.7210516","Longitude":"-61.1767094","Name":"Route de la Découverte"},{"Latitude":"14.6330427","Longitude":"-61.1119907","Name":"Route de la Démarche"},{"Latitude":"14.6087375","Longitude":"-61.0638917","Name":"Route de la Folie"},{"Latitude":"14.6524337","Longitude":"-61.0893302","Name":"Route de la Fontaine Didier"},{"Latitude":"14.4966618","Longitude":"-60.9290391","Name":"Route de la Forêt"},{"Latitude":"14.7421313","Longitude":"-60.9477527","Name":"Route de la Moise"},{"Latitude":"14.7903289","Longitude":"-61.1395359","Name":"Route de la Montagne Pelée"},{"Latitude":"14.4722166","Longitude":"-60.9626642","Name":"Route de la Plage"},{"Latitude":"14.6054329","Longitude":"-61.0905473","Name":"Route de la Pointe de Jaham"},{"Latitude":"14.5985864","Longitude":"-61.0395631","Name":"Route de la Pointe des Sables"},{"Latitude":"14.6156662","Longitude":"-61.0727022","Name":"Route de la Ravine"},{"Latitude":"14.6998226","Longitude":"-61.0687117","Name":"Route de la Rivière Blanche"},{"Latitude":"14.6970991","Longitude":"-61.1617487","Name":"Route des Avents"},{"Latitude":"14.7279790","Longitude":"-61.1546596","Name":"Route des Bénédictines"},{"Latitude":"14.4322386","Longitude":"-60.8833212","Name":"Route des Caraïbes"},{"Latitude":"14.7133720","Longitude":"-61.1744772","Name":"Route des Pitons"},{"Latitude":"14.6123353","Longitude":"-61.0598737","Name":"Route des Religieuses"},{"Latitude":"14.6275188","Longitude":"-61.0758855","Name":"Route des Rochers"},{"Latitude":"14.7647398","Longitude":"-60.9054700","Name":"Route des Villages"},{"Latitude":"14.5877993","Longitude":"-60.9786649","Name":"Route du Bac"},{"Latitude":"14.5867227","Longitude":"-60.9457605","Name":"Route du Bèlè"},{"Latitude":"14.7121953","Longitude":"-60.9990166","Name":"Route du Collège"},{"Latitude":"14.5376721","Longitude":"-61.0454561","Name":"Route du Diamant"},{"Latitude":"14.6150221","Longitude":"-61.0629294","Name":"Route du Général Mangin"},{"Latitude":"14.6861076","Longitude":"-60.9944357","Name":"Route du Lamentin"},{"Latitude":"14.6166335","Longitude":"-61.0630280","Name":"Route du Morne Desaix"},{"Latitude":"14.7492415","Longitude":"-60.9862802","Name":"Route du Morne Poirier"},{"Latitude":"14.7368470","Longitude":"-61.1741498","Name":"Route du Morne d'Orange"},{"Latitude":"14.7686346","Longitude":"-60.8962691","Name":"Route du Phare"},{"Latitude":"14.6673724","Longitude":"-60.9423664","Name":"Route du Port"},{"Latitude":"14.7289933","Longitude":"-61.1787572","Name":"Route du Trou Caraïbes"},{"Latitude":"14.5990812","Longitude":"-60.9410237","Name":"Routes des 2 recensements"},{"Latitude":"14.4802316","Longitude":"-61.0251204","Name":"Rue A&T Duville"},{"Latitude":"14.5452207","Longitude":"-60.8362268","Name":"Rue Abbé Brack"},{"Latitude":"14.6427636","Longitude":"-61.1368535","Name":"Rue Abbé Georges Zaïre"},{"Latitude":"14.7380252","Longitude":"-61.1757490","Name":"Rue Abbé Gosse"},{"Latitude":"14.4888661","Longitude":"-61.0785241","Name":"Rue Abbé Grégoire"},{"Latitude":"14.4357294","Longitude":"-60.8805127","Name":"Rue Abbé Hurard"},{"Latitude":"14.6075476","Longitude":"-61.0710518","Name":"Rue Abbé Lecornu"},{"Latitude":"14.4338910","Longitude":"-60.8813668","Name":"Rue Abbé Saffache"},{"Latitude":"14.6085561","Longitude":"-61.0679651","Name":"Rue Abraham Lincoln"},{"Latitude":"14.6238664","Longitude":"-61.0428620","Name":"Rue Adolphe Trillard"},{"Latitude":"14.7749580","Longitude":"-61.1343045","Name":"Rue Adrien Paques"},{"Latitude":"14.7370061","Longitude":"-60.9627046","Name":"Rue Adrien Sainte-Luce"},{"Latitude":"14.6118834","Longitude":"-61.0684572","Name":"Rue Alain Jovignac"},{"Latitude":"14.6054225","Longitude":"-61.0565715","Name":"Rue Alaric"},{"Latitude":"14.6195426","Longitude":"-60.9919284","Name":"Rue Albert Camus"},{"Latitude":"14.8691199","Longitude":"-61.1213716","Name":"Rue Albert Cretinoir"},{"Latitude":"14.6184109","Longitude":"-60.9952309","Name":"Rue Albert Crétinoir"},{"Latitude":"14.6260812","Longitude":"-61.1092464","Name":"Rue Albert Célestin"},{"Latitude":"14.6303162","Longitude":"-61.1133504","Name":"Rue Alcide Delmont"},{"Latitude":"14.6063304","Longitude":"-61.0827955","Name":"Rue Alexandre Buliard"},{"Latitude":"14.6267431","Longitude":"-61.1107862","Name":"Rue Alexandre Bécrit"},{"Latitude":"14.7424485","Longitude":"-61.0211142","Name":"Rue Alexandre Marcelline"},{"Latitude":"14.6219595","Longitude":"-61.0791986","Name":"Rue Alexandre Nestoret"},{"Latitude":"14.6098861","Longitude":"-61.0671153","Name":"Rue Alexandre Stellio"},{"Latitude":"14.6096285","Longitude":"-61.0700658","Name":"Rue Alexandre Trissot"},{"Latitude":"14.5308570","Longitude":"-60.9821771","Name":"Rue Alexandre Zonzon"},{"Latitude":"14.7399603","Longitude":"-61.1752108","Name":"Rue Alfred Lacroix"},{"Latitude":"14.6113979","Longitude":"-61.0657053","Name":"Rue Alfred Melon Dégras"},{"Latitude":"14.6218228","Longitude":"-61.0449604","Name":"Rue Alice Ozier-Lafontaine"},{"Latitude":"14.6430627","Longitude":"-61.1387912","Name":"Rue Allègre"},{"Latitude":"14.5266221","Longitude":"-60.9771562","Name":"Rue Alphonse Jean Joseph"},{"Latitude":"14.5912031","Longitude":"-60.9576964","Name":"Rue Amant"},{"Latitude":"14.6133616","Longitude":"-61.0716243","Name":"Rue Amédée Knight"},{"Latitude":"14.7360653","Longitude":"-60.9624506","Name":"Rue An Ba Coco A"},{"Latitude":"14.7605458","Longitude":"-60.9154420","Name":"Rue An Ba Coco La"},{"Latitude":"14.4312841","Longitude":"-60.8807961","Name":"Rue Anastase Pollux"},{"Latitude":"14.6110441","Longitude":"-61.0711229","Name":"Rue Anatole France"},{"Latitude":"14.6487343","Longitude":"-61.1291718","Name":"Rue Anderson Bagoe"},{"Latitude":"14.7721231","Longitude":"-61.1348653","Name":"Rue André Aliker"},{"Latitude":"14.6642987","Longitude":"-61.0877052","Name":"Rue André Pélage"},{"Latitude":"14.5444108","Longitude":"-60.8401068","Name":"Rue Angelo Marie Joseph"},{"Latitude":"14.7438314","Longitude":"-60.9432720","Name":"Rue Anse Belune"},{"Latitude":"14.6047759","Longitude":"-61.0706005","Name":"Rue Antoine Siger"},{"Latitude":"14.5436536","Longitude":"-60.8368086","Name":"Rue Antoine de Saint-Exupéry"},{"Latitude":"14.7120796","Longitude":"-61.0020167","Name":"Rue Arthur Costet"},{"Latitude":"14.6234307","Longitude":"-61.0987977","Name":"Rue Aubin Edmond"},{"Latitude":"14.6306214","Longitude":"-61.0687712","Name":"Rue Auguste Flaun"},{"Latitude":"14.6124378","Longitude":"-61.0592289","Name":"Rue Auguste Joyau"},{"Latitude":"14.6226003","Longitude":"-61.0410411","Name":"Rue Aurore"},{"Latitude":"14.6178394","Longitude":"-61.0689981","Name":"Rue Aurélie Dicanot"},{"Latitude":"14.4798426","Longitude":"-61.0286527","Name":"Rue Barack Obama"},{"Latitude":"14.7993555","Longitude":"-61.0385050","Name":"Rue Bas du Temple"},{"Latitude":"14.8685574","Longitude":"-61.1146949","Name":"Rue Bata"},{"Latitude":"14.6157784","Longitude":"-61.1008520","Name":"Rue Beaubrun Duféal"},{"Latitude":"14.6097532","Longitude":"-61.0575853","Name":"Rue Beauséjour"},{"Latitude":"14.6238636","Longitude":"-61.1033302","Name":"Rue Bellance Dillon"},{"Latitude":"14.8157058","Longitude":"-61.0281094","Name":"Rue Bellevue"},{"Latitude":"14.6179616","Longitude":"-61.1032371","Name":"Rue Bernard Boromée"},{"Latitude":"14.6758615","Longitude":"-60.9391686","Name":"Rue Bertin Sainte Croix"},{"Latitude":"14.6067938","Longitude":"-61.0505533","Name":"Rue Bertrand Anca"},{"Latitude":"14.6122803","Longitude":"-61.0716613","Name":"Rue Blanqui"},{"Latitude":"14.6705091","Longitude":"-61.0372603","Name":"Rue Blondet"},{"Latitude":"14.6045160","Longitude":"-61.0707467","Name":"Rue Blénac"},{"Latitude":"14.6191072","Longitude":"-61.0528881","Name":"Rue Bois Brilé"},{"Latitude":"14.7442278","Longitude":"-61.1742891","Name":"Rue Bois Morin"},{"Latitude":"14.6069373","Longitude":"-61.0534057","Name":"Rue Bois Rivière"},{"Latitude":"14.5386472","Longitude":"-61.0345495","Name":"Rue Bontemps"},{"Latitude":"14.7454832","Longitude":"-61.1765588","Name":"Rue Bouille"},{"Latitude":"14.6048295","Longitude":"-61.0645720","Name":"Rue Bouillé"},{"Latitude":"14.7492587","Longitude":"-61.0144145","Name":"Rue Bwa Brilé"},{"Latitude":"14.6126338","Longitude":"-61.0910629","Name":"Rue Camille Junkere"},{"Latitude":"14.6021899","Longitude":"-61.0516877","Name":"Rue Camille Stephen"},{"Latitude":"14.6143803","Longitude":"-61.0003213","Name":"Rue Camille Sylvestre"},{"Latitude":"14.5562258","Longitude":"-60.9727001","Name":"Rue Canne Paille"},{"Latitude":"14.8326289","Longitude":"-61.0536831","Name":"Rue Capitaine Laine"},{"Latitude":"14.4689440","Longitude":"-60.9212557","Name":"Rue Capitaine Pierre Rose"},{"Latitude":"14.5612563","Longitude":"-60.9364480","Name":"Rue Capitaine Pierre-Rose"},{"Latitude":"14.6150533","Longitude":"-61.0018707","Name":"Rue Capitaine des Marolles"},{"Latitude":"14.6241777","Longitude":"-61.1064724","Name":"Rue Caplaous"},{"Latitude":"14.5699591","Longitude":"-60.9700753","Name":"Rue Capucine"},{"Latitude":"14.5394599","Longitude":"-61.0663533","Name":"Rue Caret"},{"Latitude":"14.6120250","Longitude":"-61.0756599","Name":"Rue Carlos Finaly"},{"Latitude":"14.6109154","Longitude":"-61.0740370","Name":"Rue Carlos Finlay"},{"Latitude":"14.7364002","Longitude":"-60.9616268","Name":"Rue Carnot"},{"Latitude":"14.7752592","Longitude":"-60.9924190","Name":"Rue Case Nègre"},{"Latitude":"14.4688462","Longitude":"-61.0687730","Name":"Rue Case Toto"},{"Latitude":"14.5629612","Longitude":"-60.9368036","Name":"Rue Cassien Sainte-Claire"},{"Latitude":"14.7508318","Longitude":"-61.1775205","Name":"Rue Castelnau"},{"Latitude":"14.5474406","Longitude":"-61.0438584","Name":"Rue Catalpa"},{"Latitude":"14.7429110","Longitude":"-61.1754521","Name":"Rue Caylus"},{"Latitude":"14.6295434","Longitude":"-61.1052740","Name":"Rue Caïus"},{"Latitude":"14.5570876","Longitude":"-61.0519689","Name":"Rue Cha-Cha"},{"Latitude":"14.6811022","Longitude":"-60.9293199","Name":"Rue Chabin"},{"Latitude":"14.4684858","Longitude":"-60.9203260","Name":"Rue Charlemagne"},{"Latitude":"14.8321806","Longitude":"-61.0532530","Name":"Rue Charles Edmond"},{"Latitude":"14.6057561","Longitude":"-61.0830875","Name":"Rue Charles Figuères"},{"Latitude":"14.4700190","Longitude":"-60.8718741","Name":"Rue Charles Saint-Cyr"},{"Latitude":"14.5300951","Longitude":"-60.9815621","Name":"Rue Charles Zizine"},{"Latitude":"14.8112263","Longitude":"-61.0241987","Name":"Rue Charpentier"},{"Latitude":"14.8319175","Longitude":"-61.0576141","Name":"Rue Cheneau"},{"Latitude":"14.8333166","Longitude":"-61.0578774","Name":"Rue Chomereau Lamotte"},{"Latitude":"14.6150103","Longitude":"-61.0743278","Name":"Rue Christian Marajo"},{"Latitude":"14.6268196","Longitude":"-61.1125653","Name":"Rue Chéry Rosette"},{"Latitude":"14.7359143","Longitude":"-60.9622355","Name":"Rue Cite Bouganot"},{"Latitude":"14.7356052","Longitude":"-60.9623697","Name":"Rue Cite Bougenot"},{"Latitude":"14.7812064","Longitude":"-61.1334497","Name":"Rue Cité de la Falaise"},{"Latitude":"14.6567693","Longitude":"-60.9326533","Name":"Rue Cité des Braves"},{"Latitude":"14.7234501","Longitude":"-60.9453261","Name":"Rue Cité du Bac"},{"Latitude":"14.6842466","Longitude":"-60.9350481","Name":"Rue Claude Ladour"},{"Latitude":"14.7410555","Longitude":"-61.1747821","Name":"Rue Clavius Marius"},{"Latitude":"14.6105803","Longitude":"-61.0611992","Name":"Rue Clovis Pélage"},{"Latitude":"14.6106210","Longitude":"-61.0049181","Name":"Rue Clémencin"},