[{"Latitude":"6.0269162","Longitude":"-72.4005313","Name":"*"},{"Latitude":"9.3484099","Longitude":"-75.9509139","Name":"0"},{"Latitude":"5.2567098","Longitude":"-75.1520844","Name":"1"},{"Latitude":"0.8181596","Longitude":"-77.7061375","Name":"1 de Mayo"},{"Latitude":"1.9070779","Longitude":"-75.1526508","Name":"1-27"},{"Latitude":"9.1407878","Longitude":"-74.6496901","Name":"10"},{"Latitude":"0.8185018","Longitude":"-77.7208243","Name":"10 de Agosto"},{"Latitude":"8.0912130","Longitude":"-76.7329519","Name":"101a"},{"Latitude":"8.0915887","Longitude":"-76.7331082","Name":"101b"},{"Latitude":"9.1407957","Longitude":"-74.6494937","Name":"11"},{"Latitude":"0.8178173","Longitude":"-77.7078524","Name":"11 de Abril"},{"Latitude":"0.8029992","Longitude":"-77.7252149","Name":"11 de abril"},{"Latitude":"10.7605302","Longitude":"-74.7505779","Name":"11-24"},{"Latitude":"0.6522294","Longitude":"-77.5211889","Name":"12 De Febrero"},{"Latitude":"0.8191208","Longitude":"-77.7057920","Name":"12 de Octubre"},{"Latitude":"4.7054653","Longitude":"-74.0226845","Name":"129 Bis"},{"Latitude":"3.8884533","Longitude":"-76.3027154","Name":"13A"},{"Latitude":"3.8881921","Longitude":"-76.3035692","Name":"13B"},{"Latitude":"9.1389952","Longitude":"-74.6486127","Name":"14"},{"Latitude":"9.1392828","Longitude":"-74.6488706","Name":"15"},{"Latitude":"9.1410395","Longitude":"-74.6493782","Name":"16"},{"Latitude":"9.2349730","Longitude":"-74.4234426","Name":"16-02"},{"Latitude":"9.1415244","Longitude":"-74.6501142","Name":"17"},{"Latitude":"9.1413237","Longitude":"-74.6505784","Name":"18"},{"Latitude":"7.0663112","Longitude":"-73.0778263","Name":"18B"},{"Latitude":"9.1416735","Longitude":"-74.6507101","Name":"19"},{"Latitude":"0.8180814","Longitude":"-77.7074840","Name":"19 de Noviembre"},{"Latitude":"2.5552371","Longitude":"-72.6413859","Name":"19Abis"},{"Latitude":"9.0671992","Longitude":"-74.1674177","Name":"2"},{"Latitude":"10.8496687","Longitude":"-74.7815486","Name":"2 Bis Sur"},{"Latitude":"11.3640793","Longitude":"-72.2339930","Name":"2 Sur"},{"Latitude":"0.8046796","Longitude":"-77.6766067","Name":"2 de Noviembre"},{"Latitude":"9.1422107","Longitude":"-74.6506336","Name":"20"},{"Latitude":"4.4317721","Longitude":"-75.2416236","Name":"20 A 8 Sur"},{"Latitude":"2.5796680","Longitude":"-76.9981142","Name":"20 de julio - Costa Nueva"},{"Latitude":"9.1422887","Longitude":"-74.6503831","Name":"21"},{"Latitude":"9.1422887","Longitude":"-74.6503831","Name":"22"},{"Latitude":"9.1396707","Longitude":"-74.6488341","Name":"23"},{"Latitude":"9.1407957","Longitude":"-74.6494937","Name":"24"},{"Latitude":"0.8193854","Longitude":"-77.7059723","Name":"24 de Junio"},{"Latitude":"0.6723205","Longitude":"-77.5904167","Name":"24 de Mayo"},{"Latitude":"9.3948221","Longitude":"-75.4337651","Name":"25"},{"Latitude":"9.1393479","Longitude":"-74.6479781","Name":"26"},{"Latitude":"0.8282379","Longitude":"-77.7039744","Name":"26 de mayo"},{"Latitude":"0.8191309","Longitude":"-77.7068574","Name":"27 de Febrero"},{"Latitude":"9.1387455","Longitude":"-74.6472971","Name":"29"},{"Latitude":"9.1387455","Longitude":"-74.6472971","Name":"3"},{"Latitude":"9.1391066","Longitude":"-74.6477327","Name":"30"},{"Latitude":"0.8181380","Longitude":"-77.7056513","Name":"31 de Octubre"},{"Latitude":"8.7068403","Longitude":"-73.9539623","Name":"32-69"},{"Latitude":"7.3796537","Longitude":"-72.6360884","Name":"3AN"},{"Latitude":"10.4016255","Longitude":"-75.1630229","Name":"4"},{"Latitude":"0.6497780","Longitude":"-77.5245389","Name":"4 De Diciembre"},{"Latitude":"4.4456056","Longitude":"-75.1450216","Name":"43"},{"Latitude":"6.2616698","Longitude":"-75.6132141","Name":"48CC"},{"Latitude":"9.1389284","Longitude":"-74.6481941","Name":"5"},{"Latitude":"11.0075540","Longitude":"-74.2315200","Name":"5 de Febrero"},{"Latitude":"0.8183696","Longitude":"-77.7067797","Name":"5 de Junio"},{"Latitude":"10.4014378","Longitude":"-75.1642284","Name":"50"},{"Latitude":"5.6885299","Longitude":"-73.2335219","Name":"55-Tuta"},{"Latitude":"0.9122858","Longitude":"-78.1062114","Name":"6 de Abril"},{"Latitude":"0.8183706","Longitude":"-77.7063692","Name":"6 de Diciembre"},{"Latitude":"6.2691772","Longitude":"-72.7877082","Name":"64"},{"Latitude":"2.1316646","Longitude":"-74.7652251","Name":"65"},{"Latitude":"9.1392174","Longitude":"-74.6481285","Name":"7"},{"Latitude":"3.4431827","Longitude":"-76.5458595","Name":"7 Oeste"},{"Latitude":"9.1392174","Longitude":"-74.6481285","Name":"8"},{"Latitude":"0.8188699","Longitude":"-77.7056347","Name":"8 de Marzo"},{"Latitude":"9.1393682","Longitude":"-74.6482551","Name":"9"},{"Latitude":"0.8105874","Longitude":"-77.7197050","Name":"9 de Octubre"},{"Latitude":"7.8981394","Longitude":"-72.4923446","Name":"9E"},{"Latitude":"4.1682506","Longitude":"-73.6293353","Name":"A"},{"Latitude":"4.5872601","Longitude":"-74.1964374","Name":"A Autopista Sur"},{"Latitude":"8.7682440","Longitude":"-75.5186693","Name":"A Bajo Grande"},{"Latitude":"3.5709730","Longitude":"-75.3656048","Name":"A Balsillas"},{"Latitude":"9.2763532","Longitude":"-75.6107644","Name":"A Barbacoas"},{"Latitude":"5.2807851","Longitude":"-75.8330914","Name":"A Belen De Umbria"},{"Latitude":"5.2961207","Longitude":"-75.8755533","Name":"A Belen de Umbria"},{"Latitude":"8.2216498","Longitude":"-75.8224373","Name":"A Betania"},{"Latitude":"6.1261538","Longitude":"-73.9287347","Name":"A Bocas del Orta"},{"Latitude":"4.4571940","Longitude":"-74.6223351","Name":"A Bogota"},{"Latitude":"3.5643971","Longitude":"-76.6094959","Name":"A Buenaventura"},{"Latitude":"5.0846097","Longitude":"-75.9677285","Name":"A Buenos Aires"},{"Latitude":"4.3338437","Longitude":"-73.1080594","Name":"A Cabuyaro"},{"Latitude":"7.5138109","Longitude":"-73.0423451","Name":"A Cachiri"},{"Latitude":"3.7555842","Longitude":"-76.3322084","Name":"A Cali"},{"Latitude":"10.1044742","Longitude":"-73.7097055","Name":"A Camperucho"},{"Latitude":"6.6467046","Longitude":"-73.9500046","Name":"A Campo Capote"},{"Latitude":"4.9219801","Longitude":"-75.6197844","Name":"A Campoalegre"},{"Latitude":"6.2906759","Longitude":"-75.5410148","Name":"A Carpinelo"},{"Latitude":"8.8412028","Longitude":"-75.2819508","Name":"A Cayo Delgado"},{"Latitude":"5.3199882","Longitude":"-74.9165989","Name":"A Cañaveral"},{"Latitude":"9.3754606","Longitude":"-75.7727426","Name":"A Caño Lobo"},{"Latitude":"8.5871053","Longitude":"-75.3916517","Name":"A Caño Prieto"},{"Latitude":"5.1887084","Longitude":"-74.4772946","Name":"A Chivazo"},{"Latitude":"10.5184131","Longitude":"-75.2230627","Name":"A Cienaguita"},{"Latitude":"8.7482679","Longitude":"-75.5244768","Name":"A Ciénaga de Oro"},{"Latitude":"4.8980912","Longitude":"-75.6014225","Name":"A Colmenas"},{"Latitude":"8.7405961","Longitude":"-75.5125255","Name":"A Colomboy"},{"Latitude":"9.5388183","Longitude":"-75.3144620","Name":"A Coloso"},{"Latitude":"5.2203728","Longitude":"-75.8103982","Name":"A Columbia"},{"Latitude":"9.1467611","Longitude":"-75.8421810","Name":"A Cotoca"},{"Latitude":"9.5497531","Longitude":"-75.3117382","Name":"A Don Gabriel"},{"Latitude":"9.0447904","Longitude":"-75.8053643","Name":"A El Bongo"},{"Latitude":"9.1815919","Longitude":"-75.8517526","Name":"A El Campano"},{"Latitude":"8.9903802","Longitude":"-75.4988443","Name":"A El Hoyal"},{"Latitude":"9.3334569","Longitude":"-75.6571797","Name":"A El Hueso"},{"Latitude":"9.1772285","Longitude":"-75.8262685","Name":"A El Playon"},{"Latitude":"5.0659399","Longitude":"-74.9358687","Name":"A Falan"},{"Latitude":"9.4498746","Longitude":"-75.4350742","Name":"A Finca"},{"Latitude":"9.4711507","Longitude":"-75.5323866","Name":"A Fincas"},{"Latitude":"4.8894601","Longitude":"-72.8991144","Name":"A Guadalito"},{"Latitude":"4.9521535","Longitude":"-74.5921934","Name":"A Guaduas"},{"Latitude":"5.3429862","Longitude":"-76.1487753","Name":"A Guarato"},{"Latitude":"5.2802729","Longitude":"-75.8336933","Name":"A Guatica"},{"Latitude":"5.3138004","Longitude":"-75.7978389","Name":"A Guatica Viejo"},{"Latitude":"5.2756442","Longitude":"-74.8775309","Name":"A Hacienda el Eden"},{"Latitude":"4.4639224","Longitude":"-74.6438630","Name":"A Jerusalén"},{"Latitude":"6.4721603","Longitude":"-72.3535313","Name":"A Kanwara"},{"Latitude":"9.2318283","Longitude":"-75.7865898","Name":"A La Carretera"},{"Latitude":"1.4573054","Longitude":"-77.4405748","Name":"A La Concha"},{"Latitude":"5.1653287","Longitude":"-75.2005765","Name":"A La Cristalina"},{"Latitude":"5.4753819","Longitude":"-75.6011803","Name":"A La Cruz"},{"Latitude":"6.8275307","Longitude":"-73.2684075","Name":"A La Lajita"},{"Latitude":"9.0294958","Longitude":"-75.8470129","Name":"A La Madera"},{"Latitude":"8.7690653","Longitude":"-75.5051297","Name":"A La Troncal"},{"Latitude":"5.3255406","Longitude":"-75.1127208","Name":"A La Unión"},{"Latitude":"4.9504888","Longitude":"-74.5950128","Name":"A La Vereda Bramader"},{"Latitude":"4.8780822","Longitude":"-75.5976199","Name":"A La Viga"},{"Latitude":"8.7785186","Longitude":"-75.5168364","Name":"A La Yé"},{"Latitude":"8.7324797","Longitude":"-75.5292028","Name":"A Laguneta"},{"Latitude":"6.1278926","Longitude":"-73.9286542","Name":"A Landazuri"},{"Latitude":"5.5981704","Longitude":"-75.4494707","Name":"A Laperrera"},{"Latitude":"9.1507968","Longitude":"-75.9151519","Name":"A Las Flores"},{"Latitude":"4.5900644","Longitude":"-74.1986873","Name":"A León XIII"},{"Latitude":"9.3670345","Longitude":"-75.7693040","Name":"A Lorica"},{"Latitude":"9.0371830","Longitude":"-75.8450925","Name":"A Los Gómeza"},{"Latitude":"5.2300841","Longitude":"-74.9508312","Name":"A Mal Paso"},{"Latitude":"5.2732379","Longitude":"-75.6675303","Name":"A Medellin"},{"Latitude":"9.2885032","Longitude":"-75.6344132","Name":"A Momil"},{"Latitude":"5.3676122","Longitude":"-75.7013980","Name":"A Moreta"},{"Latitude":"8.8059922","Longitude":"-75.4581892","Name":"A Morrocoy"},{"Latitude":"9.1556583","Longitude":"-76.1080960","Name":"A Moñitos"},{"Latitude":"5.1249980","Longitude":"-74.3854350","Name":"A Nocaima"},{"Latitude":"9.5425600","Longitude":"-75.3091603","Name":"A Ovejas"},{"Latitude":"9.4147503","Longitude":"-75.3985848","Name":"A Palmira"},{"Latitude":"6.4116272","Longitude":"-72.4477394","Name":"A Panqueba"},{"Latitude":"5.3056453","Longitude":"-75.0533393","Name":"A Patio Bonito"},{"Latitude":"4.1360921","Longitude":"-75.0930426","Name":"A Payande"},{"Latitude":"4.2584333","Longitude":"-75.0774759","Name":"A Payandé"},{"Latitude":"9.2974406","Longitude":"-75.6461083","Name":"A Pereira"},{"Latitude":"8.7720439","Longitude":"-75.5230167","Name":"A Pijiguayal"},{"Latitude":"3.7944686","Longitude":"-75.1965008","Name":"A Planadas"},{"Latitude":"5.8790810","Longitude":"-73.6704260","Name":"A Puente Nacional"},{"Latitude":"1.0041754","Longitude":"-76.5546793","Name":"A Puerto Limón"},{"Latitude":"5.3687258","Longitude":"-75.7033588","Name":"A Quinchia"},{"Latitude":"4.6907311","Longitude":"-73.5206291","Name":"A Rionegro"},{"Latitude":"8.7463598","Longitude":"-75.4384950","Name":"A Rodaculo"},{"Latitude":"4.2413285","Longitude":"-76.2427032","Name":"A Río FRío"},{"Latitude":"8.9305524","Longitude":"-75.3395686","Name":"A Sabaneta"},{"Latitude":"9.3088297","Longitude":"-75.6335793","Name":"A Sacana"},{"Latitude":"8.8480887","Longitude":"-75.2942593","Name":"A Sahagun"},{"Latitude":"8.8130068","Longitude":"-75.4616443","Name":"A Sahagún"},{"Latitude":"1.2096615","Longitude":"-77.6723474","Name":"A Samaniego"},{"Latitude":"3.5574812","Longitude":"-76.6665632","Name":"A San Bernardo"},{"Latitude":"4.8304994","Longitude":"-75.0837247","Name":"A San Fernando"},{"Latitude":"4.4004706","Longitude":"-75.2944950","Name":"A San Isidro"},{"Latitude":"5.4735832","Longitude":"-75.6028896","Name":"A San Juan"},{"Latitude":"4.2569628","Longitude":"-75.0767217","Name":"A San Luis"},{"Latitude":"8.7879037","Longitude":"-75.1273414","Name":"A San Marcos"},{"Latitude":"8.9203751","Longitude":"-75.8428853","Name":"A San Pelayo"},{"Latitude":"8.9412717","Longitude":"-75.0379917","Name":"A San Roque"},{"Latitude":"5.3195782","Longitude":"-75.8003158","Name":"A Santa Ana"},{"Latitude":"9.1462302","Longitude":"-75.0476933","Name":"A Santiago"},{"Latitude":"9.1740369","Longitude":"-75.0554475","Name":"A Since"},{"Latitude":"9.3234125","Longitude":"-75.3136064","Name":"A Sincelejo"},{"Latitude":"7.4666159","Longitude":"-72.9888430","Name":"A Surata"},{"Latitude":"5.1762007","Longitude":"-75.8496926","Name":"A Taparcal"},{"Latitude":"8.2668053","Longitude":"-75.9050265","Name":"A Tierralta"},{"Latitude":"5.1255966","Longitude":"-74.3880994","Name":"A Tobia"},{"Latitude":"4.4145138","Longitude":"-75.2698356","Name":"A Toche"},{"Latitude":"6.9296438","Longitude":"-75.7044830","Name":"A Toledo"},{"Latitude":"8.4348473","Longitude":"-75.2629405","Name":"A Toronto"},{"Latitude":"8.7543556","Longitude":"-75.4396294","Name":"A Trementino"},{"Latitude":"7.4711423","Longitude":"-72.9906642","Name":"A Turbay"},{"Latitude":"4.4887094","Longitude":"-73.9355335","Name":"A Ubaque"},{"Latitude":"9.1597909","Longitude":"-75.0591034","Name":"A Valencia"},{"Latitude":"1.9707131","Longitude":"-72.6575339","Name":"A Vda. La Gaitana"},{"Latitude":"4.6942732","Longitude":"-74.5653799","Name":"A Vereda El Tiber"},{"Latitude":"4.0680491","Longitude":"-74.7339766","Name":"A Vereda Los Novillos"},{"Latitude":"4.3802910","Longitude":"-73.7571564","Name":"A Vereda San Luis"},{"Latitude":"4.0983898","Longitude":"-74.7293060","Name":"A Vereda los Novillos"},{"Latitude":"3.3903158","Longitude":"-76.3831080","Name":"A Villa Gorgona"},{"Latitude":"4.9059941","Longitude":"-75.1074210","Name":"A Villahermosa"},{"Latitude":"4.4032943","Longitude":"-73.9438033","Name":"A Villavicencio"},{"Latitude":"5.1218545","Longitude":"-74.4492194","Name":"A Villeta"},{"Latitude":"8.5998035","Longitude":"-75.3958064","Name":"A el Crucero"},{"Latitude":"8.5853071","Longitude":"-75.3916436","Name":"A el Limon"},{"Latitude":"8.6476064","Longitude":"-75.3659321","Name":"A el Pozo"},{"Latitude":"8.6454040","Longitude":"-75.3690319","Name":"A el Viajano"},{"Latitude":"5.0692227","Longitude":"-75.8645985","Name":"A la Central"},{"Latitude":"5.0617016","Longitude":"-76.0120368","Name":"A la Esperanza la Linda"},{"Latitude":"5.0794180","Longitude":"-75.7939356","Name":"A la Gaviota"},{"Latitude":"4.0454002","Longitude":"-76.1099770","Name":"A la Moralia"},{"Latitude":"4.9163839","Longitude":"-75.6228639","Name":"A la Playa"},{"Latitude":"3.8304826","Longitude":"-75.1719787","Name":"A la Vereda Potrerito"},{"Latitude":"5.0573232","Longitude":"-75.8740744","Name":"A la Virginia"},{"Latitude":"3.9976465","Longitude":"-73.8083009","Name":"A la cascada"},{"Latitude":"8.5945069","Longitude":"-75.3196483","Name":"A las Bocas"},{"Latitude":"8.9103405","Longitude":"-75.3213137","Name":"A los Cayos"},{"Latitude":"4.9036087","Longitude":"-75.1016826","Name":"A primavera"},{"Latitude":"3.4646901","Longitude":"-76.5897037","Name":"A48A0"},{"Latitude":"3.2781856","Longitude":"-73.3804620","Name":"ANTIGUA VIA AL MUNICIPIO DE GRANADA"},{"Latitude":"7.8988398","Longitude":"-72.4980377","Name":"AVENIDA 2e"},{"Latitude":"7.9059398","Longitude":"-72.5039649","Name":"AVENIDA 6"},{"Latitude":"7.8985149","Longitude":"-72.4948199","Name":"AVENIDA 7E"},{"Latitude":"6.4046009","Longitude":"-72.5559559","Name":"AVENIDA CIRCUNVALAR"},{"Latitude":"0.6713958","Longitude":"-77.5925199","Name":"Abdón Calderón"},{"Latitude":"5.8310622","Longitude":"-75.4688106","Name":"Abejorral - El Cairo"},{"Latitude":"5.8616843","Longitude":"-75.5467093","Name":"Abejorral - El Cairo - La Elvira"},{"Latitude":"5.7809484","Longitude":"-75.4590605","Name":"Abejorral - Pantanillo"},{"Latitude":"3.8934446","Longitude":"-73.6837383","Name":"Acceso"},{"Latitude":"6.2353384","Longitude":"-75.5799495","Name":"Acceso Pueblito Paisa"},{"Latitude":"6.1870102","Longitude":"-75.4294858","Name":"Acceso Vereda Rancheria"},{"Latitude":"9.3892055","Longitude":"-75.0842035","Name":"Acceso a APAMATE 1X"},{"Latitude":"1.7717493","Longitude":"-76.1711141","Name":"Acceso a Bruselas"},{"Latitude":"6.3816991","Longitude":"-75.4547688","Name":"Acceso a Girardota"},{"Latitude":"11.1967797","Longitude":"-74.1805378","Name":"Acceso a IED Quinto Centenario"},{"Latitude":"3.3066798","Longitude":"-75.5219132","Name":"Acceso a La Ceja"},{"Latitude":"7.0671154","Longitude":"-73.0995415","Name":"Acceso a Lagos II"},{"Latitude":"8.8782266","Longitude":"-76.1554898","Name":"Acceso a Morindo"},{"Latitude":"5.0721843","Longitude":"-74.8776663","Name":"Acceso a Nuevo Horizonte"},{"Latitude":"8.5686207","Longitude":"-75.8967879","Name":"Acceso a San Isidro"},{"Latitude":"8.4385724","Longitude":"-75.9386104","Name":"Acceso a Tres Piedras"},{"Latitude":"8.7798096","Longitude":"-76.1569785","Name":"Acceso a Urango"},{"Latitude":"6.3245746","Longitude":"-75.4714930","Name":"Acceso a cantera"},{"Latitude":"6.4962150","Longitude":"-75.8189430","Name":"Acceso a corregimiento San Nicolás"},{"Latitude":"5.3015159","Longitude":"-74.9123796","Name":"Acceso a la Albania"},{"Latitude":"5.4114433","Longitude":"-75.6715871","Name":"Acceso a la Iberia"},{"Latitude":"8.8493556","Longitude":"-76.2283722","Name":"Acceso a los Esquimales"},{"Latitude":"6.2170221","Longitude":"-75.5594548","Name":"Acceso a parqueaderos"},{"Latitude":"6.2379795","Longitude":"-75.5794103","Name":"Acceso al Cerro Nutibara"},{"Latitude":"4.5178153","Longitude":"-75.2978082","Name":"Acceso al Predio el Diamante."},{"Latitude":"5.4292204","Longitude":"-73.4128470","Name":"Acceso institución Educativa"},{"Latitude":"7.0664525","Longitude":"-73.1006241","Name":"Acceso privado a los dos conjuntos"},{"Latitude":"1.8681896","Longitude":"-75.9028566","Name":"Acevedo-Gallardo"},{"Latitude":"1.7143866","Longitude":"-76.0190039","Name":"Acevedo-San Adolfo"},{"Latitude":"0.8317164","Longitude":"-77.7128080","Name":"Adolfo Becker"},{"Latitude":"0.8121394","Longitude":"-77.7245413","Name":"Afrodita"},{"Latitude":"2.2447243","Longitude":"-75.7469744","Name":"Agrado-Garzón"},{"Latitude":"4.3258747","Longitude":"-74.7042302","Name":"Agua de Dios - Ricaurte - Agua de Dios"},{"Latitude":"4.5058907","Longitude":"-75.6658022","Name":"Aguacatal"},{"Latitude":"3.4930890","Longitude":"-76.2230370","Name":"Aguaclara - La Buitrera"},{"Latitude":"3.4814982","Longitude":"-76.2122908","Name":"Aguaclara - La buitrera"},{"Latitude":"6.1715243","Longitude":"-73.5174021","Name":"Aguada - El Guacamayo"},{"Latitude":"6.1603262","Longitude":"-73.5296810","Name":"Aguada - La Paz"},{"Latitude":"6.1427954","Longitude":"-73.4685630","Name":"Aguada - Suaita"},{"Latitude":"5.6114048","Longitude":"-75.4990103","Name":"Aguadas - Alto de la Montaña"},{"Latitude":"5.6109061","Longitude":"-75.4840001","Name":"Aguadas - Edén"},{"Latitude":"5.5575472","Longitude":"-75.4036023","Name":"Aguadas - Monteredondo"},{"Latitude":"5.5659082","Longitude":"-75.4600575","Name":"Aguadas - Pácora"},{"Latitude":"6.0672419","Longitude":"-75.3316468","Name":"Aguas frias"},{"Latitude":"0.8134145","Longitude":"-77.7105053","Name":"Aguirre"},{"Latitude":"3.3017112","Longitude":"-75.3494230","Name":"Aipe-Praga"},{"Latitude":"4.8710896","Longitude":"-75.6391083","Name":"Al Alto Vásquez"},{"Latitude":"5.9404486","Longitude":"-73.6157575","Name":"Al Amarillo"},{"Latitude":"7.0615098","Longitude":"-73.0917883","Name":"Al Anillo Víal Vía Giron"},{"Latitude":"5.4750490","Longitude":"-75.6003388","Name":"Al Atrio"},{"Latitude":"4.9449189","Longitude":"-75.6944081","Name":"Al Bajo Español"},{"Latitude":"3.4971906","Longitude":"-76.5766905","Name":"Al Carmen"},{"Latitude":"6.6941114","Longitude":"-73.0210564","Name":"Al Cementerio"},{"Latitude":"8.9539520","Longitude":"-75.7487198","Name":"Al Chiquí"},{"Latitude":"5.0871842","Longitude":"-75.7927259","Name":"Al Contento"},{"Latitude":"5.3174902","Longitude":"-74.9018386","Name":"Al Cruce"},{"Latitude":"4.0452672","Longitude":"-76.1110228","Name":"Al Diamante"},{"Latitude":"4.6671937","Longitude":"-76.2308745","Name":"Al Embal"},{"Latitude":"3.5827089","Longitude":"-76.6689384","Name":"Al Km 26"},{"Latitude":"5.0351705","Longitude":"-75.1140769","Name":"Al Libano"},{"Latitude":"4.4339972","Longitude":"-75.7668229","Name":"Al Mirador de Maraveles"},{"Latitude":"4.4222443","Longitude":"-75.7777602","Name":"Al Mirador del V. de Maraveles"},{"Latitude":"5.1652378","Longitude":"-75.2000669","Name":"Al Naranjo"},{"Latitude":"1.4539928","Longitude":"-77.4418840","Name":"Al Peñol Viejo"},{"Latitude":"5.3048044","Longitude":"-75.0547969","Name":"Al Placer"},{"Latitude":"4.8590500","Longitude":"-75.5190870","Name":"Al Porvenir"},{"Latitude":"4.4632465","Longitude":"-75.1302178","Name":"Al Predio Cocore"},{"Latitude":"8.6528356","Longitude":"-75.1045936","Name":"Al Río San Jorge"},{"Latitude":"4.4744576","Longitude":"-75.8429328","Name":"Al Río la Vieja"},{"Latitude":"4.5030205","Longitude":"-75.2935907","Name":"Al Secreto"},{"Latitude":"1.4538896","Longitude":"-77.4343926","Name":"Al Tambo"},{"Latitude":"5.0866989","Longitude":"-75.9609237","Name":"Al Tambo y Apia"},{"Latitude":"4.4063872","Longitude":"-75.7901207","Name":"Al Valle de Maraveles"},{"Latitude":"4.2566350","Longitude":"-75.0777301","Name":"Al Valle de San Juan"},{"Latitude":"8.6680911","Longitude":"-75.1541680","Name":"Al Viajano"},{"Latitude":"4.9460949","Longitude":"-75.6349646","Name":"Al alto las Margaritas"},{"Latitude":"6.9029940","Longitude":"-75.6788653","Name":"Al relleno."},{"Latitude":"5.7791425","Longitude":"-73.8659283","Name":"Albania - La Mesa"},{"Latitude":"5.7636606","Longitude":"-73.9042696","Name":"Albania - Saboyá"},{"Latitude":"0.8748603","Longitude":"-77.6452404","Name":"Aldana - Pupiales"},{"Latitude":"5.5420830","Longitude":"-75.5955350","Name":"Alegrías - Aguadita Chiquita"},{"Latitude":"5.5400050","Longitude":"-75.5974540","Name":"Alegrías - Aguadita Grande"},{"Latitude":"6.3801027","Longitude":"-75.1407938","Name":"Alejandría - Santo Domingo"},{"Latitude":"0.7978682","Longitude":"-77.7320582","Name":"Alemania"},{"Latitude":"10.3205417","Longitude":"-75.4101994","Name":"Alfonso Lopes Pumarejo"},{"Latitude":"0.8188460","Longitude":"-77.7250583","Name":"Alfonso Mafla"},{"Latitude":"0.8144033","Longitude":"-77.7097656","Name":"Alfredo Perez"},{"Latitude":"4.8968468","Longitude":"-71.7646923","Name":"Algarrobo - Orocué"},{"Latitude":"2.5210781","Longitude":"-75.3087513","Name":"Algeciras-Guacamayas"},{"Latitude":"7.3685756","Longitude":"-72.6499693","Name":"Alhambra"},{"Latitude":"1.9285718","Longitude":"-76.8817442","Name":"Almaguer - Lerma"},{"Latitude":"1.9260014","Longitude":"-76.8207505","Name":"Almaguer - San Sebastian"},{"Latitude":"3.4093423","Longitude":"-74.9015663","Name":"Alpujarra-La Arada"},{"Latitude":"5.1359481","Longitude":"-75.9994213","Name":"Alta Campana"},{"Latitude":"1.8833047","Longitude":"-75.6796242","Name":"Altamira - Gabinete"},{"Latitude":"6.2610586","Longitude":"-75.9496920","Name":"Altamira - Güintar"},{"Latitude":"6.2939253","Longitude":"-76.0488358","Name":"Altamira - San José"},{"Latitude":"3.9290232","Longitude":"-73.0873467","Name":"Altamira Bocas de Guayuriba"},{"Latitude":"2.1057034","Longitude":"-75.8137428","Name":"Altamira-Tarqui"},{"Latitude":"4.6302732","Longitude":"-74.0067674","Name":"Altillos"},{"Latitude":"10.3901265","Longitude":"-75.5163487","Name":"Alto Bosque"},{"Latitude":"6.4864475","Longitude":"-73.2173176","Name":"Alto de Reinas"},{"Latitude":"6.3626831","Longitude":"-72.6111560","Name":"Alto de Sacachova"},{"Latitude":"6.8930980","Longitude":"-72.9766860","Name":"Alto de Vacas - La Urgua"},{"Latitude":"5.3887290","Longitude":"-73.3224699","Name":"Alto de la Cruz - comun"},{"Latitude":"6.6860720","Longitude":"-75.4170660","Name":"Alto de la Mina - El Vergel"},{"Latitude":"5.2025073","Longitude":"-75.8649726","Name":"Alto el Paraíso"},{"Latitude":"4.4460991","Longitude":"-75.6522819","Name":"Alto el Pencil"},{"Latitude":"4.8301770","Longitude":"-75.6200617","Name":"Alto oso a Samaria"},{"Latitude":"4.5507056","Longitude":"-74.9153357","Name":"Alvarado - Piedras"},{"Latitude":"4.6150770","Longitude":"-74.8874031","Name":"Alvarado - Rincón de Chipalo"},{"Latitude":"0.8296915","Longitude":"-77.7153214","Name":"Amado Nervo"},{"Latitude":"0.6490633","Longitude":"-77.5245953","Name":"Amalio Hernández"},{"Latitude":"4.7958553","Longitude":"-74.8263171","Name":"Ambalema-Boquerón"},{"Latitude":"0.8195564","Longitude":"-77.7136315","Name":"Ambato"},{"Latitude":"4.7084675","Longitude":"-74.4032543","Name":"Anatolí-El Chircal"},{"Latitude":"0.8109391","Longitude":"-77.7125225","Name":"Angel P. Chavez"},{"Latitude":"0.8269166","Longitude":"-77.7101362","Name":"Angelica Mertinez"},{"Latitude":"4.6395891","Longitude":"-74.0847462","Name":"Anillo Vial"},{"Latitude":"4.8102376","Longitude":"-75.7039306","Name":"Anillo longitudinal"},{"Latitude":"0.8413762","Longitude":"-77.6273989","Name":"Animas"},{"Latitude":"4.7551263","Longitude":"-74.4635001","Name":"Anolaima-Cachipay"},{"Latitude":"4.8005023","Longitude":"-74.4684275","Name":"Anolaima-Corralejas"},{"Latitude":"4.7234331","Longitude":"-74.4888290","Name":"Anolaima-Peña Negra"},{"Latitude":"4.7580683","Longitude":"-74.4848315","Name":"Anolaima-Quipile"},{"Latitude":"7.0729075","Longitude":"-75.1533799","Name":"Anorí - El Mango"},{"Latitude":"5.1666790","Longitude":"-75.7647590","Name":"Anserma"},{"Latitude":"5.2155955","Longitude":"-75.7573172","Name":"Anserma - Risaralda"},{"Latitude":"4.7893268","Longitude":"-76.0933631","Name":"Ansermanuevo - El Billar"},{"Latitude":"4.8548010","Longitude":"-75.9967380","Name":"Ansermanuevo - El Vergel"},{"Latitude":"4.8238651","Longitude":"-75.9858587","Name":"Ansermanuevo - El Águila"},{"Latitude":"4.7914280","Longitude":"-75.9971700","Name":"Ansermanuevo - Lusitania"},{"Latitude":"4.9540010","Longitude":"-75.6430510","Name":"Ant banca ferrocarril Vía Capilla"},{"Latitude":"4.9294210","Longitude":"-75.6408460","Name":"Ant.Banca Ferrocarril"},{"Latitude":"4.0972777","Longitude":"-76.2403693","Name":"Antigua Carretera A Río FRío"},{"Latitude":"9.5844038","Longitude":"-74.8338234","Name":"Antigua Carretera Al Carmen"},{"Latitude":"3.6206512","Longitude":"-73.7370693","Name":"Antigua Carretera Granada - San Martin"},{"Latitude":"5.4438286","Longitude":"-74.6759552","Name":"Antigua Carretera la Dorada - Honda"},{"Latitude":"7.3517386","Longitude":"-73.2977369","Name":"Antigua Via Ferrera"},{"Latitude":"6.4476204","Longitude":"-75.7281281","Name":"Antigua Via al Mar"},{"Latitude":"3.3107477","Longitude":"-73.4159420","Name":"Antigua Vía Al Municipio de Granada"},{"Latitude":"6.9769930","Longitude":"-73.7731490","Name":"Antigua Vía Ferrea"},{"Latitude":"5.0459341","Longitude":"-75.5081285","Name":"Antigua Vía Ferrocarril"},{"Latitude":"4.9125802","Longitude":"-75.0542084","Name":"Antigua Vía Santa Teresa"},{"Latitude":"7.5858973","Longitude":"-72.6351221","Name":"Antigua Vía Tren"},{"Latitude":"4.1056850","Longitude":"-73.5919447","Name":"Antigua Vía a Puerto López"},{"Latitude":"3.6941818","Longitude":"-76.4436115","Name":"Antigua Vía a Yumbo"},{"Latitude":"4.7784042","Longitude":"-73.9285710","Name":"Antigua Vía al Guavio"},{"Latitude":"6.4638577","Longitude":"-75.7589993","Name":"Antigua Vía al Mar"},{"Latitude":"4.8992919","Longitude":"-75.6282517","Name":"Antigua Vía del ferrocarril de Caldas"},{"Latitude":"3.6807074","Longitude":"-76.4438555","Name":"Antigua via a Yumbo"},{"Latitude":"6.7066319","Longitude":"-73.2788146","Name":"Antiguo Camino Real"},{"Latitude":"4.5188593","Longitude":"-73.9121309","Name":"Antiguo camino Choachí-La Unión"},{"Latitude":"5.1959772","Longitude":"-73.7438069","Name":"Antiguo camino de Bogotá a Tunja"},{"Latitude":"4.5681310","Longitude":"-74.0766240","Name":"Antiguo camino de oriente"},{"Latitude":"6.6733851","Longitude":"-73.1942838","Name":"Antiguo camino real Guane - Villanueva"},{"Latitude":"6.6740934","Longitude":"-73.1927279","Name":"Antiguo camino real Guane-Villanueva"},{"Latitude":"0.8052956","Longitude":"-77.7197263","Name":"Antonio Borrero"},{"Latitude":"0.8005639","Longitude":"-77.7407439","Name":"Antonio Farfan"},{"Latitude":"6.3936231","Longitude":"-75.2572650","Name":"Antonio Nariño"},{"Latitude":"0.7998428","Longitude":"-77.7407800","Name":"Antonio de Luzuriaga"},{"Latitude":"4.6959447","Longitude":"-75.0937912","Name":"Anzoategui - Santa isabel"},{"Latitude":"6.3847213","Longitude":"-75.9452234","Name":"Anzá - Caicedo"},{"Latitude":"6.3062400","Longitude":"-75.8500090","Name":"Anzá - Ruta 25B"},{"Latitude":"7.7694693","Longitude":"-76.6577429","Name":"Apartadó - Carepa"},{"Latitude":"7.9023674","Longitude":"-76.6270280","Name":"Apartadó - Turbo"},{"Latitude":"7.8821161","Longitude":"-76.5978190","Name":"Apartadó a San José"},{"Latitude":"6.2170221","Longitude":"-75.5594548","Name":"Apartamentos Siena"},{"Latitude":"5.2208656","Longitude":"-76.0288815","Name":"Apia - Pueblo Rico"},{"Latitude":"4.5509245","Longitude":"-74.5814645","Name":"Apulo - San Joaquín"},{"Latitude":"4.5370259","Longitude":"-74.5544217","Name":"Apulo - Tocaima"},{"Latitude":"4.5232153","Longitude":"-74.5912006","Name":"Apulo-San Joaquín"},{"Latitude":"5.5170851","Longitude":"-72.8733607","Name":"Aquitania"},{"Latitude":"10.5848518","Longitude":"-74.1904449","Name":"Aracataca"},{"Latitude":"6.7097477","Longitude":"-75.6111702","Name":"Aragón-Labores"},{"Latitude":"6.7684550","Longitude":"-75.5912390","Name":"Aragón-San José de la Montaña"},{"Latitude":"6.7908670","Longitude":"-75.5736500","Name":"Aragón-Santa Isabel"},{"Latitude":"7.0051260","Longitude":"-71.4259865","Name":"Arauquita-Agauchica"},{"Latitude":"7.0266080","Longitude":"-71.4158811","Name":"Arauquita-Arauca"},{"Latitude":"2.1403608","Longitude":"-76.7635305","Name":"Arbela - Los Planes"},{"Latitude":"6.2819845","Longitude":"-75.3316223","Name":"Arbelaez"},{"Latitude":"4.3233898","Longitude":"-74.3924203","Name":"Arbeláez-Fusagaugá"},{"Latitude":"7.6397483","Longitude":"-72.8008948","Name":"Arboledas - Cucutilla"},{"Latitude":"7.7736588","Longitude":"-72.8085975","Name":"Arboledas - Salazar"},{"Latitude":"8.7478069","Longitude":"-76.4264375","Name":"Arboletes-La Trinidad"},{"Latitude":"8.8497392","Longitude":"-76.4249367","Name":"Arboletes-Montería"},{"Latitude":"8.5823826","Longitude":"-76.6878460","Name":"Arboletes-Turbo"},{"Latitude":"5.7898302","Longitude":"-73.4284893","Name":"Arcabuco - Gámbita"},{"Latitude":"3.0145519","Longitude":"-76.4946824","Name":"Arera 24A"},{"Latitude":"4.6681096","Longitude":"-76.2275393","Name":"Argelia - El Balsal"},{"Latitude":"4.7322219","Longitude":"-76.2219254","Name":"Argelia - El Cairo"},{"Latitude":"2.2517461","Longitude":"-77.2558352","Name":"Argelia - San Juan de la Guadua"},{"Latitude":"5.7305230","Longitude":"-75.1476930","Name":"Argelia - Sonsón"},{"Latitude":"4.5883865","Longitude":"-76.1822107","Name":"Argelia - Versalles"},{"Latitude":"0.8223450","Longitude":"-77.7069826","Name":"Argentina"},{"Latitude":"8.9470796","Longitude":"-76.2660491","Name":"Arizal - San José de Canalete"},{"Latitude":"4.5073185","Longitude":"-75.7096851","Name":"Armenia - Aeropuerto"},{"Latitude":"4.9570200","Longitude":"-74.9769590","Name":"Armero-Líbano"},{"Latitude":"4.9885219","Longitude":"-74.9930030","Name":"Armero-San Pedro"},{"Latitude":"5.3033072","Longitude":"-73.4241284","Name":"Arrayan-Mangles"},{"Latitude":"4.5725592","Longitude":"-74.2441765","Name":"Asociación Centro Recreativo y Social Compartir"},{"Latitude":"8.2519099","Longitude":"-73.2167033","Name":"Aspasica - Hacarí"},{"Latitude":"5.0679491","Longitude":"-75.0125509","Name":"Asturias-Buenos Aires"},{"Latitude":"0.8152609","Longitude":"-77.7147046","Name":"Atahualpa"},{"Latitude":"0.8245412","Longitude":"-77.7112586","Name":"Aurora Estrada"},{"Latitude":"7.9084634","Longitude":"-72.5216476","Name":"Autopista Atalaya"},{"Latitude":"7.1060883","Longitude":"-73.1138265","Name":"Autopista Bucaramanga-Floridablanca"},{"Latitude":"7.0840588","Longitude":"-73.1479543","Name":"Autopista Bucaramanga-Girón"},{"Latitude":"7.0848876","Longitude":"-73.1629294","Name":"Autopista Girón-Bucaramanga"},{"Latitude":"7.8661610","Longitude":"-72.4831668","Name":"Autopista Internacional"},{"Latitude":"6.3368468","Longitude":"-75.5477802","Name":"Autopista Norte"},{"Latitude":"6.0364937","Longitude":"-75.1556397","Name":"Autopista Sector el Ocho - Cocorná"},{"Latitude":"7.0995675","Longitude":"-73.1133749","Name":"Autopista Vía a Giron"},{"Latitude":"4.4850120","Longitude":"-74.0993488","Name":"Autopista al Llano"},{"Latitude":"7.8685152","Longitude":"-72.4961185","Name":"Autopista los Patios"},{"Latitude":"0.7969462","Longitude":"-77.7303417","Name":"Autria"},{"Latitude":"3.5507238","Longitude":"-76.3031778","Name":"Av La Carbonera"},{"Latitude":"4.6134265","Longitude":"-74.1708697","Name":"Av Primera de mayo"},{"Latitude":"5.6669581","Longitude":"-67.6186133","Name":"Av. 23 de Enero"},{"Latitude":"5.6632263","Longitude":"-67.6281660","Name":"Av. 9 de Diciembre"},{"Latitude":"5.6648569","Longitude":"-67.6303585","Name":"Av. Aguerrevere"},{"Latitude":"5.6605036","Longitude":"-67.6193603","Name":"Av. Constitución"},{"Latitude":"5.6474297","Longitude":"-67.6006942","Name":"Av. El Ejercito"},{"Latitude":"5.6688964","Longitude":"-67.6265828","Name":"Av. Evelio Roa"},{"Latitude":"5.6400529","Longitude":"-67.6091946","Name":"Av. Orinoco"},{"Latitude":"5.6611492","Longitude":"-67.5887033","Name":"Av. Perimetral"},{"Latitude":"5.6603063","Longitude":"-67.6175352","Name":"Av. Rómulo Gallegos"},{"Latitude":"4.4449178","Longitude":"-69.7963526","Name":"Av. Uribe Velez"},{"Latitude":"5.3771693","Longitude":"-75.1699081","Name":"Avendia La Salle"},{"Latitude":"4.1556437","Longitude":"-74.8970324","Name":"Avenida"},{"Latitude":"10.9981513","Longitude":"-74.2445025","Name":"Avenida # 1"},{"Latitude":"7.9054472","Longitude":"-72.5126869","Name":"Avenida 0"},{"Latitude":"7.9236671","Longitude":"-72.6016795","Name":"Avenida 0 C"},{"Latitude":"7.8852543","Longitude":"-72.4988065","Name":"Avenida 0A"},{"Latitude":"7.9003362","Longitude":"-72.5002086","Name":"Avenida 0AE"},{"Latitude":"7.8778150","Longitude":"-72.4980072","Name":"Avenida 0B"},{"Latitude":"7.9227028","Longitude":"-72.6022630","Name":"Avenida 0C"},{"Latitude":"7.9229313","Longitude":"-72.6025218","Name":"Avenida 0D"},{"Latitude":"7.9236456","Longitude":"-72.6024737","Name":"Avenida 0E"},{"Latitude":"8.7668059","Longitude":"-75.8823877","Name":"Avenida 1"},{"Latitude":"7.8808644","Longitude":"-72.4966675","Name":"Avenida 1 E"},{"Latitude":"3.4527298","Longitude":"-76.5360265","Name":"Avenida 1 Norte"},{"Latitude":"7.9000062","Longitude":"-72.4750506","Name":"Avenida 10"},{"Latitude":"7.8209056","Longitude":"-72.5152919","Name":"Avenida 10 A"},{"Latitude":"7.9003709","Longitude":"-72.4920356","Name":"Avenida 10 E"},{"Latitude":"4.8088116","Longitude":"-75.7109195","Name":"Avenida 10 Juegos"},{"Latitude":"3.4650532","Longitude":"-76.5339427","Name":"Avenida 10 Norte"},{"Latitude":"3.4655600","Longitude":"-76.5339955","Name":"Avenida 10A"},{"Latitude":"7.9104500","Longitude":"-72.4933818","Name":"Avenida 10AE"},{"Latitude":"7.8470410","Longitude":"-72.5067374","Name":"Avenida 10B"},{"Latitude":"7.8151619","Longitude":"-72.5171181","Name":"Avenida 10C"},{"Latitude":"7.9501778","Longitude":"-72.5105327","Name":"Avenida 10N"},{"Latitude":"7.8822180","Longitude":"-72.4792240","Name":"Avenida 11"},{"Latitude":"3.4578668","Longitude":"-76.5564835","Name":"Avenida 11 Oeste"},{"Latitude":"7.8967153","Longitude":"-72.4703956","Name":"Avenida 11A"},{"Latitude":"7.9110607","Longitude":"-72.4924408","Name":"Avenida 11AE"},{"Latitude":"7.8932622","Longitude":"-72.4768678","Name":"Avenida 11B"},{"Latitude":"7.8930475","Longitude":"-72.4767178","Name":"Avenida 11C"},{"Latitude":"7.8926407","Longitude":"-72.4764424","Name":"Avenida 11F"},{"Latitude":"7.8825437","Longitude":"-72.4782152","Name":"Avenida 12"},{"Latitude":"7.8161970","Longitude":"-72.5184712","Name":"Avenida 12 A"},{"Latitude":"7.9152794","Longitude":"-72.4910818","Name":"Avenida 12 DE"},{"Latitude":"7.8922604","Longitude":"-72.4881153","Name":"Avenida 12 E"},{"Latitude":"5.0675760","Longitude":"-75.5228563","Name":"Avenida 12 de Octubre"},{"Latitude":"7.8196441","Longitude":"-72.5168520","Name":"Avenida 12A"},{"Latitude":"7.9136196","Longitude":"-72.4906595","Name":"Avenida 12CE"},{"Latitude":"7.9136765","Longitude":"-72.4902479","Name":"Avenida 12DE"},{"Latitude":"7.8933196","Longitude":"-72.4880436","Name":"Avenida 12E"},{"Latitude":"7.8821905","Longitude":"-72.5115190","Name":"Avenida 13"},{"Latitude":"7.8202377","Longitude":"-72.5173763","Name":"Avenida 13 A"},{"Latitude":"7.9415710","Longitude":"-72.5126087","Name":"Avenida 13A"},{"Latitude":"7.8944199","Longitude":"-72.4870249","Name":"Avenida 13E"},{"Latitude":"6.4746097","Longitude":"-73.2575783","Name":"Avenida 14"},{"Latitude":"11.5558254","Longitude":"-72.9004383","Name":"Avenida 14 de Mayo"},{"Latitude":"7.9419209","Longitude":"-72.5146601","Name":"Avenida 14A"},{"Latitude":"7.9089085","Longitude":"-72.4888866","Name":"Avenida 14AE"},{"Latitude":"7.9070895","Longitude":"-72.4882053","Name":"Avenida 14E"},{"Latitude":"5.0210175","Longitude":"-73.9982355","Name":"Avenida 15"},{"Latitude":"3.4600384","Longitude":"-76.5515994","Name":"Avenida 15 Oeste"},{"Latitude":"4.4402871","Longitude":"-75.2398086","Name":"Avenida 15 San juanero"},{"Latitude":"7.8820667","Longitude":"-72.5139002","Name":"Avenida 15A"},{"Latitude":"7.9076997","Longitude":"-72.4874419","Name":"Avenida 15AE"},{"Latitude":"7.9025598","Longitude":"-72.4870885","Name":"Avenida 15E"},{"Latitude":"7.9035465","Longitude":"-72.5165443","Name":"Avenida 16"},{"Latitude":"7.9036398","Longitude":"-72.5172815","Name":"Avenida 16A"},{"Latitude":"7.8886700","Longitude":"-72.4732997","Name":"Avenida 16AB"},{"Latitude":"7.8906467","Longitude":"-72.5157552","Name":"Avenida 16B"},{"Latitude":"7.8812443","Longitude":"-72.4739952","Name":"Avenida 17"},{"Latitude":"7.9008836","Longitude":"-72.5189633","Name":"Avenida 17A"},{"Latitude":"7.9040929","Longitude":"-72.4850555","Name":"Avenida 17E"},{"Latitude":"7.8821654","Longitude":"-72.4727459","Name":"Avenida 18"},{"Latitude":"7.9000789","Longitude":"-72.5204919","Name":"Avenida 18A"},{"Latitude":"7.8743082","Longitude":"-72.5164713","Name":"Avenida 18B"},{"Latitude":"7.8892696","Longitude":"-72.5197742","Name":"Avenida 18C"},{"Latitude":"7.9190108","Longitude":"-72.4871696","Name":"Avenida 18E"},{"Latitude":"4.4400422","Longitude":"-75.2346114","Name":"Avenida 19"},{"Latitude":"4.5479579","Longitude":"-75.6674525","Name":"Avenida 19 de Enero"},{"Latitude":"7.9011887","Longitude":"-72.5217155","Name":"Avenida 19A"},{"Latitude":"7.8776205","Longitude":"-72.5180003","Name":"Avenida 19B"},{"Latitude":"7.8187292","Longitude":"-72.5095596","Name":"Avenida 1A"},{"Latitude":"7.9027600","Longitude":"-72.4989474","Name":"Avenida 1AE"},{"Latitude":"7.8369847","Longitude":"-72.4981652","Name":"Avenida 1BE"},{"Latitude":"7.9167829","Longitude":"-72.5085802","Name":"Avenida 1Bis"},{"Latitude":"8.1641882","Longitude":"-72.4599398","Name":"Avenida 1C"},{"Latitude":"7.8923194","Longitude":"-72.4974798","Name":"Avenida 1E"},{"Latitude":"7.9469368","Longitude":"-72.5056640","Name":"Avenida 1N"},{"Latitude":"7.8687559","Longitude":"-72.5024880","Name":"Avenida 1a"},{"Latitude":"7.8185029","Longitude":"-72.5101088","Name":"Avenida 2"},{"Latitude":"3.4685064","Longitude":"-76.5238270","Name":"Avenida 2 Bis Norte"},{"Latitude":"3.4578320","Longitude":"-76.5306370","Name":"Avenida 2 Norte"},{"Latitude":"3.4470852","Longitude":"-76.5589992","Name":"Avenida 2 Oeste"},{"Latitude":"4.8581411","Longitude":"-74.9160813","Name":"Avenida 2 Sur"},{"Latitude":"7.9000944","Longitude":"-72.5224184","Name":"Avenida 20"},{"Latitude":"12.5768370","Longitude":"-81.7074445","Name":"Avenida 20 de Julio"},{"Latitude":"12.5851269","Longitude":"-81.6952703","Name":"Avenida 20 de Julio / Carrera 5"},{"Latitude":"7.8797593","Longitude":"-72.5184236","Name":"Avenida 20A"},{"Latitude":"7.8747135","Longitude":"-72.5214230","Name":"Avenida 20B"},{"Latitude":"7.8824642","Longitude":"-72.5201502","Name":"Avenida 21"},{"Latitude":"7.8931036","Longitude":"-72.5196410","Name":"Avenida 21A"},{"Latitude":"7.9055783","Longitude":"-72.5245850","Name":"Avenida 21B"},{"Latitude":"5.0290893","Longitude":"-73.9903873","Name":"Avenida 22"},{"Latitude":"7.9042363","Longitude":"-72.5259943","Name":"Avenida 22A"},{"Latitude":"7.8777725","Longitude":"-72.5217280","Name":"Avenida 22B"},{"Latitude":"7.9055468","Longitude":"-72.5264953","Name":"Avenida 23"},{"Latitude":"7.9065141","Longitude":"-72.5270732","Name":"Avenida 23A"},{"Latitude":"7.8689787","Longitude":"-72.5219361","Name":"Avenida 23B"},{"Latitude":"7.8713035","Longitude":"-72.5222446","Name":"Avenida 23C"},{"Latitude":"7.8935057","Longitude":"-72.5424740","Name":"Avenida 24"},{"Latitude":"0.8271434","Longitude":"-77.6940864","Name":"Avenida 24 de Mayo"},{"Latitude":"7.8802185","Longitude":"-72.5232529","Name":"Avenida 24A"},{"Latitude":"7.8728872","Longitude":"-72.5247730","Name":"Avenida 25"},{"Latitude":"7.8714070","Longitude":"-72.5268193","Name":"Avenida 25 Bis"},{"Latitude":"7.8699543","Longitude":"-72.5237457","Name":"Avenida 25A"},{"Latitude":"7.8722317","Longitude":"-72.5253570","Name":"Avenida 25Bis"},{"Latitude":"7.8690122","Longitude":"-72.5245955","Name":"Avenida 26"},{"Latitude":"7.9068166","Longitude":"-72.5303597","Name":"Avenida 26A"},{"Latitude":"7.9068575","Longitude":"-72.5309665","Name":"Avenida 26B"},{"Latitude":"2.9440784","Longitude":"-75.2875339","Name":"Avenida 27"},{"Latitude":"7.8689636","Longitude":"-72.5253030","Name":"Avenida 27A"},{"Latitude":"7.8749262","Longitude":"-72.5288132","Name":"Avenida 28"},{"Latitude":"7.8806331","Longitude":"-72.5265703","Name":"Avenida 29"},{"Latitude":"7.8682985","Longitude":"-72.5258978","Name":"Avenida 29A"},{"Latitude":"7.8186753","Longitude":"-72.5104724","Name":"Avenida 2A"},{"Latitude":"3.4942816","Longitude":"-76.5013125","Name":"Avenida 2A Bis Norte"},{"Latitude":"3.4785765","Longitude":"-76.5118158","Name":"Avenida 2A Norte"},{"Latitude":"7.9491731","Longitude":"-72.5049355","Name":"Avenida 2An"},{"Latitude":"7.9167317","Longitude":"-72.5096985","Name":"Avenida 2B"},{"Latitude":"3.4944698","Longitude":"-76.5025321","Name":"Avenida 2B 1 Norte"},{"Latitude":"3.4734978","Longitude":"-76.5170687","Name":"Avenida 2B Norte"},{"Latitude":"3.4942015","Longitude":"-76.5041978","Name":"Avenida 2B2 Norte"},{"Latitude":"3.4957763","Longitude":"-76.5031874","Name":"Avenida 2C Norte"},{"Latitude":"3.4821395","Longitude":"-76.5110763","Name":"Avenida 2D Norte"},{"Latitude":"7.8369020","Longitude":"-72.4977764","Name":"Avenida 2E"},{"Latitude":"3.4698273","Longitude":"-76.5206417","Name":"Avenida 2E Norte"},{"Latitude":"3.4787919","Longitude":"-76.5139330","Name":"Avenida 2F Norte"},{"Latitude":"3.4875993","Longitude":"-76.5082841","Name":"Avenida 2G Norte"},{"Latitude":"3.4850659","Longitude":"-76.5105576","Name":"Avenida 2H Norte"},{"Latitude":"3.4809471","Longitude":"-76.5146663","Name":"Avenida 2I Norte"},{"Latitude":"7.9461885","Longitude":"-72.5078567","Name":"Avenida 2N"},{"Latitude":"7.8195399","Longitude":"-72.5106142","Name":"Avenida 3"},{"Latitude":"3.4671358","Longitude":"-76.5250037","Name":"Avenida 3 Bis Norte"},{"Latitude":"3.4609532","Longitude":"-76.5273208","Name":"Avenida 3 Norte"},{"Latitude":"3.4516409","Longitude":"-76.5537136","Name":"Avenida 3 Oeste"},{"Latitude":"7.8732300","Longitude":"-72.5323171","Name":"Avenida 30"},{"Latitude":"0.1148521","Longitude":"-75.8629583","Name":"Avenida 30 de Abril"},{"Latitude":"4.5155151","Longitude":"-75.7846368","Name":"Avenida 30 de Noviembre"},{"Latitude":"7.8879415","Longitude":"-72.5229539","Name":"Avenida 30A"},{"Latitude":"7.8731513","Longitude":"-72.5330846","Name":"Avenida 31"},{"Latitude":"7.8733056","Longitude":"-72.5337078","Name":"Avenida 32"},{"Latitude":"7.8844076","Longitude":"-72.5257186","Name":"Avenida 32A"},{"Latitude":"7.8853755","Longitude":"-72.5254342","Name":"Avenida 32B"},{"Latitude":"7.8777668","Longitude":"-72.5313305","Name":"Avenida 33"},{"Latitude":"7.8780564","Longitude":"-72.5318845","Name":"Avenida 33A"},{"Latitude":"7.8742697","Longitude":"-72.5343650","Name":"Avenida 34"},{"Latitude":"7.8785215","Longitude":"-72.5330222","Name":"Avenida 35"},{"Latitude":"7.8762120","Longitude":"-72.5347796","Name":"Avenida 35A"},{"Latitude":"7.8752620","Longitude":"-72.5342760","Name":"Avenida 36"},{"Latitude":"6.2435398","Longitude":"-75.5986619","Name":"Avenida 37"},{"Latitude":"7.8752869","Longitude":"-72.5355898","Name":"Avenida 38"},{"Latitude":"7.8789087","Longitude":"-72.5345713","Name":"Avenida 38A"},{"Latitude":"7.8800219","Longitude":"-72.5342040","Name":"Avenida 39"},{"Latitude":"7.6373695","Longitude":"-73.3298347","Name":"Avenida 3A"},{"Latitude":"3.4845368","Longitude":"-76.5146850","Name":"Avenida 3A Bis Norte"},{"Latitude":"7.8926620","Longitude":"-72.5426672","Name":"Avenida 3A E"},{"Latitude":"3.4668895","Longitude":"-76.5255775","Name":"Avenida 3A Norte"},{"Latitude":"7.9486414","Longitude":"-72.5084869","Name":"Avenida 3An"},{"Latitude":"3.4903706","Longitude":"-76.5136107","Name":"Avenida 3B Bis Norte"},{"Latitude":"3.4807448","Longitude":"-76.5170596","Name":"Avenida 3B Norte"},{"Latitude":"3.4722781","Longitude":"-76.5228969","Name":"Avenida 3C Norte"},{"Latitude":"3.4793782","Longitude":"-76.5191101","Name":"Avenida 3D Norte"},{"Latitude":"7.8833871","Longitude":"-72.4942805","Name":"Avenida 3E"},{"Latitude":"3.4801686","Longitude":"-76.5194504","Name":"Avenida 3E Norte"},{"Latitude":"3.4793355","Longitude":"-76.5206009","Name":"Avenida 3F Norte"},{"Latitude":"3.4727987","Longitude":"-76.5230744","Name":"Avenida 3G Norte"},{"Latitude":"3.4844992","Longitude":"-76.5193950","Name":"Avenida 3H Norte"},{"Latitude":"3.4859212","Longitude":"-76.5192296","Name":"Avenida 3I Norte"},{"Latitude":"7.9482745","Longitude":"-72.5068527","Name":"Avenida 3N"},{"Latitude":"3.4851153","Longitude":"-76.5171229","Name":"Avenida 3P Norte"},{"Latitude":"3.5048595","Longitude":"-76.4266006","Name":"Avenida 4"},{"Latitude":"3.4522416","Longitude":"-76.5694987","Name":"Avenida 4 Bis Oeste"},{"Latitude":"7.8915836","Longitude":"-72.5428735","Name":"Avenida 4 Este"},{"Latitude":"3.4576152","Longitude":"-76.5318708","Name":"Avenida 4 Norte"},{"Latitude":"3.4507145","Longitude":"-76.5690519","Name":"Avenida 4 Oeste"},{"Latitude":"7.8766136","Longitude":"-72.5359404","Name":"Avenida 40"},{"Latitude":"7.8763159","Longitude":"-72.5368824","Name":"Avenida 41"},{"Latitude":"7.8776143","Longitude":"-72.5376864","Name":"Avenida 41 B"},{"Latitude":"7.8763969","Longitude":"-72.5391305","Name":"Avenida 41A"},{"Latitude":"7.8766640","Longitude":"-72.5389312","Name":"Avenida 41B"},{"Latitude":"6.3418562","Longitude":"-75.5485607","Name":"Avenida 42"},{"Latitude":"6.3425038","Longitude":"-75.5492215","Name":"Avenida 42A"},{"Latitude":"6.3428804","Longitude":"-75.5496474","Name":"Avenida 42B"},{"Latitude":"7.8777673","Longitude":"-72.5396912","Name":"Avenida 43"},{"Latitude":"7.8783450","Longitude":"-72.5388162","Name":"Avenida 43A"},{"Latitude":"7.8788377","Longitude":"-72.5383145","Name":"Avenida 44"},{"Latitude":"7.9041439","Longitude":"-72.5384957","Name":"Avenida 46"},{"Latitude":"7.9015814","Longitude":"-72.5421283","Name":"Avenida 46A"},{"Latitude":"7.9037366","Longitude":"-72.5399291","Name":"Avenida 47"},{"Latitude":"7.9040774","Longitude":"-72.5413183","Name":"Avenida 48"},{"Latitude":"7.9054879","Longitude":"-72.5397746","Name":"Avenida 49"},{"Latitude":"7.9110017","Longitude":"-72.5003600","Name":"Avenida 4A"},{"Latitude":"3.4876040","Longitude":"-76.5203543","Name":"Avenida 4A Norte"},{"Latitude":"3.4529466","Longitude":"-76.5713955","Name":"Avenida 4A Oeste"},{"Latitude":"7.9175232","Longitude":"-72.4991817","Name":"Avenida 4AN"},{"Latitude":"7.9488216","Longitude":"-72.5061338","Name":"Avenida 4An"},{"Latitude":"7.9080171","Longitude":"-72.4728823","Name":"Avenida 4B"},{"Latitude":"3.4853774","Longitude":"-76.5218141","Name":"Avenida 4B Norte"},{"Latitude":"3.4525135","Longitude":"-76.5424749","Name":"Avenida 4B Oeste"},{"Latitude":"7.8192110","Longitude":"-72.5063403","Name":"Avenida 4E"},{"Latitude":"7.9460164","Longitude":"-72.5106628","Name":"Avenida 4N"},{"Latitude":"7.9104181","Longitude":"-72.5110726","Name":"Avenida 5"},{"Latitude":"3.4537567","Longitude":"-76.5442148","Name":"Avenida 5 A Oeste"},{"Latitude":"7.8901342","Longitude":"-72.5430962","Name":"Avenida 5 Este"},{"Latitude":"3.4677650","Longitude":"-76.5270344","Name":"Avenida 5 Norte"},{"Latitude":"3.4531731","Longitude":"-76.5429382","Name":"Avenida 5 Oeste"},{"Latitude":"7.9062017","Longitude":"-72.5402819","Name":"Avenida 50"},{"Latitude":"5.6558050","Longitude":"-75.8786501","Name":"Avenida 50  Juan de Dios Uribe"},{"Latitude":"7.9093999","Longitude":"-72.5372278","Name":"Avenida 51"},{"Latitude":"7.9111681","Longitude":"-72.5380522","Name":"Avenida 53"},{"Latitude":"7.9128868","Longitude":"-72.5370819","Name":"Avenida 54"},{"Latitude":"6.3399482","Longitude":"-75.5445739","Name":"Avenida 55"},{"Latitude":"7.9005618","Longitude":"-72.5045837","Name":"Avenida 5A"},{"Latitude":"3.4630896","Longitude":"-76.5286876","Name":"Avenida 5A Norte"},{"Latitude":"7.8929064","Longitude":"-72.5436937","Name":"Avenida 5Ae"},{"Latitude":"3.4923209","Longitude":"-76.5213208","Name":"Avenida 5B"},{"Latitude":"3.4635041","Longitude":"-76.5292675","Name":"Avenida 5B Norte"},{"Latitude":"7.9121142","Longitude":"-72.4710803","Name":"Avenida 5C"},{"Latitude":"3.4926875","Longitude":"-76.5230110","Name":"Avenida 5C Norte"},{"Latitude":"7.8919740","Longitude":"-72.5444617","Name":"Avenida 5D Este"},{"Latitude":"7.8883915","Longitude":"-72.5442147","Name":"Avenida 5De"},{"Latitude":"7.8908487","Longitude":"-72.4930134","Name":"Avenida 5E"},{"Latitude":"7.9160813","Longitude":"-72.5010290","Name":"Avenida 5N"},{"Latitude":"7.9007810","Longitude":"-72.5053870","Name":"Avenida 6"},{"Latitude":"3.4698336","Longitude":"-76.5290280","Name":"Avenida 6 Bis Norte"},{"Latitude":"3.4789586","Longitude":"-76.5257500","Name":"Avenida 6 Norte"},{"Latitude":"3.4606366","Longitude":"-76.5846528","Name":"Avenida 6 Oe"},{"Latitude":"3.4550967","Longitude":"-76.5448273","Name":"Avenida 6 Oeste"},{"Latitude":"3.2502342","Longitude":"-76.5335697","Name":"Avenida 6 Sur"},{"Latitude":"7.0779267","Longitude":"-73.0825284","Name":"Avenida 60 Kr 60"},{"Latitude":"4.2762467","Longitude":"-75.9386332","Name":"Avenida 63"},{"Latitude":"7.9213081","Longitude":"-72.5434676","Name":"Avenida 64"},{"Latitude":"7.9208214","Longitude":"-72.5437960","Name":"Avenida 65"},{"Latitude":"7.9223044","Longitude":"-72.5447858","Name":"Avenida 66"},{"Latitude":"7.9221345","Longitude":"-72.5455480","Name":"Avenida 67"},{"Latitude":"7.9186522","Longitude":"-72.5467302","Name":"Avenida 68"},{"Latitude":"7.9198290","Longitude":"-72.5474694","Name":"Avenida 69"},{"Latitude":"3.4802318","Longitude":"-76.5261624","Name":"Avenida 6A"},{"Latitude":"3.4696540","Longitude":"-76.5300954","Name":"Avenida 6A Norte"},{"Latitude":"3.4538334","Longitude":"-76.5702180","Name":"Avenida 6A Oeste"},{"Latitude":"7.9108387","Longitude":"-72.4740029","Name":"Avenida 6B"},{"Latitude":"3.4813168","Longitude":"-76.5263990","Name":"Avenida 6B Norte"},{"Latitude":"7.9113961","Longitude":"-72.4745799","Name":"Avenida 6BBis"},{"Latitude":"7.9136889","Longitude":"-72.4728619","Name":"Avenida 6C"},{"Latitude":"3.4820918","Longitude":"-76.5266960","Name":"Avenida 6C Norte"},{"Latitude":"3.4819319","Longitude":"-76.5277363","Name":"Avenida 6D Norte"},{"Latitude":"7.8925336","Longitude":"-72.4926937","Name":"Avenida 6E"},{"Latitude":"7.9490907","Longitude":"-72.5090811","Name":"Avenida 6N"},{"Latitude":"7.8968737","Longitude":"-72.4785305","Name":"Avenida 7"},{"Latitude":"7.7992587","Longitude":"-72.5160750","Name":"Avenida 7 A"},{"Latitude":"3.4843128","Longitude":"-76.5279363","Name":"Avenida 7 Norte"},{"Latitude":"3.4535692","Longitude":"-76.5649533","Name":"Avenida 7 Oeste"},{"Latitude":"7.9195429","Longitude":"-72.5485064","Name":"Avenida 70"},{"Latitude":"7.8214358","Longitude":"-72.5121338","Name":"Avenida 7A"},{"Latitude":"3.4924862","Longitude":"-76.4980762","Name":"Avenida 7A Norte"},{"Latitude":"3.4537744","Longitude":"-76.5614432","Name":"Avenida 7A Oeste"},{"Latitude":"7.8161810","Longitude":"-72.5136937","Name":"Avenida 7B"},{"Latitude":"3.4547735","Longitude":"-76.5606498","Name":"Avenida 7B Oeste"},{"Latitude":"7.9413222","Longitude":"-72.5075147","Name":"Avenida 7Bis"},{"Latitude":"7.9075685","Longitude":"-72.4953756","Name":"Avenida 7E"},{"Latitude":"7.9481660","Longitude":"-72.5096274","Name":"Avenida 7N"},{"Latitude":"3.4560282","Longitude":"-76.4855002","Name":"Avenida 7N Bis"},{"Latitude":"7.8215440","Longitude":"-72.5124914","Name":"Avenida 8"},{"Latitude":"3.4649388","Longitude":"-76.5321767","Name":"Avenida 8 Norte"},{"Latitude":"3.4556333","Longitude":"-76.5790789","Name":"Avenida 8 Oeste"},{"Latitude":"7.8079869","Longitude":"-72.5164875","Name":"Avenida 8A"},{"Latitude":"3.4849088","Longitude":"-76.5299411","Name":"Avenida 8A Norte"},{"Latitude":"7.7999772","Longitude":"-72.5173415","Name":"Avenida 8B"},{"Latitude":"7.9113352","Longitude":"-72.4949164","Name":"Avenida 8E"},{"Latitude":"7.9482574","Longitude":"-72.5099866","Name":"Avenida 8N"},{"Latitude":"3.6060457","Longitude":"-76.3801353","Name":"Avenida 9"},{"Latitude":"7.7987870","Longitude":"-72.5190780","Name":"Avenida 9 Bis"},{"Latitude":"3.4667434","Longitude":"-76.5330282","Name":"Avenida 9 Norte"},{"Latitude":"3.4585993","Longitude":"-76.5620373","Name":"Avenida 9 Oeste"},{"Latitude":"7.7975195","Longitude":"-72.5195946","Name":"Avenida 9A"},{"Latitude":"3.4856867","Longitude":"-76.5317654","Name":"Avenida 9A Norte"},{"Latitude":"3.4559254","Longitude":"-76.5653624","Name":"Avenida 9A Oeste"},{"Latitude":"7.8007585","Longitude":"-72.5205280","Name":"Avenida 9B"},{"Latitude":"7.7959039","Longitude":"-72.5185041","Name":"Avenida 9B Bis"},{"Latitude":"7.7951956","Longitude":"-72.5180431","Name":"Avenida 9C"},{"Latitude":"7.7989516","Longitude":"-72.5198366","Name":"Avenida 9D"},{"Latitude":"7.8880351","Longitude":"-72.4908380","Name":"Avenida 9E"},{"Latitude":"7.8000437","Longitude":"-72.5199366","Name":"Avenida 9F"},{"Latitude":"7.9245392","Longitude":"-72.5076669","Name":"Avenida Aeropuerto"},{"Latitude":"4.6355848","Longitude":"-74.1536342","Name":"Avenida Agoberto Mejía"},{"Latitude":"4.6468634","Longitude":"-74.1409816","Name":"Avenida Agoberto Mejía Cifuentes"},{"Latitude":"1.8476398","Longitude":"-76.0442913","Name":"Avenida Agustín Sierra"},{"Latitude":"5.0426048","Longitude":"-75.4785849","Name":"Avenida Alberto Mendoza"},{"Latitude":"5.0488018","Longitude":"-75.4831712","Name":"Avenida Alberto Mendoza Hoyos"},{"Latitude":"7.8805422","Longitude":"-76.6229424","Name":"Avenida Alfonso Lopez"},{"Latitude":"4.4417952","Longitude":"-75.2267558","Name":"Avenida Ambalá"},{"Latitude":"7.9117618","Longitude":"-72.5173720","Name":"Avenida Americas"},{"Latitude":"4.5341497","Longitude":"-75.6686755","Name":"Avenida Ancizar López"},{"Latitude":"0.7948408","Longitude":"-77.7320627","Name":"Avenida Andres Bello"},{"Latitude":"12.5818200","Longitude":"-81.6962981","Name":"Avenida Antioquia / Calle 5"},{"Latitude":"9.7237856","Longitude":"-75.1192169","Name":"Avenida Antonio de la Torre y Miranda"},{"Latitude":"4.3896600","Longitude":"-75.1403854","Name":"Avenida Arboleda del Campestre"},{"Latitude":"6.8204855","Longitude":"-73.2681939","Name":"Avenida Ardila García"},{"Latitude":"0.8208113","Longitude":"-77.7052782","Name":"Avenida Argentina"},{"Latitude":"12.5829831","Longitude":"-81.6934926","Name":"Avenida Atlántico"},{"Latitude":"7.5974961","Longitude":"-72.6048812","Name":"Avenida Barcelona"},{"Latitude":"5.0798107","Longitude":"-75.5246950","Name":"Avenida Bernardo Arango"},{"Latitude":"10.4220556","Longitude":"-75.5484483","Name":"Avenida Blas de Lezo"},{"Latitude":"4.5976562","Longitude":"-74.1473784","Name":"Avenida Boitá - Calle 45 Sur"},{"Latitude":"1.2056392","Longitude":"-77.2634460","Name":"Avenida Bolívar"},{"Latitude":"12.5819169","Longitude":"-81.6976040","Name":"Avenida Boyaca"},{"Latitude":"1.2090282","Longitude":"-77.2823372","Name":"Avenida Boyacá"},{"Latitude":"0.8145571","Longitude":"-77.7025274","Name":"Avenida Brasil"},{"Latitude":"9.7248824","Longitude":"-75.1195322","Name":"Avenida Brisas del Norte"},{"Latitude":"7.0675634","Longitude":"-73.0857913","Name":"Avenida Bucarica"},{"Latitude":"2.9406972","Longitude":"-75.2671317","Name":"Avenida Buganviles"},{"Latitude":"4.5892520","Longitude":"-74.2262023","Name":"Avenida Calle 1"},{"Latitude":"4.5746500","Longitude":"-74.2183610","Name":"Avenida Calle 10"},{"Latitude":"4.6870441","Longitude":"-74.0572284","Name":"Avenida Calle 100"},{"Latitude":"4.5938431","Longitude":"-74.2216059","Name":"Avenida Calle 11"},{"Latitude":"4.5719758","Longitude":"-74.0776543","Name":"Avenida Calle 11 Sur"},{"Latitude":"4.6948458","Longitude":"-74.0369934","Name":"Avenida Calle 116"},{"Latitude":"4.6434795","Longitude":"-74.1309646","Name":"Avenida Calle 12"},{"Latitude":"4.7035135","Longitude":"-74.0328681","Name":"Avenida Calle 127"},{"Latitude":"4.6369445","Longitude":"-74.1176089","Name":"Avenida Calle 13"},{"Latitude":"4.7358454","Longitude":"-74.0997479","Name":"Avenida Calle 132"},{"Latitude":"4.7189369","Longitude":"-74.0511096","Name":"Avenida Calle 134"},{"Latitude":"4.7416708","Longitude":"-74.0983698","Name":"Avenida Calle 139"},{"Latitude":"4.7348718","Longitude":"-74.0802391","Name":"Avenida Calle 145"},{"Latitude":"4.1359144","Longitude":"-73.6429658","Name":"Avenida Calle 15"},{"Latitude":"4.7276823","Longitude":"-74.0244829","Name":"Avenida Calle 153"},{"Latitude":"4.7416054","Longitude":"-74.0468206","Name":"Avenida Calle 161"},{"Latitude":"4.6483020","Longitude":"-74.1259860","Name":"Avenida Calle 17"},{"Latitude":"4.7470829","Longitude":"-74.0226324","Name":"Avenida Calle 170"},{"Latitude":"4.7800239","Longitude":"-74.0879891","Name":"Avenida Calle 171"},{"Latitude":"10.9042429","Longitude":"-74.7687205","Name":"Avenida Calle 18"},{"Latitude":"4.7603399","Longitude":"-74.0425565","Name":"Avenida Calle 183"},{"Latitude":"4.6214350","Longitude":"-74.0914692","Name":"Avenida Calle 19"},{"Latitude":"4.6274246","Longitude":"-74.1048153","Name":"Avenida Calle 20"},{"Latitude":"4.6181076","Longitude":"-74.0844713","Name":"Avenida Calle 22"},{"Latitude":"4.5812119","Longitude":"-74.1025020","Name":"Avenida Calle 22 Sur"},{"Latitude":"4.6253351","Longitude":"-74.0842504","Name":"Avenida Calle 23"},{"Latitude":"4.6654726","Longitude":"-74.1193674","Name":"Avenida Calle 24"},{"Latitude":"4.6506952","Longitude":"-74.1072768","Name":"Avenida Calle 24A"},{"Latitude":"4.6245362","Longitude":"-74.0820091","Name":"Avenida Calle 25"},{"Latitude":"4.6658027","Longitude":"-74.1114534","Name":"Avenida Calle 26"},{"Latitude":"4.6735974","Longitude":"-74.1159501","Name":"Avenida Calle 26 (Avenida Jorge Eliecer Gaitán)"},{"Latitude":"4.6031248","Longitude":"-74.1219595","Name":"Avenida Calle 26 Sur"},{"Latitude":"10.4100834","Longitude":"-75.5330845","Name":"Avenida Calle 28"},{"Latitude":"10.4166317","Longitude":"-75.5363908","Name":"Avenida Calle 29"},{"Latitude":"4.6087429","Longitude":"-74.1078046","Name":"Avenida Calle 3"},{"Latitude":"4.5653820","Longitude":"-74.2389316","Name":"Avenida Calle 30 Sur"},{"Latitude":"4.1443250","Longitude":"-73.6340510","Name":"Avenida Calle 31"},{"Latitude":"4.6202876","Longitude":"-74.0744220","Name":"Avenida Calle 32"},{"Latitude":"4.5825143","Longitude":"-74.1982486","Name":"Avenida Calle 33"},{"Latitude":"4.6228494","Longitude":"-74.0696205","Name":"Avenida Calle 34"},{"Latitude":"4.5886506","Longitude":"-74.1222584","Name":"Avenida Calle 35D Sur"},{"Latitude":"4.5880759","Longitude":"-74.1965171","Name":"Avenida Calle 36"},{"Latitude":"4.5887758","Longitude":"-74.1228602","Name":"Avenida Calle 36 Sur"},{"Latitude":"4.4400860","Longitude":"-75.2166876","Name":"Avenida Calle 37"},{"Latitude":"4.5556525","Longitude":"-74.0940741","Name":"Avenida Calle 37 Sur"},{"Latitude":"4.6320909","Longitude":"-74.1729194","Name":"Avenida Calle 43 Sur"},{"Latitude":"4.5868472","Longitude":"-74.1285313","Name":"Avenida Calle 44 Sur"},{"Latitude":"4.6345679","Longitude":"-74.0793466","Name":"Avenida Calle 45"},{"Latitude":"4.5885565","Longitude":"-74.1923746","Name":"Avenida Calle 46"},{"Latitude":"10.4361636","Longitude":"-75.5351841","Name":"Avenida Calle 48"},{"Latitude":"4.6424033","Longitude":"-74.0776920","Name":"Avenida Calle 53"},{"Latitude":"4.6357162","Longitude":"-74.1866448","Name":"Avenida Calle 54 Sur"},{"Latitude":"4.6144773","Longitude":"-74.1747422","Name":"Avenida Calle 55 Sur"},{"Latitude":"4.5837049","Longitude":"-74.1431353","Name":"Avenida Calle 56A Sur"},{"Latitude":"4.6441054","Longitude":"-74.0656893","Name":"Avenida Calle 57"},{"Latitude":"4.5720099","Longitude":"-74.1394468","Name":"Avenida Calle 58A Sur"},{"Latitude":"4.5968985","Longitude":"-74.1774200","Name":"Avenida Calle 59 Sur"},{"Latitude":"4.5651646","Longitude":"-74.1382855","Name":"Avenida Calle 59A Sur"},{"Latitude":"4.6244777","Longitude":"-74.1904840","Name":"Avenida Calle 59C Sur"},{"Latitude":"4.6305289","Longitude":"-74.1368402","Name":"Avenida Calle 6"},{"Latitude":"4.5671114","Longitude":"-74.1404571","Name":"Avenida Calle 61 Sur"},{"Latitude":"4.6518472","Longitude":"-74.0772788","Name":"Avenida Calle 63"},{"Latitude":"4.6351797","Longitude":"-74.1991874","Name":"Avenida Calle 63 Sur"},{"Latitude":"10.8946167","Longitude":"-74.8039623","Name":"Avenida Calle 65"},{"Latitude":"4.6769213","Longitude":"-74.0854532","Name":"Avenida Calle 68"},{"Latitude":"4.5812028","Longitude":"-74.1579000","Name":"Avenida Calle 68 Sur"},{"Latitude":"4.5816380","Longitude":"-74.1617459","Name":"Avenida Calle 68F Sur"},{"Latitude":"5.0121275","Longitude":"-74.4728316","Name":"Avenida Calle 7"},{"Latitude":"4.5255042","Longitude":"-74.1261613","Name":"Avenida Calle 71 Sur"},{"Latitude":"4.5391036","Longitude":"-74.1325534","Name":"Avenida Calle 71B Sur"},{"Latitude":"4.6671348","Longitude":"-74.0726475","Name":"Avenida Calle 72"},{"Latitude":"4.6115710","Longitude":"-74.2018867","Name":"Avenida Calle 75 Sur"},{"Latitude":"4.6388352","Longitude":"-74.1428427","Name":"Avenida Calle 8"},{"Latitude":"4.6068161","Longitude":"-74.1169584","Name":"Avenida Calle 8 Sur"},{"Latitude":"4.6859680","Longitude":"-74.0809697","Name":"Avenida Calle 80"},{"Latitude":"4.6681525","Longitude":"-74.0534692","Name":"Avenida Calle 82"},{"Latitude":"4.5100400","Longitude":"-74.1177633","Name":"Avenida Calle 84 Sur"},{"Latitude":"4.6710753","Longitude":"-74.0574871","Name":"Avenida Calle 85"},{"Latitude":"4.6289973","Longitude":"-74.1226922","Name":"Avenida Calle 9"},{"Latitude":"4.5774350","Longitude":"-74.2335520","Name":"Avenida Calle 9 Sur"},{"Latitude":"4.7110270","Longitude":"-74.0956487","Name":"Avenida Calle 90"},{"Latitude":"4.6724292","Longitude":"-74.0455536","Name":"Avenida Calle 92"},{"Latitude":"4.6020606","Longitude":"-74.0986474","Name":"Avenida Calle3"},{"Latitude":"5.8096422","Longitude":"-73.0159776","Name":"Avenida Camilo Torres"},{"Latitude":"7.9061991","Longitude":"-72.4984974","Name":"Avenida Canal Bogota"},{"Latitude":"10.4237523","Longitude":"-75.5487024","Name":"Avenida Carlos Escallón"},{"Latitude":"10.4154293","Longitude":"-75.5509548","Name":"Avenida Carrera 1"},{"Latitude":"4.6116711","Longitude":"-74.0711918","Name":"Avenida Carrera 10"},{"Latitude":"4.7134565","Longitude":"-74.1150990","Name":"Avenida Carrera 104"},{"Latitude":"4.6828212","Longitude":"-74.0433246","Name":"Avenida Carrera 11"},{"Latitude":"4.6878322","Longitude":"-74.1493211","Name":"Avenida Carrera 116"},{"Latitude":"4.6906177","Longitude":"-74.1630466","Name":"Avenida Carrera 128"},{"Latitude":"4.6952987","Longitude":"-74.1582440","Name":"Avenida Carrera 129"},{"Latitude":"4.6542783","Longitude":"-74.0627837","Name":"Avenida Carrera 13"},{"Latitude":"4.4884023","Longitude":"-74.1200543","Name":"Avenida Carrera 14"},{"Latitude":"4.5192682","Longitude":"-74.1219004","Name":"Avenida Carrera 14V"},{"Latitude":"4.6592499","Longitude":"-74.0615611","Name":"Avenida Carrera 15"},{"Latitude":"10.4160387","Longitude":"-75.5424832","Name":"Avenida Carrera 16"},{"Latitude":"10.4225428","Longitude":"-75.5399503","Name":"Avenida Carrera 17"},{"Latitude":"4.6110982","Longitude":"-74.0798238","Name":"Avenida Carrera 18"},{"Latitude":"4.6283659","Longitude":"-74.0728077","Name":"Avenida Carrera 19"},{"Latitude":"4.5699093","Longitude":"-74.1319564","Name":"Avenida Carrera 19C"},{"Latitude":"10.4089560","Longitude":"-75.5506098","Name":"Avenida Carrera 2"},{"Latitude":"4.7247359","Longitude":"-74.2580536","Name":"Avenida Carrera 2 Este"},{"Latitude":"4.5976891","Longitude":"-74.1932379","Name":"Avenida Carrera 20"},{"Latitude":"4.1153988","Longitude":"-73.6091776","Name":"Avenida Carrera 22"},{"Latitude":"4.6510703","Longitude":"-74.0724976","Name":"Avenida Carrera 24"},{"Latitude":"4.5879646","Longitude":"-74.1211178","Name":"Avenida Carrera 26G"},{"Latitude":"4.5888097","Longitude":"-74.1182096","Name":"Avenida Carrera 27"},{"Latitude":"4.1546840","Longitude":"-73.6357940","Name":"Avenida Carrera 29"},{"Latitude":"4.6371097","Longitude":"-74.0598670","Name":"Avenida Carrera 3"},{"Latitude":"4.5891804","Longitude":"-74.1193807","Name":"Avenida Carrera 30"},{"Latitude":"10.4077857","Longitude":"-75.5099766","Name":"Avenida Carrera 31"},{"Latitude":"4.5865706","Longitude":"-74.1290283","Name":"Avenida Carrera 33"},{"Latitude":"4.5899265","Longitude":"-74.1235643","Name":"Avenida Carrera 34"},{"Latitude":"4.6097238","Longitude":"-74.2163656","Name":"Avenida Carrera 36"},{"Latitude":"10.9314596","Longitude":"-74.7675033","Name":"Avenida Carrera 37"},{"Latitude":"10.9797990","Longitude":"-74.7870427","Name":"Avenida Carrera 38"},{"Latitude":"4.6222354","Longitude":"-74.0969163","Name":"Avenida Carrera 39"},{"Latitude":"4.5503337","Longitude":"-74.0924552","Name":"Avenida Carrera 4 Este"},{"Latitude":"4.6259087","Longitude":"-74.0955422","Name":"Avenida Carrera 40"},{"Latitude":"10.9305659","Longitude":"-74.7886337","Name":"Avenida Carrera 42"},{"Latitude":"11.0042254","Longitude":"-74.8260705","Name":"Avenida Carrera 46"},{"Latitude":"4.4857362","Longitude":"-74.1155038","Name":"Avenida Carrera 5"},{"Latitude":"4.7035825","Longitude":"-74.2246669","Name":"Avenida Carrera 5 Este"},{"Latitude":"4.6399984","Longitude":"-74.0944634","Name":"Avenida Carrera 50"},{"Latitude":"4.5789399","Longitude":"-74.1472377","Name":"Avenida Carrera 51"},{"Latitude":"4.5938430","Longitude":"-74.1380241","Name":"Avenida Carrera 53"},{"Latitude":"4.7022739","Longitude":"-74.0667244","Name":"Avenida Carrera 55"},{"Latitude":"4.7333437","Longitude":"-74.0626071","Name":"Avenida Carrera 58"},{"Latitude":"4.5775465","Longitude":"-74.0877806","Name":"Avenida Carrera 6"},{"Latitude":"4.6512808","Longitude":"-74.0943253","Name":"Avenida Carrera 60"},{"Latitude":"4.6864627","Longitude":"-74.0761936","Name":"Avenida Carrera 68"},{"Latitude":"4.7926559","Longitude":"-74.0295112","Name":"Avenida Carrera 7"},{"Latitude":"4.6920378","Longitude":"-74.0858947","Name":"Avenida Carrera 70"},{"Latitude":"4.5913012","Longitude":"-74.1615180","Name":"Avenida Carrera 70C"},{"Latitude":"4.6077095","Longitude":"-74.1615011","Name":"Avenida Carrera 71B"},{"Latitude":"4.7032298","Longitude":"-74.0809434","Name":"Avenida Carrera 72"},{"Latitude":"4.6005186","Longitude":"-74.1807099","Name":"Avenida Carrera 77M"},{"Latitude":"4.6004581","Longitude":"-74.1852715","Name":"Avenida Carrera 78A"},{"Latitude":"4.6021545","Longitude":"-74.1905045","Name":"Avenida Carrera 78C"},{"Latitude":"4.8149022","Longitude":"-73.6366657","Name":"Avenida Carrera 8"},{"Latitude":"4.6075194","Longitude":"-74.1823099","Name":"Avenida Carrera 80"},{"Latitude":"4.6318519","Longitude":"-74.1551372","Name":"Avenida Carrera 80C"},{"Latitude":"4.6341690","Longitude":"-74.1551982","Name":"Avenida Carrera 80G"},{"Latitude":"4.6130120","Longitude":"-74.1975969","Name":"Avenida Carrera 82"},{"Latitude":"4.6159956","Longitude":"-74.1913821","Name":"Avenida Carrera 84"},{"Latitude":"4.6187895","Longitude":"-74.1848576","Name":"Avenida Carrera 84C"},{"Latitude":"4.6799578","Longitude":"-74.1186941","Name":"Avenida Carrera 86"},{"Latitude":"7.0921208","Longitude":"-73.1134005","Name":"Avenida Carrera 89"},{"Latitude":"4.6360132","Longitude":"-74.1749124","Name":"Avenida Carrera 89B"},{"Latitude":"4.6868555","Longitude":"-74.0445987","Name":"Avenida Carrera 9"},{"Latitude":"4.5821780","Longitude":"-74.1915724","Name":"Avenida Carrera 9 Este"},{"Latitude":"4.7162998","Longitude":"-74.0941534","Name":"Avenida Carrera 91"},{"Latitude":"4.7436349","Longitude":"-74.0845224","Name":"Avenida Carrera 92"},{"Latitude":"4.6934106","Longitude":"-74.1193124","Name":"Avenida Carrera 96"},{"Latitude":"11.5237810","Longitude":"-72.8979882","Name":"Avenida Carrera Séptima"},{"Latitude":"6.2815060","Longitude":"-75.3308233","Name":"Avenida Carvajal"},{"Latitude":"7.5954494","Longitude":"-72.6033813","Name":"Avenida Cataluña"},{"Latitude":"4.1465870","Longitude":"-73.6097660","Name":"Avenida Catama"},{"Latitude":"11.0202726","Longitude":"-74.8636860","Name":"Avenida Cayena Real"},{"Latitude":"4.6207404","Longitude":"-75.7662667","Name":"Avenida Centenario"},{"Latitude":"5.7544576","Longitude":"-73.4371884","Name":"Avenida Central"},{"Latitude":"4.8557189","Longitude":"-74.0676280","Name":"Avenida Chilacos"},{"Latitude":"4.8643686","Longitude":"-74.0648945","Name":"Avenida Chilacos - Carrera 16"},{"Latitude":"10.4029088","Longitude":"-75.5524153","Name":"Avenida Chile"},{"Latitude":"7.0652892","Longitude":"-73.8646302","Name":"Avenida Circunvalación Oeste Carrera 11"},{"Latitude":"5.8339914","Longitude":"-73.0351865","Name":"Avenida Circunvalar"},{"Latitude":"4.5283427","Longitude":"-75.7218776","Name":"Avenida Ciudad Dorada"},{"Latitude":"4.7099816","Longitude":"-74.0944968","Name":"Avenida Ciudad de Cali"},{"Latitude":"4.5051729","Longitude":"-74.0882453","Name":"Avenida Ciudad de Villavicencio"},{"Latitude":"1.6205202","Longitude":"-75.6319469","Name":"Avenida Ciudadela Siglo XXI"},{"Latitude":"5.5690041","Longitude":"-73.3303709","Name":"Avenida Colinas Verdes"},{"Latitude":"1.2082217","Longitude":"-77.2723139","Name":"Avenida Colombia"},{"Latitude":"5.5378903","Longitude":"-73.3604699","Name":"Avenida Colon"},{"Latitude":"12.5847052","Longitude":"-81.6963931","Name":"Avenida Colón"},{"Latitude":"4.5702273","Longitude":"-74.2405158","Name":"Avenida Compartir"},{"Latitude":"4.6175140","Longitude":"-76.0772873","Name":"Avenida Conquistadores Calle 11"},{"Latitude":"4.5630300","Longitude":"-75.7500832","Name":"Avenida Corrales"},{"Latitude":"12.5835802","Longitude":"-81.6935325","Name":"Avenida Costa Rica / Carrera 3"},{"Latitude":"6.6431085","Longitude":"-75.4605440","Name":"Avenida Crespo"},{"Latitude":"10.3955179","Longitude":"-75.5173778","Name":"Avenida Crisanto Luque"},{"Latitude":"9.7154810","Longitude":"-75.1164740","Name":"Avenida Cuatro Bocas"},{"Latitude":"3.2666209","Longitude":"-76.5151903","Name":"Avenida Cucha"},{"Latitude":"9.5925513","Longitude":"-75.4030136","Name":"Avenida Culebras"},{"Latitude":"10.4239782","Longitude":"-75.5454383","Name":"Avenida Daniel Lemaitre"},{"Latitude":"4.5879935","Longitude":"-74.2237576","Name":"Avenida Danubio"},{"Latitude":"3.2581419","Longitude":"-76.5740813","Name":"Avenida De Las Acacias"},{"Latitude":"3.2604648","Longitude":"-76.5670748","Name":"Avenida De Las Mercedes"},{"Latitude":"3.2520550","Longitude":"-76.5759223","Name":"Avenida De Los Cambulos"},{"Latitude":"0.8185791","Longitude":"-77.7137214","Name":"Avenida Del Cementerio"},{"Latitude":"1.8552580","Longitude":"-76.0506860","Name":"Avenida Del Estudiante"},{"Latitude":"3.2561092","Longitude":"-76.5379567","Name":"Avenida Del Portal"},{"Latitude":"9.7917658","Longitude":"-74.7959036","Name":"Avenida Del Río"},{"Latitude":"4.6316695","Longitude":"-74.1549424","Name":"Avenida Diagonal 2"},{"Latitude":"10.3941187","Longitude":"-75.5171689","Name":"Avenida Diagonal 22"},{"Latitude":"4.5612884","Longitude":"-74.2347242","Name":"Avenida Diagonal 30 Sur"},{"Latitude":"4.5923215","Longitude":"-74.2028301","Name":"Avenida Diagonal 35"},{"Latitude":"4.5907544","Longitude":"-74.2001773","Name":"Avenida Diagonal 37"},{"Latitude":"4.5910729","Longitude":"-74.1998209","Name":"Avenida Diagonal 38"},{"Latitude":"4.6026571","Longitude":"-74.2071515","Name":"Avenida Diagonal 40"},{"Latitude":"4.5754004","Longitude":"-74.2332270","Name":"Avenida Diagonal 9 Sur"},{"Latitude":"12.5837730","Longitude":"-81.6957975","Name":"Avenida Duarte Blum"},{"Latitude":"4.5696888","Longitude":"-74.2323821","Name":"Avenida Ducales"},{"Latitude":"0.1163220","Longitude":"-75.8646965","Name":"Avenida Ecuador"},{"Latitude":"3.2178274","Longitude":"-76.5917528","Name":"Avenida El Futuro"},{"Latitude":"5.0844534","Longitude":"-75.4873191","Name":"Avenida El Guamo"},{"Latitude":"3.2186670","Longitude":"-76.5926881","Name":"Avenida El Paseo"},{"Latitude":"5.7116444","Longitude":"-72.9287082","Name":"Avenida El Sol"},{"Latitude":"3.2706751","Longitude":"-76.5126516","Name":"Avenida Farallones"},{"Latitude":"4.1523781","Longitude":"-74.8932031","Name":"Avenida Ferrocarril"},{"Latitude":"-2.9304187","Longitude":"-69.6960133","Name":"Avenida Floriano Peixoto"},{"Latitude":"8.2636627","Longitude":"-73.3607634","Name":"Avenida Francisco Fernandez de Contreras"},{"Latitude":"4.1375060","Longitude":"-73.5890796","Name":"Avenida Francisco José de Caldas"},{"Latitude":"12.5739133","Longitude":"-81.7064752","Name":"Avenida Francisco Newball / Calle 17"},{"Latitude":"12.5777481","Longitude":"-81.6994680","Name":"Avenida Francisco Newball / Carrera 1"},{"Latitude":"5.3814199","Longitude":"-75.1630928","Name":"Avenida Fundadores"},{"Latitude":"3.3729637","Longitude":"-76.5318544","Name":"Avenida Garcés"},{"Latitude":"5.0686971","Longitude":"-75.5215435","Name":"Avenida Gilberto Alzate Avendaño"},{"Latitude":"7.1107704","Longitude":"-73.1121905","Name":"Avenida González Valencia"},{"Latitude":"7.8955516","Longitude":"-72.4879850","Name":"Avenida Gran Colombia"},{"Latitude":"4.4422049","Longitude":"-75.1950001","Name":"Avenida Guabinal"},{"Latitude":"4.4340228","Longitude":"-75.2234325","Name":"Avenida Guadaleja"},{"Latitude":"7.9148450","Longitude":"-72.4936661","Name":"Avenida Guaimaral"},{"Latitude":"4.8334474","Longitude":"-74.0710849","Name":"Avenida Guaymaral"},{"Latitude":"4.5330212","Longitude":"-75.6779234","Name":"Avenida Guillermo León Valencia"},{"Latitude":"10.9694874","Longitude":"-74.7658668","Name":"Avenida Hamburgo"},{"Latitude":"12.5817009","Longitude":"-81.6945103","Name":"Avenida Hell Gate / Calle 4A"},{"Latitude":"11.2343943","Longitude":"-74.2132594","Name":"Avenida Hernández Pardo"},{"Latitude":"5.0104231","Longitude":"-73.9962067","Name":"Avenida Industrial"},{"Latitude":"5.0102932","Longitude":"-73.9996457","Name":"Avenida Industriales"},{"Latitude":"7.8519856","Longitude":"-76.6367774","Name":"Avenida Interior B"},{"Latitude":"7.8510293","Longitude":"-76.6371086","Name":"Avenida Interior C"},{"Latitude":"4.9178170","Longitude":"-75.0537974","Name":"Avenida Isidro Parra"},{"Latitude":"4.6034777","Longitude":"-74.0798071","Name":"Avenida Jiménez de Quesada"},{"Latitude":"10.3808679","Longitude":"-75.4876321","Name":"Avenida John F. Kennedy"},{"Latitude":"4.9194144","Longitude":"-74.0309204","Name":"Avenida Jorge Cavelier"},{"Latitude":"4.6949950","Longitude":"-74.1403105","Name":"Avenida Jorge Eliecer Gaitán"},{"Latitude":"4.7298170","Longitude":"-74.0227440","Name":"Avenida Jorge Uribe Botero"},{"Latitude":"5.0854108","Longitude":"-75.5262955","Name":"Avenida José Restrepo"},{"Latitude":"4.8004729","Longitude":"-75.6869394","Name":"Avenida Juan B. Gutiérrez"},{"Latitude":"5.5648645","Longitude":"-73.3538457","Name":"Avenida Juan José Rondon"},{"Latitude":"12.5846325","Longitude":"-81.7034137","Name":"Avenida Juan XXIII"},{"Latitude":"5.5694403","Longitude":"-73.3498232","Name":"Avenida Juana José Rondon"},{"Latitude":"0.8006545","Longitude":"-77.7375155","Name":"Avenida Julio Robles"},{"Latitude":"0.8196938","Longitude":"-77.7213588","Name":"Avenida Julio Robles C"},{"Latitude":"1.2056470","Longitude":"-77.2783856","Name":"Avenida Julián Bucheli"},{"Latitude":"7.9048248","Longitude":"-72.5157680","Name":"Avenida Kennedy"},{"Latitude":"5.0490032","Longitude":"-75.4819856","Name":"Avenida Kevin Ángel"},{"Latitude":"12.5831954","Longitude":"-81.6947838","Name":"Avenida La Jaiba"},{"Latitude":"1.8089569","Longitude":"-78.7716905","Name":"Avenida La Playa"},{"Latitude":"5.3786769","Longitude":"-75.1683913","Name":"Avenida La Salle"},{"Latitude":"5.0617000","Longitude":"-75.4694253","Name":"Avenida La Sultana"},{"Latitude":"2.9331389","Longitude":"-75.2823056","Name":"Avenida La Toma"},{"Latitude":"5.7565416","Longitude":"-73.4375925","Name":"Avenida La Variante"},{"Latitude":"7.9131227","Longitude":"-72.5234752","Name":"Avenida Las Americas"},{"Latitude":"1.2079011","Longitude":"-77.2776432","Name":"Avenida Las Américas"},{"Latitude":"5.0656739","Longitude":"-75.5025356","Name":"Avenida Las Araucarias"},{"Latitude":"11.0228343","Longitude":"-74.8603626","Name":"Avenida Las Dunas"},{"Latitude":"4.3426132","Longitude":"-74.3608484","Name":"Avenida Las Palmas"},{"Latitude":"3.2599256","Longitude":"-76.5699474","Name":"Avenida Las Torres"},{"Latitude":"7.1510369","Longitude":"-73.1325689","Name":"Avenida Libertadores"},{"Latitude":"2.4531657","Longitude":"-76.8110103","Name":"Avenida Liborio Mejia"},{"Latitude":"5.0553133","Longitude":"-75.4881876","Name":"Avenida Lindsay"},{"Latitude":"4.7361172","Longitude":"-74.1041209","Name":"Avenida Longitudinal de Occidente"},{"Latitude":"3.2607964","Longitude":"-76.5667563","Name":"Avenida Los Chiminangos"},{"Latitude":"3.2680376","Longitude":"-76.5108813","Name":"Avenida Los Guayacanes"},{"Latitude":"5.0554689","Longitude":"-75.4836761","Name":"Avenida Los Laureles"},{"Latitude":"12.5835754","Longitude":"-81.6945290","Name":"Avenida Los Libertadores"},{"Latitude":"3.2652663","Longitude":"-76.5168813","Name":"Avenida Los Mangos"},{"Latitude":"0.8383049","Longitude":"-77.7083848","Name":"Avenida Los Pastos"},{"Latitude":"3.2537482","Longitude":"-76.5764639","Name":"Avenida Los Pisamos"},{"Latitude":"11.0234230","Longitude":"-74.8612082","Name":"Avenida Los Robles"},{"Latitude":"4.6112204","Longitude":"-74.2260645","Name":"Avenida Luis Carlos Galán - Calle 13"},{"Latitude":"10.4255110","Longitude":"-75.5445356","Name":"Avenida Luis Carlos López"},{"Latitude":"5.6616354","Longitude":"-75.8770020","Name":"Avenida Medellín"},{"Latitude":"4.5818017","Longitude":"-74.4457482","Name":"Avenida Medina"},{"Latitude":"1.2060680","Longitude":"-77.2932777","Name":"Avenida Mijitayo"},{"Latitude":"4.4265174","Longitude":"-75.1931935","Name":"Avenida Mirolindo"},{"Latitude":"3.2702779","Longitude":"-76.5267887","Name":"Avenida Montana"},{"Latitude":"4.5146188","Longitude":"-75.7020009","Name":"Avenida Montecarlo"},{"Latitude":"2.9086510","Longitude":"-75.2735498","Name":"Avenida Máx Duque"},{"Latitude":"12.5818665","Longitude":"-81.7129846","Name":"Avenida Nixon Hill / Carrera 13"},{"Latitude":"5.5468201","Longitude":"-73.3558359","Name":"Avenida Norte"},{"Latitude":"9.2264728","Longitude":"-75.8209100","Name":"Avenida Olaya Herrera"},{"Latitude":"5.5434567","Longitude":"-73.3535867","Name":"Avenida Olimpica"},{"Latitude":"4.4152871","Longitude":"-76.1452308","Name":"Avenida Omar Rayo"},{"Latitude":"5.5449652","Longitude":"-73.3578245","Name":"Avenida Oriental"},{"Latitude":"7.0763531","Longitude":"-73.0830516","Name":"Avenida Oriental Avenida 60"},{"Latitude":"4.6819111","Longitude":"-74.1154283","Name":"Avenida Pablo VI"},{"Latitude":"8.5893709","Longitude":"-73.8401658","Name":"Avenida Pablo XI"},{"Latitude":"1.2037389","Longitude":"-77.2833352","Name":"Avenida Panamericana"},{"Latitude":"4.8101012","Longitude":"-75.7037401","Name":"Avenida Paralela"},{"Latitude":"1.8461820","Longitude":"-76.0604448","Name":"Avenida Pastrana"},{"Latitude":"4.4373695","Longitude":"-75.1867902","Name":"Avenida Pedro Tafur"},{"Latitude":"4.3807430","Longitude":"-75.1230767","Name":"Avenida Picaleña"},{"Latitude":"4.5924622","Longitude":"-74.2077285","Name":"Avenida Potrero Grande"},{"Latitude":"4.8646420","Longitude":"-74.0412443","Name":"Avenida Pradilla - Diagonal 13"},{"Latitude":"4.6674484","Longitude":"-74.3454463","Name":"Avenida Principal"},{"Latitude":"4.3955749","Longitude":"-75.1439711","Name":"Avenida Principal Arboleda del Campestre"},{"Latitude":"4.5286356","Longitude":"-73.9242823","Name":"Avenida Principal Carrera 5"},{"Latitude":"4.0940294","Longitude":"-76.2362722","Name":"Avenida Principal Nariño"},{"Latitude":"12.5812487","Longitude":"-81.6953193","Name":"Avenida Providencia / Carrera 2"},{"Latitude":"9.7180891","Longitude":"-75.1286646","Name":"Avenida Real Alferez"},{"Latitude":"5.7536307","Longitude":"-73.4378151","Name":"Avenida Riaño"},{"Latitude":"4.4304434","Longitude":"-75.2452733","Name":"Avenida Ricaurte"},{"Latitude":"4.4199712","Longitude":"-75.2560143","Name":"Avenida Ricaute"},{"Latitude":"0.1212986","Longitude":"-75.8620881","Name":"Avenida Rio Amazonas"},{"Latitude":"11.2492541","Longitude":"-74.2133518","Name":"Avenida Rodrigo de Bastidas"},{"Latitude":"10.4620162","Longitude":"-73.2431560","Name":"Avenida Salguero"},{"Latitude":"7.9682906","Longitude":"-75.4200025","Name":"Avenida San Francisco"},{"Latitude":"4.5806832","Longitude":"-74.2258849","Name":"Avenida San Maron"},{"Latitude":"4.8128248","Longitude":"-75.7300016","Name":"Avenida San Mateo"},{"Latitude":"0.8030466","Longitude":"-77.7340700","Name":"Avenida Sangay"},{"Latitude":"5.0660229","Longitude":"-75.5064721","Name":"Avenida Santander"},{"Latitude":"3.2563742","Longitude":"-76.5644332","Name":"Avenida Santo Domingo"},{"Latitude":"-2.9299500","Longitude":"-69.6955937","Name":"Avenida Santos Dumont"},{"Latitude":"0.7972833","Longitude":"-77.7373347","Name":"Avenida Seminario"},{"Latitude":"3.7244836","Longitude":"-75.4772414","Name":"Avenida Simon Bolivar"},{"Latitude":"3.8815247","Longitude":"-77.0374846","Name":"Avenida Simón Bolívar"},{"Latitude":"10.2551595","Longitude":"-75.3445998","Name":"Avenida Simón Bossa"},{"Latitude":"10.4365724","Longitude":"-75.5343212","Name":"Avenida Soledad Román"},{"Latitude":"7.5964608","Longitude":"-72.6041051","Name":"Avenida Solias"},{"Latitude":"1.8620867","Longitude":"-76.0344753","Name":"Avenida Sucre"},{"Latitude":"3.2182848","Longitude":"-76.5932856","Name":"Avenida Sun Village"},{"Latitude":"9.7156053","Longitude":"-75.1156911","Name":"Avenida Tabacal"},{"Latitude":"11.0236096","Longitude":"-74.8620779","Name":"Avenida Tajamar"},{"Latitude":"11.1904407","Longitude":"-74.2298106","Name":"Avenida Tamaca"},{"Latitude":"7.0921693","Longitude":"-73.0986916","Name":"Avenida Tejar"},{"Latitude":"2.9384975","Longitude":"-75.2875133","Name":"Avenida Tenerife"},{"Latitude":"4.5175710","Longitude":"-75.6978454","Name":"Avenida Tigreros"},{"Latitude":"4.5938474","Longitude":"-74.2012260","Name":"Avenida Transversal 15"},{"Latitude":"4.5979533","Longitude":"-74.2044870","Name":"Avenida Transversal 19"},{"Latitude":"4.5982264","Longitude":"-74.2141989","Name":"Avenida Transversal 24B"},{"Latitude":"4.6057457","Longitude":"-74.2203943","Name":"Avenida Transversal 34"},{"Latitude":"10.3887960","Longitude":"-75.5000263","Name":"Avenida Transversal 54"},{"Latitude":"4.6190060","Longitude":"-74.1447803","Name":"Avenida Transversal 73A Bis A"},{"Latitude":"4.5839392","Longitude":"-74.1906947","Name":"Avenida Transversal 9 Este"},{"Latitude":"9.2543490","Longitude":"-74.4297404","Name":"Avenida Trisesquicentenario"},{"Latitude":"0.7999123","Longitude":"-77.7285312","Name":"Avenida Tulcanaza"},{"Latitude":"5.2013050","Longitude":"-75.8668454","Name":"Avenida Umbría"},{"Latitude":"5.5357498","Longitude":"-73.3539540","Name":"Avenida Universitaria"},{"Latitude":"4.9542149","Longitude":"-77.3685935","Name":"Avenida Uribe"},{"Latitude":"4.9854632","Longitude":"-75.6009451","Name":"Avenida Uriel Gutiérrez - Carrera 4"},{"Latitude":"0.7957757","Longitude":"-77.7372555","Name":"Avenida Veintimilla"},{"Latitude":"10.4266044","Longitude":"-75.5446467","Name":"Avenida Venezuela"},{"Latitude":"4.9354421","Longitude":"-75.7385256","Name":"Avenida Villa Rica de Segovia"},{"Latitude":"3.2655530","Longitude":"-76.5178493","Name":"Avenida Virginia"},{"Latitude":"5.0319976","Longitude":"-75.1212283","Name":"Avenida a la Alameda"},{"Latitude":"2.9212079","Longitude":"-75.2843426","Name":"Avenida circunvalar"},{"Latitude":"4.3116220","Longitude":"-74.7668365","Name":"Avenida ciudad de Girardot"},{"Latitude":"4.3150363","Longitude":"-74.7665553","Name":"Avenida de Girardot"},{"Latitude":"1.2273105","Longitude":"-77.2827505","Name":"Avenida de Los Estudiantes"},{"Latitude":"4.5386670","Longitude":"-75.7024753","Name":"Avenida de Occidente"},{"Latitude":"7.1037366","Longitude":"-73.1234773","Name":"Avenida de Studeants"},{"Latitude":"10.3919478","Longitude":"-75.5312653","Name":"Avenida de la Escala Real"},{"Latitude":"4.6352893","Longitude":"-74.1097160","Name":"Avenida de la Esmeralda"},{"Latitude":"4.8076570","Longitude":"-75.7308800","Name":"Avenida de la Independecia"},{"Latitude":"4.8037879","Longitude":"-75.7369949","Name":"Avenida de la Independencia"},{"Latitude":"10.4273068","Longitude":"-75.5451310","Name":"Avenida de la Serrezuela"},{"Latitude":"4.3155142","Longitude":"-74.7797449","Name":"Avenida de las Acacias"},{"Latitude":"5.8088124","Longitude":"-73.0286014","Name":"Avenida de las Americas"},{"Latitude":"4.6283168","Longitude":"-74.1210183","Name":"Avenida de las Américas"},{"Latitude":"12.5844084","Longitude":"-81.7002807","Name":"Avenida de las Américas / Calle 4"},{"Latitude":"4.3109055","Longitude":"-74.7772623","Name":"Avenida de las Aves"},{"Latitude":"4.3186070","Longitude":"-74.7733672","Name":"Avenida de las Frutas"},{"Latitude":"4.3143409","Longitude":"-74.7787779","Name":"Avenida de las Pitahayas"},{"Latitude":"4.5256083","Longitude":"-75.6975240","Name":"Avenida de los Camellos"},{"Latitude":"3.4333152","Longitude":"-76.5576295","Name":"Avenida de los Carboneros"},{"Latitude":"4.6716735","Longitude":"-74.0436843","Name":"Avenida de los Cerros"},{"Latitude":"6.8811491","Longitude":"-73.4163513","Name":"Avenida del Cacao"},{"Latitude":"10.3925104","Longitude":"-75.5296039","Name":"Avenida del Candil"},{"Latitude":"0.8185085","Longitude":"-77.7138004","Name":"Avenida del Cementerio"},{"Latitude":"10.4228355","Longitude":"-75.5464080","Name":"Avenida del Centenario"},{"Latitude":"0.1186286","Longitude":"-75.8628434","Name":"Avenida del Comando"},{"Latitude":"4.5766205","Longitude":"-74.2104628","Name":"Avenida del Estadio"},{"Latitude":"1.8612900","Longitude":"-76.0585299","Name":"Avenida del Estudiante"},{"Latitude":"6.2607502","Longitude":"-75.5692637","Name":"Avenida del Ferrocarril"},{"Latitude":"4.6064408","Longitude":"-74.1359686","Name":"Avenida del Ferrocarril del Sur"},{"Latitude":"10.4055260","Longitude":"-75.5238027","Name":"Avenida del Lago"},{"Latitude":"11.2357039","Longitude":"-74.1785250","Name":"Avenida del Libertador"},{"Latitude":"10.4180560","Longitude":"-75.5451538","Name":"Avenida del Pedregal"},{"Latitude":"10.4188465","Longitude":"-75.5524090","Name":"Avenida del Pescador"},{"Latitude":"11.0211200","Longitude":"-74.7941298","Name":"Avenida del Río"},{"Latitude":"4.3192447","Longitude":"-74.7686887","Name":"Avenida del lago"},{"Latitude":"10.4062407","Longitude":"-75.5262780","Name":"Avenida el Bosque"},{"Latitude":"4.5301279","Longitude":"-75.6378275","Name":"Avenida el Cacique"},{"Latitude":"7.1166807","Longitude":"-73.1043683","Name":"Avenida el Jardin"},{"Latitude":"7.1134612","Longitude":"-73.1061033","Name":"Avenida el Jardín"},{"Latitude":"5.5158218","Longitude":"-73.3685644","Name":"Avenida el Progreso"},{"Latitude":"6.6967623","Longitude":"-73.0146552","Name":"Avenida el Ramal"},{"Latitude":"10.3964664","Longitude":"-75.5623684","Name":"Avenida el Retorno"},{"Latitude":"2.5690713","Longitude":"-72.6452683","Name":"Avenida el Retorno Carrera 20"},{"Latitude":"11.0250904","Longitude":"-74.8581257","Name":"Avenida el Rosal"},{"Latitude":"7.9340707","Longitude":"-72.4970145","Name":"Avenida el Salado"},{"Latitude":"4.9351987","Longitude":"-73.8332312","Name":"Avenida la Cacica"},{"Latitude":"4.8047073","Longitude":"-74.0979584","Name":"Avenida la Conejera"},{"Latitude":"4.8068813","Longitude":"-74.1002605","Name":"Avenida la Conejera - Calle 11"},{"Latitude":"7.1164317","Longitude":"-73.1187745","Name":"Avenida la Rosita"},{"Latitude":"5.6099269","Longitude":"-73.3478259","Name":"Avenida la Variante"},{"Latitude":"7.9118639","Longitude":"-72.5175636","Name":"Avenida las Americas"},{"Latitude":"4.5427085","Longitude":"-75.6847133","Name":"Avenida las Américas"},{"Latitude":"7.1042130","Longitude":"-73.1287095","Name":"Avenida los Bucaros"},{"Latitude":"11.0230052","Longitude":"-74.8573253","Name":"Avenida los Cocos"},{"Latitude":"7.8970871","Longitude":"-72.4945615","Name":"Avenida los Faroles"},{"Latitude":"4.9219319","Longitude":"-75.0597206","Name":"Avenida los Fundadores"},{"Latitude":"3.7067599","Longitude":"-73.6823994","Name":"Avenida los Libertadores"},{"Latitude":"4.1297090","Longitude":"-73.5874430","Name":"Avenida los Maracos"},{"Latitude":"5.5232325","Longitude":"-73.3546294","Name":"Avenida los Patriotas"},{"Latitude":"3.4578053","Longitude":"-76.5589829","Name":"Avenida lucio velazco"},{"Latitude":"7.8799553","Longitude":"-72.5386309","Name":"Avenidad 43"},{"Latitude":"7.1127466","Longitude":"-73.1140430","Name":"Avenidad González Valencia"},{"Latitude":"2.6538211","Longitude":"-75.9763534","Name":"Avirama"},{"Latitude":"0.8125838","Longitude":"-77.7170968","Name":"Ayacucho"},{"Latitude":"0.8210400","Longitude":"-77.7137144","Name":"Azuay"},{"Latitude":"7.9113542","Longitude":"-72.4873003","Name":"BAHIA"},{"Latitude":"7.0572904","Longitude":"-73.8271688","Name":"Bajos"},{"Latitude":"7.0610474","Longitude":"-73.8258640","Name":"Bajos Cenagosos"},{"Latitude":"8.3020334","Longitude":"-77.0761950","Name":"Balboa - Titumate"},{"Latitude":"4.0306983","Longitude":"-74.5323290","Name":"Balconcitos-Nuevo Mundo"},{"Latitude":"0.7976875","Longitude":"-77.7418976","Name":"Balzar"},{"Latitude":"10.3181784","Longitude":"-75.3951374","Name":"BarRío 5 de Octubre"},{"Latitude":"3.3365140","Longitude":"-74.9573445","Name":"Baraya-Alpujarra"},{"Latitude":"3.3695136","Longitude":"-74.8282542","Name":"Baraya-Colombia"},{"Latitude":"6.4168260","Longitude":"-75.2948370","Name":"Barbosa - Concepción"},{"Latitude":"6.2209933","Longitude":"-73.8106397","Name":"Barranco"},{"Latitude":"4.8090833","Longitude":"-75.6897562","Name":"Barranquero"},{"Latitude":"10.9704632","Longitude":"-74.8663176","Name":"Barranquilla - Tubara"},{"Latitude":"4.0013986","Longitude":"-73.7722891","Name":"Barrio Bella Suiza"},{"Latitude":"7.3642078","Longitude":"-72.6628241","Name":"Barrio El Zulia"},{"Latitude":"1.2529429","Longitude":"-70.2314113","Name":"Barrio Inaya"},{"Latitude":"4.3047770","Longitude":"-72.1106374","Name":"Barrio San Pablo"},{"Latitude":"2.4511351","Longitude":"-76.8064206","Name":"Barrio San Vicente"},{"Latitude":"10.3234463","Longitude":"-75.4124538","Name":"Barrio el Carmen 1ra Calle"},{"Latitude":"10.3231932","Longitude":"-75.4125162","Name":"Barrio el Carmen 2da Calle"},{"Latitude":"10.3229598","Longitude":"-75.4126314","Name":"Barrio el Cramen 3ra Calle"},{"Latitude":"9.2289825","Longitude":"-74.4191389","Name":"Barrio santa fe"},{"Latitude":"7.8710585","Longitude":"-72.5235775","Name":"Barrionuevo"},{"Latitude":"6.9695150","Longitude":"-73.0781939","Name":"Barro Blanca"},{"Latitude":"3.5628308","Longitude":"-76.4917922","Name":"Bascula"},{"Latitude":"11.2437611","Longitude":"-74.2147587","Name":"Bastidas"},{"Latitude":"4.8086430","Longitude":"-75.7292870","Name":"Batallón San Mateo"},{"Latitude":"5.3067084","Longitude":"-73.4253576","Name":"Batan-Rio Turmeque"},{"Latitude":"8.0389543","Longitude":"-76.3342465","Name":"Batata - Valencia"},{"Latitude":"4.3229529","Longitude":"-74.5166722","Name":"Bateas"},{"Latitude":"4.3316626","Longitude":"-74.5153727","Name":"Bateas - Cumaca"},{"Latitude":"0.8144477","Longitude":"-77.7101521","Name":"Beatriz Alvarez"},{"Latitude":"-4.2259906","Longitude":"-69.9352245","Name":"Beco Rui Barbosa"},{"Latitude":"-4.2259212","Longitude":"-69.9389841","Name":"Beco São Francisco"},{"Latitude":"2.6714749","Longitude":"-75.7824480","Name":"Belalcazar"},{"Latitude":"2.5480644","Longitude":"-75.8348115","Name":"Belalcazar - Araujo"},{"Latitude":"0.8033630","Longitude":"-77.7254277","Name":"Belen"},{"Latitude":"1.5765790","Longitude":"-76.9801244","Name":"Belen - La Cruz"},{"Latitude":"1.6204502","Longitude":"-77.0161241","Name":"Belen-Genova"},{"Latitude":"1.5652210","Longitude":"-75.8655757","Name":"Belen-SanLuis"},{"Latitude":"6.2708462","Longitude":"-75.6311121","Name":"Bellavista"},{"Latitude":"10.2756391","Longitude":"-74.8011546","Name":"Bellavista - Candelaria"},{"Latitude":"6.3898046","Longitude":"-75.6023245","Name":"Bello - San Pedro"},{"Latitude":"6.6338631","Longitude":"-75.6875369","Name":"Belmira - San José de La Montaña"},{"Latitude":"6.6087402","Longitude":"-75.6678771","Name":"Belmira - Sopetrán"},{"Latitude":"6.5340731","Longitude":"-75.7384648","Name":"Belmira-Sopetrán"},{"Latitude":"4.7024956","Longitude":"-74.0904476","Name":"Belmonte 1"},{"Latitude":"5.5594448","Longitude":"-73.6730062","Name":"Beltran"},{"Latitude":"7.3819971","Longitude":"-76.5971371","Name":"Belén - Mutatá"},{"Latitude":"7.3466173","Longitude":"-76.8887365","Name":"Belén de Bajirá-Riosucio"},{"Latitude":"7.3436677","Longitude":"-76.8877637","Name":"Belén de Bajirá-Ríosucio"},{"Latitude":"0.8242761","Longitude":"-77.7072317","Name":"Benigno Malo"},{"Latitude":"0.8250586","Longitude":"-77.7103097","Name":"Benito Perez"},{"Latitude":"6.1200800","Longitude":"-75.9736400","Name":"Betulia - El Socorro"},{"Latitude":"6.1222546","Longitude":"-75.9954590","Name":"Betulia - Urrao"},{"Latitude":"6.8721470","Longitude":"-73.3011130","Name":"Betulia - Zapatoca"},{"Latitude":"3.2987014","Longitude":"-75.7386665","Name":"Bilbao-Herrera"},{"Latitude":"10.3438954","Longitude":"-74.8860318","Name":"Bing"},{"Latitude":"4.1850149","Longitude":"-73.6090852","Name":"Bioparque Los Ocarros"},{"Latitude":"4.5078477","Longitude":"-76.3437367","Name":"Bitaco - Lituania"},{"Latitude":"3.6058780","Longitude":"-76.5992520","Name":"Bitaco - vía al mar"},{"Latitude":"6.3212569","Longitude":"-72.6077820","Name":"Boavita - El Espigón"},{"Latitude":"6.3253196","Longitude":"-72.5816500","Name":"Boavita - El Sauzal"},{"Latitude":"6.3270204","Longitude":"-72.5808666","Name":"Boavita - La Uvita"},{"Latitude":"4.0562389","Longitude":"-73.0508326","Name":"Bocas De Guayuriba - La Balsa"},{"Latitude":"3.9606801","Longitude":"-73.1227094","Name":"Bocas de Guayuriba la Balsa"},{"Latitude":"7.6247687","Longitude":"-72.6856773","Name":"Bochalema - Durania"},{"Latitude":"0.8027317","Longitude":"-77.6745647","Name":"Bogotá"},{"Latitude":"4.5116186","Longitude":"-75.6706068","Name":"Bohemia"},{"Latitude":"4.7165725","Longitude":"-74.3861384","Name":"Bojacá-El Chircal"},{"Latitude":"8.5447084","Longitude":"-73.3297411","Name":"Bolcones 1"},{"Latitude":"6.5558903","Longitude":"-75.8285594","Name":"Bolivar"},{"Latitude":"0.8166728","Longitude":"-77.7117511","Name":"Bolivia"},{"Latitude":"0.8052308","Longitude":"-77.6736219","Name":"Bolívar"},{"Latitude":"5.9905507","Longitude":"-73.7734703","Name":"Bolívar - Peñón"},{"Latitude":"6.0387628","Longitude":"-73.7616960","Name":"Bolívar - Polvero"},{"Latitude":"0.8031691","Longitude":"-77.7249746","Name":"Bonbona"},{"Latitude":"9.8002864","Longitude":"-74.4051877","Name":"Bosconia Plato Carmen de Bolivar sincelejo"},{"Latitude":"6.4830546","Longitude":"-73.1912718","Name":"Bosque Chusque"},{"Latitude":"6.4461616","Longitude":"-73.1956446","Name":"Bosque Ribera"},{"Latitude":"6.1320649","Longitude":"-75.5295374","Name":"Bosque de Salamanca"},{"Latitude":"0.8159694","Longitude":"-77.7174616","Name":"Boyaca"},{"Latitude":"3.5963631","Longitude":"-75.3831252","Name":"Brazuelo Río Saldaña"},{"Latitude":"4.6240733","Longitude":"-75.6346384","Name":"Bremen"},{"Latitude":"7.0873267","Longitude":"-75.4815311","Name":"Briceño"},{"Latitude":"7.1236270","Longitude":"-75.5538155","Name":"Briceño - Las Auras"},{"Latitude":"5.6935512","Longitude":"-73.9236541","Name":"Briceño - Tununguá"},{"Latitude":"6.1665628","Longitude":"-75.9907001","Name":"Brisas-Betulia"},{"Latitude":"5.0119504","Longitude":"-75.7427321","Name":"Buena Vista"},{"Latitude":"8.6350183","Longitude":"-74.0764974","Name":"Buena seña - Pueblito Mejía"},{"Latitude":"6.4968172","Longitude":"-73.2171459","Name":"Buena vista"},{"Latitude":"5.7519271","Longitude":"-74.7001165","Name":"Buenavista - San Miguel"},{"Latitude":"5.5418720","Longitude":"-73.8989640","Name":"Buenavista-Simijaca"},{"Latitude":"3.5958365","Longitude":"-76.2010957","Name":"Buenos Aires"},{"Latitude":"5.0667682","Longitude":"-75.0126073","Name":"Buenos Aires-Frias"},{"Latitude":"5.0389503","Longitude":"-75.0083431","Name":"Buenos Aires-San Pedro"},{"Latitude":"1.3998451","Longitude":"-77.1241093","Name":"Buesaco - Tablo de Gómeza"},{"Latitude":"4.1721930","Longitude":"-76.1007690","Name":"Bugalagrande - Galicia"},{"Latitude":"4.2011200","Longitude":"-76.1533527","Name":"Bugalagrande-Galicia"},{"Latitude":"7.1298385","Longitude":"-73.1229028","Name":"Bulevar Bolívar"},{"Latitude":"7.1294227","Longitude":"-73.1262885","Name":"Bulevar Santander"},{"Latitude":"3.5902061","Longitude":"-76.4847443","Name":"C 15Dn"},{"Latitude":"10.2838900","Longitude":"-75.5123457","Name":"C-17A"},{"Latitude":"9.2488057","Longitude":"-74.4300382","Name":"C-24B"},{"Latitude":"1.0837255","Longitude":"-77.6162790","Name":"C. Jardín"},{"Latitude":"7.3692462","Longitude":"-72.6517909","Name":"C11F"},{"Latitude":"7.3673130","Longitude":"-72.6559653","Name":"C13"},{"Latitude":"7.3666288","Longitude":"-72.6564004","Name":"C14"},{"Latitude":"3.4652288","Longitude":"-76.5895331","Name":"C48B0"},{"Latitude":"3.4654127","Longitude":"-76.5897457","Name":"C49O"},{"Latitude":"7.3800935","Longitude":"-72.6362016","Name":"C4BN"},{"Latitude":"7.3793141","Longitude":"-72.6413728","Name":"C4N"},{"Latitude":"7.3806933","Longitude":"-72.6358444","Name":"C5AN"},{"Latitude":"7.3803971","Longitude":"-72.6360164","Name":"C5N"},{"Latitude":"7.3809872","Longitude":"-72.6356838","Name":"C6N"},{"Latitude":"7.3727492","Longitude":"-72.6510771","Name":"C9A"},{"Latitude":"6.3734013","Longitude":"-72.6411575","Name":"CABRERITA - BOAVITA"},{"Latitude":"7.9062017","Longitude":"-72.5402819","Name":"CALLE 10"},{"Latitude":"7.9142554","Longitude":"-72.4891312","Name":"CALLE 16N"},{"Latitude":"7.8371734","Longitude":"-72.4795161","Name":"CALLE 17"},{"Latitude":"7.9005618","Longitude":"-72.5045837","Name":"CALLE 2 NORTE"},{"Latitude":"7.9187302","Longitude":"-72.4923622","Name":"CALLE 20N"},{"Latitude":"7.9009957","Longitude":"-72.5044369","Name":"CALLE 2A NORTE"},{"Latitude":"5.6244983","Longitude":"-73.8077925","Name":"CALLE 30"},{"Latitude":"7.9036151","Longitude":"-72.5423026","Name":"CALLE 4"},{"Latitude":"4.5293960","Longitude":"-74.0845210","Name":"CALLE 60 BIS SUR"},{"Latitude":"7.9184331","Longitude":"-72.5238026","Name":"CALLE 8"},{"Latitude":"7.6589580","Longitude":"-76.6784355","Name":"CALLE 82B"},{"Latitude":"5.7457814","Longitude":"-73.1625624","Name":"CAMINO CASA FLA DIAZ CHIVATA"},{"Latitude":"3.4420208","Longitude":"-73.7628690","Name":"CANAGUARO"},{"Latitude":"6.4902287","Longitude":"-74.4051984","Name":"CARRERA 10"},{"Latitude":"6.4888292","Longitude":"-74.4014527","Name":"CARRERA 4"},