[{"Latitude":"45.7874433","Longitude":"14.0909153","Name":"1"},{"Latitude":"45.5842243","Longitude":"14.0140839","Name":"1829 IBM"},{"Latitude":"46.4053009","Longitude":"15.7989443","Name":"432"},{"Latitude":"45.8643508","Longitude":"15.1312377","Name":"448"},{"Latitude":"46.1469017","Longitude":"14.5986274","Name":"46.147092,14.599617"},{"Latitude":"46.0407173","Longitude":"14.6411460","Name":"645"},{"Latitude":"46.3334971","Longitude":"15.6746720","Name":"688"},{"Latitude":"46.4755073","Longitude":"15.9610641","Name":"712"},{"Latitude":"46.4385500","Longitude":"14.7391009","Name":"926"},{"Latitude":"45.7004433","Longitude":"13.8361323","Name":"A3 (Divača - Fernetiči)"},{"Latitude":"46.1385033","Longitude":"14.6339449","Name":"AC - Cesta na Gorjušo"},{"Latitude":"45.5031112","Longitude":"13.6028165","Name":"AP Lucija"},{"Latitude":"45.4410148","Longitude":"13.8787922","Name":"Abrami"},{"Latitude":"46.4181023","Longitude":"15.8534689","Name":"Abramičeva ulica"},{"Latitude":"46.0447417","Longitude":"14.4725532","Name":"Abramova ulica"},{"Latitude":"45.9566420","Longitude":"14.6601185","Name":"Adamičeva cesta"},{"Latitude":"46.0736149","Longitude":"14.4784246","Name":"Adamičeva ulica"},{"Latitude":"46.2711751","Longitude":"14.4669678","Name":"Adergas"},{"Latitude":"46.8236055","Longitude":"16.2230565","Name":"Adrijanci"},{"Latitude":"46.0624917","Longitude":"14.6116379","Name":"Agrokombinatska cesta"},{"Latitude":"46.5421975","Longitude":"15.6560682","Name":"Ahacljeva ulica"},{"Latitude":"45.9860027","Longitude":"14.5670001","Name":"Ahlinova ulica"},{"Latitude":"46.2859329","Longitude":"15.3064562","Name":"Ahtikova ulica"},{"Latitude":"46.5123997","Longitude":"15.6341941","Name":"Ajdova pot"},{"Latitude":"46.2746203","Longitude":"13.9547905","Name":"Ajdovska cesta"},{"Latitude":"46.4821666","Longitude":"15.6992998","Name":"Akacijeva ulica"},{"Latitude":"45.9880231","Longitude":"14.5720018","Name":"Albrehtova ulica"},{"Latitude":"46.5419094","Longitude":"15.5927250","Name":"Aleševa ulica"},{"Latitude":"46.5429997","Longitude":"15.6583554","Name":"Aleševa ulica - slepi del od Makedonske"},{"Latitude":"46.0704438","Longitude":"14.4934707","Name":"Alešovčeva ulica"},{"Latitude":"45.5389085","Longitude":"13.6579948","Name":"Alietova ulica"},{"Latitude":"46.0383853","Longitude":"14.6112633","Name":"Aličeva ulica"},{"Latitude":"45.5636447","Longitude":"14.2491905","Name":"Aljažev breg"},{"Latitude":"46.3720021","Longitude":"14.0833526","Name":"Aljaževa cesta"},{"Latitude":"46.0694476","Longitude":"14.4956177","Name":"Aljaževa ulica"},{"Latitude":"45.5257693","Longitude":"13.5707751","Name":"Alma Vivoda ulica"},{"Latitude":"45.6680824","Longitude":"13.9189407","Name":"Alpinska Ulica"},{"Latitude":"46.3606222","Longitude":"14.1606005","Name":"Alpska cesta"},{"Latitude":"46.6556555","Longitude":"15.3276122","Name":"Altenbach-Remschniggweg"},{"Latitude":"46.6841415","Longitude":"15.9885473","Name":"Am Damm"},{"Latitude":"46.6857843","Longitude":"15.6248161","Name":"Am Graßnitzberg"},{"Latitude":"46.0496707","Longitude":"14.5183049","Name":"Ambrožev trg"},{"Latitude":"46.0692234","Longitude":"14.5406574","Name":"Ameriška ulica"},{"Latitude":"45.7885605","Longitude":"14.6420081","Name":"Andol"},{"Latitude":"46.3338159","Longitude":"15.0847401","Name":"Andraž nad Polzelo"},{"Latitude":"46.0793001","Longitude":"14.4899781","Name":"Andreaševa ulica"},{"Latitude":"46.7317200","Longitude":"16.2157626","Name":"Andrejci"},{"Latitude":"46.5606469","Longitude":"15.9509728","Name":"Andrenci"},{"Latitude":"45.8228310","Longitude":"15.1640604","Name":"Andrijaničeva cesta"},{"Latitude":"46.0307950","Longitude":"14.5204660","Name":"Andrićeva ulica"},{"Latitude":"46.8118675","Longitude":"15.9888101","Name":"Angerweg"},{"Latitude":"45.5479668","Longitude":"13.7391882","Name":"Ankaranska cesta"},{"Latitude":"46.5380384","Longitude":"15.6300118","Name":"Antoličičeva ulica"},{"Latitude":"46.0522671","Longitude":"14.5923235","Name":"Anžurjeva ulica"},{"Latitude":"46.6969633","Longitude":"15.9014312","Name":"Apače"},{"Latitude":"46.6791934","Longitude":"15.9886058","Name":"Apaška cesta"},{"Latitude":"46.0658583","Longitude":"14.5048935","Name":"Apihova ulica"},{"Latitude":"46.5473049","Longitude":"15.5902056","Name":"Apostlova ulica"},{"Latitude":"46.4279638","Longitude":"15.8710049","Name":"Arbajterjeva ulica"},{"Latitude":"46.0552201","Longitude":"14.5560896","Name":"Archinetova ulica"},{"Latitude":"46.2695444","Longitude":"15.2907152","Name":"Arclin"},{"Latitude":"46.2768333","Longitude":"15.3102533","Name":"Arclinska cesta"},{"Latitude":"46.5337335","Longitude":"15.5171475","Name":"Areška cesta"},{"Latitude":"46.0658972","Longitude":"14.5471769","Name":"Argentinska ulica"},{"Latitude":"46.0870020","Longitude":"14.4697233","Name":"Arharjeva cesta"},{"Latitude":"46.1445078","Longitude":"14.4025732","Name":"Arharjeva ulica"},{"Latitude":"46.2522813","Longitude":"15.1914968","Name":"Arja vas"},{"Latitude":"45.5452993","Longitude":"13.7616438","Name":"Arjol"},{"Latitude":"46.0032938","Longitude":"14.0295462","Name":"Arkova ulica"},{"Latitude":"46.0018800","Longitude":"15.4785790","Name":"Armeško"},{"Latitude":"46.3387606","Longitude":"15.1166717","Name":"Arnače"},{"Latitude":"46.0616929","Longitude":"14.5781828","Name":"Arničeva ulica"},{"Latitude":"45.9633051","Longitude":"15.5670091","Name":"Arnovo selo"},{"Latitude":"46.1112397","Longitude":"14.4628321","Name":"Artačeva ulica"},{"Latitude":"45.9500648","Longitude":"15.5852776","Name":"Artiče"},{"Latitude":"45.8695253","Longitude":"14.9849486","Name":"Artmanja vas"},{"Latitude":"45.9845339","Longitude":"15.3927390","Name":"Arto"},{"Latitude":"45.5243936","Longitude":"13.5759827","Name":"Arze"},{"Latitude":"45.8875033","Longitude":"13.6812817","Name":"Arčoni"},{"Latitude":"46.2958948","Longitude":"14.8053231","Name":"Attemsov trg"},{"Latitude":"45.5252080","Longitude":"13.6108732","Name":"Avenija Anton Brtska"},{"Latitude":"45.5494349","Longitude":"13.7268249","Name":"Avenija Belveder"},{"Latitude":"46.0503742","Longitude":"14.5973685","Name":"Avgustinčičeva ulica"},{"Latitude":"45.8387107","Longitude":"15.4363946","Name":"Avguštine"},{"Latitude":"46.0712710","Longitude":"14.5424224","Name":"Avsečeva ulica"},{"Latitude":"46.0636206","Longitude":"14.5455299","Name":"Avstrijska ulica"},{"Latitude":"46.5363472","Longitude":"16.5074822","Name":"Avég"},{"Latitude":"46.0837607","Longitude":"13.7126784","Name":"Avče"},{"Latitude":"46.0617393","Longitude":"14.5151740","Name":"Avčinova ulica"},{"Latitude":"46.1025148","Longitude":"14.4754160","Name":"Avšičeva cesta"},{"Latitude":"45.7958285","Longitude":"15.1847076","Name":"Avšičeva ulica"},{"Latitude":"46.2287254","Longitude":"15.5188505","Name":"Aškerčev trg"},{"Latitude":"46.0474502","Longitude":"14.4956930","Name":"Aškerčeva cesta"},{"Latitude":"45.9043373","Longitude":"15.5989847","Name":"Aškerčeva ulica"},{"Latitude":"46.5492636","Longitude":"15.6262211","Name":"Ažbetova ulica"},{"Latitude":"46.6532401","Longitude":"15.9483182","Name":"Aženski Vrh"},{"Latitude":"46.0460552","Longitude":"14.4598648","Name":"Ažmanova ulica"},{"Latitude":"46.5457683","Longitude":"16.1912119","Name":"Babinci"},{"Latitude":"46.5326662","Longitude":"16.1892171","Name":"Babinska cesta"},{"Latitude":"46.0304597","Longitude":"14.5225436","Name":"Babičeva ulica"},{"Latitude":"46.1813253","Longitude":"15.5181135","Name":"Babna Reka"},{"Latitude":"46.5289277","Longitude":"15.6652416","Name":"Babnikova ulica"},{"Latitude":"46.2386275","Longitude":"15.2409127","Name":"Babno"},{"Latitude":"46.0019389","Longitude":"14.5553494","Name":"Babškova pot"},{"Latitude":"46.6296597","Longitude":"14.9371692","Name":"Bacher Straße"},{"Latitude":"46.6467807","Longitude":"15.2396790","Name":"Bachholz"},{"Latitude":"46.0619639","Longitude":"14.8236429","Name":"Badjurova ulica"},{"Latitude":"46.4229972","Longitude":"16.2796878","Name":"Badličan"},{"Latitude":"45.6470532","Longitude":"15.3221584","Name":"Badovinčeva ulica"},{"Latitude":"46.0518439","Longitude":"14.4858818","Name":"Bajtova ulica"},{"Latitude":"46.2101857","Longitude":"14.6002843","Name":"Bakovnik"},{"Latitude":"46.2093225","Longitude":"14.5964836","Name":"Bakovniška ulica"},{"Latitude":"46.6520822","Longitude":"16.1691611","Name":"Bakovska ulica"},{"Latitude":"46.1644276","Longitude":"14.5740131","Name":"Balantičeva ulica"},{"Latitude":"46.5326799","Longitude":"15.6910627","Name":"Balaševa ulica"},{"Latitude":"46.0533560","Longitude":"14.5761414","Name":"Balinarska pot"},{"Latitude":"46.3623288","Longitude":"14.3074877","Name":"Balos"},{"Latitude":"46.5142736","Longitude":"16.2804597","Name":"Banfi"},{"Latitude":"45.9598034","Longitude":"14.5254952","Name":"Banija"},{"Latitude":"45.5110782","Longitude":"14.8737939","Name":"Banjaloka"},{"Latitude":"46.5514707","Longitude":"16.5004756","Name":"Banov breg"},{"Latitude":"46.5709519","Longitude":"16.1617130","Name":"Banovci"},{"Latitude":"46.5762712","Longitude":"16.1644682","Name":"Banovska cesta"},{"Latitude":"46.5443588","Longitude":"15.6760676","Name":"Bantanova ulica"},{"Latitude":"46.6007756","Longitude":"16.4094826","Name":"Banuta"},{"Latitude":"46.2316523","Longitude":"14.3460837","Name":"Baragov trg"},{"Latitude":"45.8322543","Longitude":"14.9338987","Name":"Baragova cesta"},{"Latitude":"46.0783491","Longitude":"14.5137302","Name":"Baragova ulica"},{"Latitude":"45.5241327","Longitude":"13.6837007","Name":"Baredi"},{"Latitude":"46.3702280","Longitude":"15.8291542","Name":"Barislovci"},{"Latitude":"46.0439200","Longitude":"14.5004231","Name":"Barjanska cesta"},{"Latitude":"45.9604114","Longitude":"14.5326980","Name":"Barjanska ulica"},{"Latitude":"46.0434482","Longitude":"14.5003125","Name":"Barjanski most"},{"Latitude":"46.1359875","Longitude":"14.4121349","Name":"Barletova cesta"},{"Latitude":"46.0490246","Longitude":"14.8415032","Name":"Bartlova ulica"},{"Latitude":"46.5282216","Longitude":"15.6843559","Name":"Baukartova ulica"},{"Latitude":"46.0631786","Longitude":"14.5322136","Name":"Bavdkova ulica"},{"Latitude":"46.0313181","Longitude":"14.5223586","Name":"Baznikova ulica"},{"Latitude":"45.7082568","Longitude":"13.8722405","Name":"Bazoviška cesta"},{"Latitude":"46.0593968","Longitude":"14.5330152","Name":"Bazoviška ulica"},{"Latitude":"46.5403551","Longitude":"15.6315320","Name":"Baševa ulica"},{"Latitude":"46.0716857","Longitude":"14.5482740","Name":"Beblerjev trg"},{"Latitude":"46.0005819","Longitude":"14.0169601","Name":"Beblerjeva ulica"},{"Latitude":"46.5261782","Longitude":"15.6901012","Name":"Beblova ulica"},{"Latitude":"45.5384871","Longitude":"15.2737390","Name":"Bedenj"},{"Latitude":"46.0559113","Longitude":"14.1168234","Name":"Bedrih"},{"Latitude":"46.0511704","Longitude":"14.5016327","Name":"Beethovnova ulica"},{"Latitude":"46.5372675","Longitude":"15.5900481","Name":"Begova ulica"},{"Latitude":"46.3744340","Longitude":"14.2012267","Name":"Begunje na Gorenjskem"},{"Latitude":"46.3617582","Longitude":"14.1630981","Name":"Begunjska cesta"},{"Latitude":"46.2489088","Longitude":"14.3598705","Name":"Begunjska ulica"},{"Latitude":"45.8628979","Longitude":"14.0324737","Name":"Bela"},{"Latitude":"46.6544036","Longitude":"16.1383783","Name":"Bela ulica"},{"Latitude":"46.2858777","Longitude":"15.3072357","Name":"Belakova ulica"},{"Latitude":"46.3298291","Longitude":"15.9406069","Name":"Belavšek"},{"Latitude":"46.5595546","Longitude":"15.6362095","Name":"Belačeva ulica"},{"Latitude":"46.4131479","Longitude":"14.9485679","Name":"Bele vode"},{"Latitude":"46.2389969","Longitude":"14.4255335","Name":"Beleharjeva cesta"},{"Latitude":"46.3437412","Longitude":"15.3309973","Name":"Beli Potok pri Frankolovem"},{"Latitude":"46.0688076","Longitude":"14.3519631","Name":"Belica"},{"Latitude":"46.5556539","Longitude":"15.4953021","Name":"Belingerjeva ulica"},{"Latitude":"46.0649360","Longitude":"14.4953063","Name":"Beljaška ulica"},{"Latitude":"46.2296651","Longitude":"15.5581268","Name":"Belo"},{"Latitude":"45.5806521","Longitude":"15.1988572","Name":"Belokranjska cesta"},{"Latitude":"46.5442225","Longitude":"15.6515010","Name":"Belokranjska ulica"},{"Latitude":"45.5169146","Longitude":"13.5918634","Name":"Belokriška cesta"},{"Latitude":"46.5375398","Longitude":"15.6481815","Name":"Beloruska ulica"},{"Latitude":"46.1449945","Longitude":"15.1660144","Name":"Belovo"},{"Latitude":"46.3015800","Longitude":"14.4157292","Name":"Belska cesta"},{"Latitude":"45.8283859","Longitude":"14.1410304","Name":"Belsko"},{"Latitude":"45.4663429","Longitude":"13.8337016","Name":"Belvedur"},{"Latitude":"46.4172123","Longitude":"15.8921349","Name":"Belšakova ulica"},{"Latitude":"46.2328312","Longitude":"14.3401368","Name":"Benedikova ulica"},{"Latitude":"46.2725236","Longitude":"14.3493833","Name":"Benedičičeva pot"},{"Latitude":"46.6098723","Longitude":"15.8681102","Name":"Benediški Vrh"},{"Latitude":"46.6106041","Longitude":"15.8725957","Name":"Benediški vrh"},{"Latitude":"45.7709321","Longitude":"14.5615282","Name":"Benete"},{"Latitude":"46.5163984","Longitude":"16.4968491","Name":"Benica"},{"Latitude":"46.5523072","Longitude":"15.6748641","Name":"Benkova ulica"},{"Latitude":"45.7046878","Longitude":"13.8768638","Name":"Benčičeva ulica"},{"Latitude":"46.5420243","Longitude":"15.6386762","Name":"Beograjska ulica"},{"Latitude":"46.5387996","Longitude":"15.5943771","Name":"Beraničeva ulica"},{"Latitude":"46.3968885","Longitude":"16.2804739","Name":"Bercetova ulica"},{"Latitude":"46.0745343","Longitude":"14.4498021","Name":"Berdajsova ulica"},{"Latitude":"45.6808344","Longitude":"15.2759796","Name":"Bereča vas"},{"Latitude":"46.1323268","Longitude":"14.4029447","Name":"Bergantova cesta"},{"Latitude":"46.1270998","Longitude":"14.5560507","Name":"Bergantova ulica"},{"Latitude":"46.0880277","Longitude":"14.6230417","Name":"Beričevo"},{"Latitude":"46.5501697","Longitude":"16.0825591","Name":"Berkovci"},{"Latitude":"45.5160690","Longitude":"13.5721078","Name":"Bernardinska reber"},{"Latitude":"46.5117842","Longitude":"15.0805627","Name":"Bernekarjeva ulica"},{"Latitude":"46.0609410","Longitude":"14.5282963","Name":"Bernekerjeva ulica"},{"Latitude":"46.1305899","Longitude":"14.4127969","Name":"Bernikova ulica"},{"Latitude":"46.5568295","Longitude":"16.0945564","Name":"Berskovski Prelogi"},{"Latitude":"46.2531279","Longitude":"14.3583584","Name":"Bertoncljeva ulica"},{"Latitude":"46.0501317","Longitude":"14.5954325","Name":"Berčičeva ulica"},{"Latitude":"46.0680053","Longitude":"14.5807407","Name":"Berčonova pot"},{"Latitude":"46.5488542","Longitude":"15.6278883","Name":"Besednjakova ulica"},{"Latitude":"46.0379662","Longitude":"14.6482601","Name":"Besnica"},{"Latitude":"45.9637034","Longitude":"14.2753207","Name":"Betajnova"},{"Latitude":"46.0203573","Longitude":"14.5216442","Name":"Betettova cesta"},{"Latitude":"46.5402296","Longitude":"15.6301819","Name":"Betettova ulica"},{"Latitude":"46.5397579","Longitude":"15.6368131","Name":"Betnavska cesta"},{"Latitude":"46.5495528","Longitude":"15.6406337","Name":"Betnavska cesta - slepi del 1"},{"Latitude":"46.2635928","Longitude":"14.3560884","Name":"Betonova ulica"},{"Latitude":"45.9592961","Longitude":"14.6586979","Name":"Bevkova cesta"},{"Latitude":"46.0619310","Longitude":"14.8195764","Name":"Bevkova ulica"},{"Latitude":"46.3494428","Longitude":"15.1429461","Name":"Bevče"},{"Latitude":"46.1470931","Longitude":"15.0224855","Name":"Bevško"},{"Latitude":"46.5472196","Longitude":"15.5315378","Name":"Bezena"},{"Latitude":"46.5400498","Longitude":"15.5193330","Name":"Bezenska pot"},{"Latitude":"46.0604822","Longitude":"14.5288547","Name":"Bezenškova ulica"},{"Latitude":"46.1906049","Longitude":"15.5593116","Name":"Bezgovica"},{"Latitude":"46.5055061","Longitude":"15.7433941","Name":"Bezgovje"},{"Latitude":"46.3548142","Longitude":"15.4336773","Name":"Bezina"},{"Latitude":"46.5478718","Longitude":"15.5943453","Name":"Bezjakova ulica"},{"Latitude":"46.7328966","Longitude":"16.0690734","Name":"Beznovci"},{"Latitude":"46.3957704","Longitude":"15.4041402","Name":"Bezovje nad Zrečami"},{"Latitude":"46.2156854","Longitude":"15.4158172","Name":"Bezovje pri Šentjurju"},{"Latitude":"45.8317562","Longitude":"14.3703956","Name":"Bezuljak"},{"Latitude":"46.1335257","Longitude":"14.4146116","Name":"Bečanova ulica"},{"Latitude":"46.0639489","Longitude":"14.5064254","Name":"Bežigrad"},{"Latitude":"46.2404756","Longitude":"15.2770168","Name":"Bežigrajska cesta"},{"Latitude":"45.5392774","Longitude":"13.7168633","Name":"Bežkova ulica"},{"Latitude":"45.5384121","Longitude":"13.7173257","Name":"Bidovčeva ulica"},{"Latitude":"46.2534095","Longitude":"15.1703122","Name":"Bilgerjeva ulica"},{"Latitude":"45.5662801","Longitude":"14.2505820","Name":"Biličeva pot"},{"Latitude":"45.8975026","Longitude":"13.6208498","Name":"Bilje"},{"Latitude":"46.5389622","Longitude":"15.5016871","Name":"Binderjeva ulica"},{"Latitude":"46.1747698","Longitude":"14.2973135","Name":"Binkelj"},{"Latitude":"45.7513717","Longitude":"15.1448706","Name":"Birčna vas"},{"Latitude":"46.5724618","Longitude":"16.0327079","Name":"Biserjane"},{"Latitude":"46.4621760","Longitude":"14.8311091","Name":"Bistra"},{"Latitude":"46.3587630","Longitude":"14.2944246","Name":"Bistrica"},{"Latitude":"46.3598197","Longitude":"14.2978698","Name":"Bistrica + JKAT + Spp"},{"Latitude":"46.0600415","Longitude":"15.6625805","Name":"Bistrica ob Sotli"},{"Latitude":"46.2666439","Longitude":"14.5878881","Name":"Bistričica"},{"Latitude":"46.3162665","Longitude":"15.5768447","Name":"Bistriška cesta"},{"Latitude":"46.0273817","Longitude":"14.5047503","Name":"Bistriška ulica"},{"Latitude":"46.0749634","Longitude":"14.4761685","Name":"Bitenčeva ulica"},{"Latitude":"46.1320116","Longitude":"14.4112777","Name":"Bizantova cesta"},{"Latitude":"45.9085527","Longitude":"15.6128046","Name":"Bizeljska cesta"},{"Latitude":"46.0270063","Longitude":"15.6841954","Name":"Bizeljsko"},{"Latitude":"46.0466472","Longitude":"14.4768116","Name":"Bizjakova ulica"},{"Latitude":"46.0679614","Longitude":"14.4798806","Name":"Bizjanova ulica"},{"Latitude":"46.0363966","Longitude":"14.5660928","Name":"Bizovik"},{"Latitude":"46.0417817","Longitude":"14.5701278","Name":"Bizoviška cesta"},{"Latitude":"46.0453623","Longitude":"14.4917151","Name":"Bičevje"},{"Latitude":"46.2360790","Longitude":"14.3466146","Name":"Bičkova ulica"},{"Latitude":"46.5287057","Longitude":"15.8843730","Name":"Biš"},{"Latitude":"46.5196689","Longitude":"15.8776466","Name":"Bišečki Vrh"},{"Latitude":"46.1010871","Longitude":"14.6149573","Name":"Bišče"},{"Latitude":"46.2380263","Longitude":"15.3526760","Name":"Blagovna"},{"Latitude":"46.5675661","Longitude":"16.0120686","Name":"Blaguš"},{"Latitude":"46.0821490","Longitude":"14.5336840","Name":"Blasnikova ulica"},{"Latitude":"46.0817665","Longitude":"14.5312214","Name":"Blasov breg"},{"Latitude":"46.1094387","Longitude":"15.3526775","Name":"Blatni Vrh"},{"Latitude":"46.1235503","Longitude":"14.5541167","Name":"Blatnica"},{"Latitude":"46.5715522","Longitude":"15.6605188","Name":"Blatnikova ulica"},{"Latitude":"46.3316008","Longitude":"15.4370306","Name":"Blato"},{"Latitude":"46.1664490","Longitude":"14.3031951","Name":"Blaževa ulica"},{"Latitude":"45.4853644","Longitude":"15.0289859","Name":"Blaževci"},{"Latitude":"46.0832530","Longitude":"14.4373841","Name":"Blažičeva ulica"},{"Latitude":"46.1067012","Longitude":"14.1396443","Name":"Blegoška ulica"},{"Latitude":"46.0513247","Longitude":"14.4964407","Name":"Bleiweisova cesta"},{"Latitude":"46.3621114","Longitude":"14.3048494","Name":"Blejska cesta"},{"Latitude":"45.9199416","Longitude":"14.2137308","Name":"Blekova vas"},{"Latitude":"45.9866761","Longitude":"14.7194647","Name":"Blečji vrh"},{"Latitude":"46.5419737","Longitude":"15.6893140","Name":"Bloudkova ulica"},{"Latitude":"45.7637771","Longitude":"14.4537728","Name":"Bločice"},{"Latitude":"45.7570822","Longitude":"14.4698096","Name":"Bloška Polica"},{"Latitude":"46.0613764","Longitude":"14.8283757","Name":"Bobek"},{"Latitude":"46.1600232","Longitude":"15.0855280","Name":"Boben"},{"Latitude":"46.0457293","Longitude":"14.4839879","Name":"Bobenčkova ulica"},{"Latitude":"45.5780958","Longitude":"14.2402975","Name":"Bobkova ulica"},{"Latitude":"46.0247578","Longitude":"14.5313352","Name":"Bobrova ulica"},{"Latitude":"46.3556297","Longitude":"14.1224665","Name":"Bodeška cesta"},{"Latitude":"46.5094736","Longitude":"16.0527738","Name":"Bodislavci"},{"Latitude":"46.4868019","Longitude":"16.0136782","Name":"Bodkovci"},{"Latitude":"46.7431786","Longitude":"16.1105725","Name":"Bodonci"},{"Latitude":"46.1514059","Longitude":"14.2922638","Name":"Bodovlje"},{"Latitude":"46.2084768","Longitude":"15.4835192","Name":"Bodrež"},{"Latitude":"46.2308813","Longitude":"15.4788303","Name":"Bodrišna vas"},{"Latitude":"46.1306731","Longitude":"14.4135802","Name":"Bogatajeva ulica"},{"Latitude":"46.0442163","Longitude":"14.4993187","Name":"Bogišićeva ulica"},{"Latitude":"46.1044970","Longitude":"14.4602028","Name":"Bognarjeva pot"},{"Latitude":"46.1602032","Longitude":"14.5621356","Name":"Bognarjeva ulica"},{"Latitude":"46.6772767","Longitude":"16.2853817","Name":"Bogojina"},{"Latitude":"46.4066695","Longitude":"15.3547664","Name":"Boharina"},{"Latitude":"46.0843046","Longitude":"14.4732864","Name":"Bohinjčeva ulica"},{"Latitude":"46.0119785","Longitude":"15.4744198","Name":"Bohoričeva cesta"},{"Latitude":"45.9647298","Longitude":"15.4842800","Name":"Bohoričeva ulica"},{"Latitude":"46.0207797","Longitude":"15.4735453","Name":"Bohorska cesta"},{"Latitude":"46.0162313","Longitude":"15.2964206","Name":"Bohorska ulica"},{"Latitude":"46.5092648","Longitude":"15.6472349","Name":"Bohova"},{"Latitude":"46.5009058","Longitude":"15.6475782","Name":"Bohovska cesta"},{"Latitude":"46.5288457","Longitude":"15.6706108","Name":"Bohovska ulica"},{"Latitude":"45.6954811","Longitude":"15.3294656","Name":"Bojanja vas"},{"Latitude":"46.4637901","Longitude":"15.5178242","Name":"Bojtina"},{"Latitude":"46.0883580","Longitude":"14.4706348","Name":"Bokalova ulica"},{"Latitude":"46.7343363","Longitude":"16.1950124","Name":"Bokrači"},{"Latitude":"45.6758476","Longitude":"15.3399034","Name":"Boldraž"},{"Latitude":"46.5501237","Longitude":"16.0624709","Name":"Bolehnečici"},{"Latitude":"46.0724305","Longitude":"14.4498593","Name":"Boletova ulica"},{"Latitude":"46.3461977","Longitude":"15.8093217","Name":"Bolečka vas"},{"Latitude":"46.5440509","Longitude":"15.6331322","Name":"Bolfenška ulica"},{"Latitude":"46.0577739","Longitude":"14.5212089","Name":"Bolgarska ulica"},{"Latitude":"45.5290180","Longitude":"13.5701362","Name":"Bolniška ulica"},{"Latitude":"45.5568852","Longitude":"13.7559631","Name":"Bonifika"},{"Latitude":"46.6362108","Longitude":"16.0072028","Name":"Boračeva"},{"Latitude":"46.5485562","Longitude":"15.6562770","Name":"Borcev za severno mejo"},{"Latitude":"46.5608128","Longitude":"16.1404198","Name":"Boreci"},{"Latitude":"46.6770842","Longitude":"16.1003983","Name":"Borejci"},{"Latitude":"46.6084098","Longitude":"15.1548845","Name":"Borisova ulica"},{"Latitude":"46.1677356","Longitude":"14.8323920","Name":"Borje pri Mlinšah"},{"Latitude":"45.6300066","Longitude":"14.8737180","Name":"Borova pot"},{"Latitude":"46.4835456","Longitude":"15.6984087","Name":"Borova ulica"},{"Latitude":"46.5424843","Longitude":"15.6192809","Name":"Borova vas"},{"Latitude":"46.0666072","Longitude":"15.0640272","Name":"Borovak pri Podkumu"},{"Latitude":"46.1218200","Longitude":"14.5493041","Name":"Borovec"},{"Latitude":"46.5605904","Longitude":"15.6098995","Name":"Borovnikova ulica"},{"Latitude":"46.0271038","Longitude":"14.5026596","Name":"Borovniška ulica"},{"Latitude":"46.6623108","Longitude":"16.1563438","Name":"Borovnjakova ulica"},{"Latitude":"46.4844902","Longitude":"13.7822237","Name":"Borovška cesta"},{"Latitude":"46.0410280","Longitude":"14.5066396","Name":"Borsetova ulica"},{"Latitude":"46.0659586","Longitude":"14.5025915","Name":"Borutova ulica"},{"Latitude":"45.5979015","Longitude":"15.2690411","Name":"Boršt"},{"Latitude":"46.0478004","Longitude":"14.4986143","Name":"Borštnikov trg"},{"Latitude":"46.5366303","Longitude":"15.6247702","Name":"Borštnikova ulica"},{"Latitude":"46.2346800","Longitude":"15.4045300","Name":"Botričnica"},{"Latitude":"46.2782556","Longitude":"15.3461805","Name":"Bovše"},{"Latitude":"45.6555484","Longitude":"15.3015098","Name":"Bočka"},{"Latitude":"46.2887066","Longitude":"14.8542443","Name":"Bočna"},{"Latitude":"45.5490239","Longitude":"13.7329784","Name":"Bošadraga"},{"Latitude":"45.5237009","Longitude":"13.7353637","Name":"Bošamarin"},{"Latitude":"46.0108523","Longitude":"15.2809121","Name":"Boštanj"},{"Latitude":"45.8206284","Longitude":"14.5460893","Name":"Boštetje"},{"Latitude":"46.3543226","Longitude":"14.1585828","Name":"Boštjanova ulica"},{"Latitude":"46.0757073","Longitude":"14.5205014","Name":"Božičeva ulica"},{"Latitude":"46.4176585","Longitude":"15.4242398","Name":"Božje"},{"Latitude":"46.0729211","Longitude":"14.4644031","Name":"Brajnikova ulica"},{"Latitude":"45.8480030","Longitude":"13.8138764","Name":"Branik"},{"Latitude":"46.0648169","Longitude":"14.5169475","Name":"Brankova ulica"},{"Latitude":"46.5192778","Longitude":"16.1309047","Name":"Branoslavci"},{"Latitude":"46.2886496","Longitude":"15.0308230","Name":"Braslovče"},{"Latitude":"46.0707263","Longitude":"14.5092920","Name":"Bratinova ulica"},{"Latitude":"46.0689624","Longitude":"14.5525434","Name":"Bratislavska cesta"},{"Latitude":"46.6157777","Longitude":"16.2090247","Name":"Bratonci"},{"Latitude":"46.0920415","Longitude":"14.5153400","Name":"Bratov Jakopičev ulica"},{"Latitude":"46.0925840","Longitude":"14.5108337","Name":"Bratov Kunovarjev ulica"},{"Latitude":"46.5149468","Longitude":"16.2054770","Name":"Bratov Pihlar ulica"},{"Latitude":"46.0916287","Longitude":"14.5108349","Name":"Bratov Čebuljev ulica"},{"Latitude":"45.9290890","Longitude":"13.6380123","Name":"Bratuževa ulica"},{"Latitude":"46.0836964","Longitude":"14.4800556","Name":"Bravničarjeva ulica"},{"Latitude":"46.3631830","Longitude":"15.1110126","Name":"Bračičeva cesta"},{"Latitude":"46.4264529","Longitude":"15.6076790","Name":"Bračičeva ulica"},{"Latitude":"46.4693527","Longitude":"15.1516201","Name":"Brda"},{"Latitude":"45.5246754","Longitude":"15.1983951","Name":"Brdarci"},{"Latitude":"46.3176560","Longitude":"15.3525146","Name":"Brdce"},{"Latitude":"46.5220803","Longitude":"14.9948218","Name":"Brdinje"},{"Latitude":"46.0492450","Longitude":"14.4557151","Name":"Brdnikova ulica"},{"Latitude":"46.3352294","Longitude":"13.5481019","Name":"Brdo"},{"Latitude":"46.1689399","Longitude":"14.6823867","Name":"Brdo pri Lukovici"},{"Latitude":"46.3796212","Longitude":"15.3882745","Name":"Breg"},{"Latitude":"46.2921217","Longitude":"14.4191613","Name":"Breg ob Kokri"},{"Latitude":"45.9341220","Longitude":"14.3627305","Name":"Breg pri Borovnici"},{"Latitude":"46.3320951","Longitude":"15.4458976","Name":"Breg pri Konjicah"},{"Latitude":"45.6561519","Longitude":"14.8420671","Name":"Breg pri Kočevju"},{"Latitude":"45.7520773","Longitude":"14.7154902","Name":"Breg pri Ribnici na Dolenjskem"},{"Latitude":"45.6508762","Longitude":"15.3149508","Name":"Breg revolucije"},{"Latitude":"46.0729361","Longitude":"14.4755796","Name":"Bregarjeva ulica"},{"Latitude":"45.8936766","Longitude":"15.6890856","Name":"Bregovita ulica"},{"Latitude":"46.1351141","Longitude":"14.5968199","Name":"Brejčeva ulica"},{"Latitude":"46.5691971","Longitude":"15.9319366","Name":"Brengova"},{"Latitude":"45.9679883","Longitude":"14.4897648","Name":"Brest"},{"Latitude":"46.5730682","Longitude":"15.5774079","Name":"Bresterniška graba"},{"Latitude":"46.5739613","Longitude":"15.5822616","Name":"Bresterniška graba do HŠ. 108"},{"Latitude":"46.5697966","Longitude":"15.5892167","Name":"Bresterniška ulica"},{"Latitude":"46.5782154","Longitude":"15.5927828","Name":"Bresterniški vrh"},{"Latitude":"45.6296941","Longitude":"14.8738148","Name":"Brestova pot"},{"Latitude":"45.7919396","Longitude":"14.3672780","Name":"Brestova ulica"},{"Latitude":"46.2207044","Longitude":"15.6307958","Name":"Brestovec"},{"Latitude":"46.2241536","Longitude":"15.6353685","Name":"Brestovška cesta"},{"Latitude":"45.9311808","Longitude":"15.5972365","Name":"Brezina"},{"Latitude":"45.9387765","Longitude":"15.4694800","Name":"Brezinska pot"},{"Latitude":"46.5124256","Longitude":"15.6929974","Name":"Brezjanska ulica"},{"Latitude":"45.8115346","Longitude":"14.3822567","Name":"Brezje"},{"Latitude":"45.9296157","Longitude":"15.4442828","Name":"Brezje - Velika vas"},{"Latitude":"46.2404122","Longitude":"15.4282514","Name":"Brezje ob Slomu"},{"Latitude":"46.0301351","Longitude":"14.3511269","Name":"Brezje pri Dobrovi"},{"Latitude":"46.1465588","Longitude":"14.6643150","Name":"Brezje pri Dobu"},{"Latitude":"45.9557518","Longitude":"14.6473712","Name":"Brezje pri Grosupljem"},{"Latitude":"45.9794370","Longitude":"14.9951262","Name":"Brezje pri Kumpolju"},{"Latitude":"46.3329733","Longitude":"15.5053203","Name":"Brezje pri Ločah"},{"Latitude":"46.3843123","Longitude":"15.4301462","Name":"Brezje pri Oplotnici"},{"Latitude":"46.2551079","Longitude":"15.5723478","Name":"Brezje pri Podplatu"},{"Latitude":"45.8441852","Longitude":"15.6473043","Name":"Brezje v Veliki Dolini"},{"Latitude":"46.6294927","Longitude":"15.3160056","Name":"Brezni vrh"},{"Latitude":"46.3964305","Longitude":"14.1521121","Name":"Breznica"},{"Latitude":"46.6177920","Longitude":"15.8759980","Name":"Breznikova cesta"},{"Latitude":"46.1470496","Longitude":"14.6009303","Name":"Breznikova ulica"},{"Latitude":"46.6085648","Longitude":"15.3396150","Name":"Brezno"},{"Latitude":"46.1204344","Longitude":"14.5482811","Name":"Brezovce"},{"Latitude":"46.7066857","Longitude":"16.1250076","Name":"Brezovci"},{"Latitude":"46.4408536","Longitude":"15.6222452","Name":"Brezovec"},{"Latitude":"45.8219659","Longitude":"14.8464336","Name":"Brezovi Dol"},{"Latitude":"46.5945544","Longitude":"16.3349934","Name":"Brezovica"},{"Latitude":"45.8981024","Longitude":"14.3922230","Name":"Brezovica pri Borovnici"},{"Latitude":"46.0041671","Longitude":"14.3499087","Name":"Brezovica-Vrhnika železniška trasa"},{"Latitude":"46.0242286","Longitude":"14.4058367","Name":"Brezoviška cesta"},{"Latitude":"46.2924599","Longitude":"15.3008853","Name":"Brezovnikova ulica"},{"Latitude":"45.9423926","Longitude":"15.3462464","Name":"Brezovo"},{"Latitude":"46.4397626","Longitude":"15.6963319","Name":"Brezula"},{"Latitude":"46.4421008","Longitude":"15.6976858","Name":"Brezulska Jama"},{"Latitude":"45.4804418","Longitude":"13.7194391","Name":"Breči"},{"Latitude":"46.2972971","Longitude":"14.4224846","Name":"Breška pot"},{"Latitude":"45.7626974","Longitude":"14.7019691","Name":"Breže"},{"Latitude":"46.1851616","Longitude":"13.7374247","Name":"Brežič"},{"Latitude":"46.0252884","Longitude":"14.4126583","Name":"Brežna pot"},{"Latitude":"46.0076697","Longitude":"14.5011671","Name":"Brglezov štradon"},{"Latitude":"45.9646404","Longitude":"14.3027302","Name":"Brigadirska cesta"},{"Latitude":"46.1604963","Longitude":"14.5950403","Name":"Brigadirska ulica"},{"Latitude":"46.0865064","Longitude":"14.4741721","Name":"Brilejeva ulica"},{"Latitude":"46.2427032","Longitude":"15.2648416","Name":"Brinarjeva ulica"},{"Latitude":"46.0916605","Longitude":"14.5967804","Name":"Brinje"},{"Latitude":"45.9631069","Longitude":"14.6565573","Name":"Brinje cesta I"},{"Latitude":"45.9621557","Longitude":"14.6558966","Name":"Brinje cesta II"},{"Latitude":"46.3800371","Longitude":"15.3999778","Name":"Brinjeva gora"},{"Latitude":"45.7814093","Longitude":"14.6348694","Name":"Brinovščica"},{"Latitude":"46.2662049","Longitude":"15.0948322","Name":"Brinska cesta"},{"Latitude":"45.5786876","Longitude":"14.2384696","Name":"Brinškova ulica"},{"Latitude":"46.2460983","Longitude":"14.6434061","Name":"Briše"},{"Latitude":"46.0598800","Longitude":"14.3007432","Name":"Briše pri Polhovem Gradcu"},{"Latitude":"45.8681948","Longitude":"13.8157119","Name":"Brje"},{"Latitude":"45.7767578","Longitude":"13.8415452","Name":"Brje pri Koprivi"},{"Latitude":"45.5371921","Longitude":"13.6619015","Name":"Brkinska ulica"},{"Latitude":"45.7054751","Longitude":"13.8770734","Name":"Brkinčeva ulica"},{"Latitude":"46.0983509","Longitude":"14.5486193","Name":"Brnčičeva ulica"},{"Latitude":"45.7961680","Longitude":"15.1477240","Name":"Brod"},{"Latitude":"46.0557887","Longitude":"14.5506428","Name":"Brodarjev trg"},{"Latitude":"46.2387164","Longitude":"15.2653854","Name":"Brodarjeva ulica"},{"Latitude":"46.6319753","Longitude":"16.1328062","Name":"Brodarska ulica"},{"Latitude":"46.1388789","Longitude":"14.2585856","Name":"Brode"},{"Latitude":"46.1230957","Longitude":"14.5487134","Name":"Brodišče"},{"Latitude":"46.1154743","Longitude":"14.4632332","Name":"Brodska cesta"},{"Latitude":"46.4186907","Longitude":"15.8999635","Name":"Brstje"},{"Latitude":"45.8392154","Longitude":"14.7001915","Name":"Bruhanja vas"},{"Latitude":"46.1862731","Longitude":"13.7293316","Name":"Brunov drevored"},{"Latitude":"46.0483989","Longitude":"15.1885731","Name":"Brunška gora"},{"Latitude":"46.4325698","Longitude":"15.7296480","Name":"Brunšvik"},{"Latitude":"45.9622884","Longitude":"14.6434138","Name":"Brvace"},{"Latitude":"46.7038836","Longitude":"16.2386839","Name":"Brzinšček"},{"Latitude":"46.1887287","Longitude":"14.8598424","Name":"Bršlenovica"},{"Latitude":"45.8146445","Longitude":"15.1483378","Name":"Bršljin"},{"Latitude":"45.5411504","Longitude":"13.7943657","Name":"Bržani"},{"Latitude":"46.6980837","Longitude":"15.6433615","Name":"Bubenbergstraße"},{"Latitude":"45.8664551","Longitude":"13.9363028","Name":"Budanje"},{"Latitude":"46.8588908","Longitude":"16.2590752","Name":"Budinci"},{"Latitude":"45.5481939","Longitude":"13.7273314","Name":"Budičinova"},{"Latitude":"46.0347260","Longitude":"15.1921830","Name":"Budna vas"},{"Latitude":"45.6529960","Longitude":"14.0875027","Name":"Buje"},{"Latitude":"46.3856325","Longitude":"15.9566599","Name":"Bukovci"},{"Latitude":"46.4354528","Longitude":"15.6273139","Name":"Bukovec"},{"Latitude":"45.8143392","Longitude":"14.6810838","Name":"Bukovec pri Poljanah"},{"Latitude":"46.1702012","Longitude":"14.5072011","Name":"Bukovica"},{"Latitude":"45.8213154","Longitude":"14.1389779","Name":"Bukovje"},{"Latitude":"46.3469983","Longitude":"15.3499950","Name":"Bukovlje"},{"Latitude":"46.6915977","Longitude":"16.3231933","Name":"Bukovnica"},{"Latitude":"46.5522682","Longitude":"15.0448284","Name":"Bukovska vas"},{"Latitude":"46.1722635","Longitude":"14.6112761","Name":"Bukovčeva cesta"},{"Latitude":"46.1545726","Longitude":"14.6053123","Name":"Bukovčeva ulica"},{"Latitude":"45.7378974","Longitude":"14.7191659","Name":"Bukovška ulica"},{"Latitude":"46.2221931","Longitude":"14.2605756","Name":"Bukovščica"},{"Latitude":"46.2407519","Longitude":"15.3101960","Name":"Bukovžlak"},{"Latitude":"45.9142410","Longitude":"15.6233442","Name":"Bukošek"},{"Latitude":"46.6938270","Longitude":"15.6397866","Name":"Bundesstraße"},{"Latitude":"46.5905077","Longitude":"16.1399004","Name":"Bunčani"},{"Latitude":"45.5487145","Longitude":"13.7344877","Name":"Burlinova ulica"},{"Latitude":"46.0831112","Longitude":"14.4504670","Name":"Burnikova ulica"},{"Latitude":"45.4810430","Longitude":"13.8660051","Name":"Butari"},{"Latitude":"45.5654950","Longitude":"15.1976545","Name":"Butorajska cesta"},{"Latitude":"45.8488133","Longitude":"15.3359688","Name":"Bučarjeva cesta"},{"Latitude":"45.9847325","Longitude":"14.5788530","Name":"Bučarjeva ulica"},{"Latitude":"46.5868291","Longitude":"16.1073234","Name":"Bučečovci"},{"Latitude":"45.9298270","Longitude":"15.3216076","Name":"Bučka"},{"Latitude":"46.5343406","Longitude":"16.0590303","Name":"Bučkovci"},{"Latitude":"45.8677864","Longitude":"15.5202216","Name":"Bušeča vas"},{"Latitude":"46.6382538","Longitude":"16.4034063","Name":"Béke utca"},{"Latitude":"46.5744268","Longitude":"15.8795375","Name":"Cafova ulica"},{"Latitude":"45.5366669","Longitude":"13.6604518","Name":"Cankarjev drevored"},{"Latitude":"45.9665634","Longitude":"14.2974910","Name":"Cankarjev trg"},{"Latitude":"46.0553413","Longitude":"14.4769151","Name":"Cankarjev vrh"},{"Latitude":"46.0531852","Longitude":"14.4998623","Name":"Cankarjeva cesta"},{"Latitude":"45.6525410","Longitude":"15.1797513","Name":"Cankarjeva pot"},{"Latitude":"45.9020997","Longitude":"15.5970113","Name":"Cankarjeva ulica"},{"Latitude":"45.9668298","Longitude":"14.3011694","Name":"Cankarjevo nabrežje"},{"Latitude":"46.0653215","Longitude":"14.5156781","Name":"Carja Dušana ulica"},{"Latitude":"45.7923344","Longitude":"14.3646929","Name":"Casermanova ulica"},{"Latitude":"45.8895975","Longitude":"13.9094426","Name":"Cebejeva ulica"},{"Latitude":"45.8097291","Longitude":"15.1395522","Name":"Cegelnica"},{"Latitude":"45.5390264","Longitude":"13.6604499","Name":"Cegnarjeva ulica"},{"Latitude":"46.0479773","Longitude":"14.4578358","Name":"Celarčeva ulica"},{"Latitude":"46.0812342","Longitude":"14.5297887","Name":"Celestinova ulica"},{"Latitude":"46.5611685","Longitude":"15.7070765","Name":"Celestrina"},{"Latitude":"46.2508877","Longitude":"15.1733172","Name":"Celjska cesta"},{"Latitude":"46.0685451","Longitude":"14.5145820","Name":"Celjska ulica"},{"Latitude":"46.0566736","Longitude":"14.5014541","Name":"Celovška cesta"},{"Latitude":"46.2438699","Longitude":"15.2644943","Name":"Celovška ulica"},{"Latitude":"46.5738192","Longitude":"15.9380650","Name":"Cenkova"},{"Latitude":"45.8593556","Longitude":"14.5567337","Name":"Centa"},{"Latitude":"46.4700674","Longitude":"14.8481090","Name":"Center"},{"Latitude":"45.8251354","Longitude":"14.6323011","Name":"Cereja"},{"Latitude":"45.8836799","Longitude":"15.5194719","Name":"Cerklje ob Krki"},{"Latitude":"46.0360662","Longitude":"14.4699279","Name":"Cerkniška ulica"},{"Latitude":"45.9177764","Longitude":"14.3631994","Name":"Cerkova ulica"},{"Latitude":"46.0353223","Longitude":"14.8328051","Name":"Cerkovnik"},{"Latitude":"46.3647793","Longitude":"14.3143283","Name":"Cerkvena ulica"},{"Latitude":"46.5660391","Longitude":"16.4521779","Name":"Cerkveni trg / Templom tér"},{"Latitude":"46.5647151","Longitude":"15.9463572","Name":"Cerkvenjak"},{"Latitude":"45.5766347","Longitude":"15.2656397","Name":"Cerkvišče"},{"Latitude":"46.2525586","Longitude":"15.3680245","Name":"Cerovec"},{"Latitude":"46.4822170","Longitude":"16.1655574","Name":"Cerovec Stanka Vraza"},{"Latitude":"46.2541809","Longitude":"15.6568082","Name":"Cerovec pod Bočem"},{"Latitude":"45.6505096","Longitude":"15.2232608","Name":"Cerovec pri Črešnjevcu"},{"Latitude":"46.2093797","Longitude":"15.4978858","Name":"Cerovec pri Šmarju"},{"Latitude":"46.0381547","Longitude":"14.8900811","Name":"Cerovica"},{"Latitude":"45.9219658","Longitude":"14.6383152","Name":"Cerovo"},{"Latitude":"46.0624368","Longitude":"14.6162194","Name":"Cerutova ulica"},{"Latitude":"46.6979187","Longitude":"15.6676201","Name":"Ceršak"},{"Latitude":"45.7965349","Longitude":"15.1571871","Name":"Cesarjeva ulica"},{"Latitude":"46.3583082","Longitude":"15.1117679","Name":"Cesta"},{"Latitude":"46.2309455","Longitude":"14.3665262","Name":"Cesta 1. maja"},{"Latitude":"46.0380539","Longitude":"14.5977951","Name":"Cesta 13. julija"},{"Latitude":"46.1392731","Longitude":"14.9591702","Name":"Cesta 15. aprila"},{"Latitude":"45.9549339","Longitude":"13.6490336","Name":"Cesta 15. septembra"},{"Latitude":"45.8454571","Longitude":"13.9607314","Name":"Cesta 18. aprila"},{"Latitude":"45.7286403","Longitude":"14.4727009","Name":"Cesta 19. oktobra"},{"Latitude":"45.9426505","Longitude":"14.8037453","Name":"Cesta 2. Grupe odredov"},{"Latitude":"45.5424491","Longitude":"13.7701102","Name":"Cesta 2. oktobra"},{"Latitude":"46.1291686","Longitude":"14.9945994","Name":"Cesta 20. julija"},{"Latitude":"46.1006928","Longitude":"14.5213144","Name":"Cesta 24. junija"},{"Latitude":"46.0974584","Longitude":"14.5256909","Name":"Cesta 24.junija"},{"Latitude":"46.1008545","Longitude":"14.4616067","Name":"Cesta 25 talcev"},{"Latitude":"46.0524313","Longitude":"14.4888437","Name":"Cesta 27. aprila"},{"Latitude":"46.1491143","Longitude":"15.0843487","Name":"Cesta 3. julija"},{"Latitude":"46.0514699","Longitude":"14.5909392","Name":"Cesta 30. avgusta"},{"Latitude":"46.5007853","Longitude":"15.7555410","Name":"Cesta 4. julija"},{"Latitude":"45.7961666","Longitude":"14.3561266","Name":"Cesta 4. maja"},{"Latitude":"45.8874570","Longitude":"13.9028062","Name":"Cesta 5. maja"},{"Latitude":"45.9629491","Longitude":"14.2940483","Name":"Cesta 6. maja"},{"Latitude":"46.0570483","Longitude":"14.4128931","Name":"Cesta 7. maja"},{"Latitude":"46.4292812","Longitude":"15.8949316","Name":"Cesta 8. avgusta"},{"Latitude":"46.0060808","Longitude":"14.3494587","Name":"Cesta 8. maja"},{"Latitude":"46.1348060","Longitude":"15.0014394","Name":"Cesta 9. avgusta"},{"Latitude":"46.1494033","Longitude":"15.0865889","Name":"Cesta Adama Dušaka"},{"Latitude":"46.4240962","Longitude":"14.0840112","Name":"Cesta Alojza Travna"},{"Latitude":"46.0886829","Longitude":"14.4677107","Name":"Cesta Andreja Bitenca"},{"Latitude":"46.4260749","Longitude":"14.0920476","Name":"Cesta Borisa Kidriča"},{"Latitude":"46.2315309","Longitude":"14.3692957","Name":"Cesta Boštjana Hladnika"},{"Latitude":"45.5386330","Longitude":"13.7764815","Name":"Cesta Bratstva - Strada della Fratellanza"},{"Latitude":"45.9607539","Longitude":"14.6630577","Name":"Cesta Cankarjeve brigade"},{"Latitude":"46.1090053","Longitude":"14.5302883","Name":"Cesta Ceneta Štuparja"},{"Latitude":"46.1190968","Longitude":"14.4699877","Name":"Cesta Cirila Kosmača"},{"Latitude":"46.4392987","Longitude":"14.0432913","Name":"Cesta Cirila Tavčarja"},{"Latitude":"46.0593003","Longitude":"14.8368794","Name":"Cesta Dolenjskega odreda"},{"Latitude":"46.0424339","Longitude":"14.4535638","Name":"Cesta Dolomitskega odreda"},{"Latitude":"46.4337340","Longitude":"14.0539875","Name":"Cesta Franceta Prešerna"},{"Latitude":"46.3582060","Longitude":"15.1104253","Name":"Cesta Františka Foita"},{"Latitude":"46.3582306","Longitude":"14.0980909","Name":"Cesta Gorenjskega odreda"},{"Latitude":"45.9190706","Longitude":"13.6478245","Name":"Cesta Goriške fronte"},{"Latitude":"46.5525254","Longitude":"15.5980170","Name":"Cesta Graške gore"},{"Latitude":"46.1243256","Longitude":"15.0936205","Name":"Cesta Hermana Debelaka"},{"Latitude":"46.3805596","Longitude":"15.0488692","Name":"Cesta Heroja Gašperja"},{"Latitude":"46.1317990","Longitude":"14.7480765","Name":"Cesta Heroja Vasje - 415"},{"Latitude":"46.3588449","Longitude":"15.1260236","Name":"Cesta I"},{"Latitude":"45.5366509","Longitude":"13.8066047","Name":"Cesta I. Istrske brigade"},{"Latitude":"46.5214033","Longitude":"16.1919433","Name":"Cesta I. slovenskega tabora"},{"Latitude":"46.3586318","Longitude":"15.1257141","Name":"Cesta II"},{"Latitude":"46.0375120","Longitude":"14.5927295","Name":"Cesta II. grupe odredov"},{"Latitude":"46.3588700","Longitude":"15.1244904","Name":"Cesta III"},{"Latitude":"46.3581078","Longitude":"15.1245035","Name":"Cesta IV"},{"Latitude":"45.9016215","Longitude":"13.9094920","Name":"Cesta IV. Prekomorske"},{"Latitude":"45.8972992","Longitude":"13.9055105","Name":"Cesta IV. prekomorske"},{"Latitude":"46.3586715","Longitude":"15.1291533","Name":"Cesta IX"},{"Latitude":"45.9722901","Longitude":"13.6478093","Name":"Cesta IX. korpusa"},{"Latitude":"46.0220203","Longitude":"15.4810882","Name":"Cesta Ilije Gregoriča"},{"Latitude":"46.2416396","Longitude":"14.3543372","Name":"Cesta Iva Slavca"},{"Latitude":"46.4290685","Longitude":"14.1017688","Name":"Cesta Ivana Cankarja"},{"Latitude":"45.5383271","Longitude":"13.7727575","Name":"Cesta Ivana Starca"},{"Latitude":"46.2410709","Longitude":"14.3726999","Name":"Cesta Jaka Platiše"},{"Latitude":"46.2508046","Longitude":"14.4824606","Name":"Cesta Janeza Bobnarja"},{"Latitude":"46.4262450","Longitude":"14.0815244","Name":"Cesta Janeza Finžgarja"},{"Latitude":"46.0830303","Longitude":"14.5162868","Name":"Cesta Janeza Porente"},{"Latitude":"46.4794613","Longitude":"15.6789061","Name":"Cesta Janeza Puha"},{"Latitude":"45.8120109","Longitude":"14.3280635","Name":"Cesta Josipa Ribičiča"},{"Latitude":"45.8114869","Longitude":"14.3286684","Name":"Cesta Jožeta Krajca"},{"Latitude":"46.3393691","Longitude":"14.2971461","Name":"Cesta Kokrškega odreda"},{"Latitude":"46.2091623","Longitude":"15.4093496","Name":"Cesta Kozjanskega odreda"},{"Latitude":"45.9628804","Longitude":"14.3035457","Name":"Cesta Krimskega odreda"},{"Latitude":"46.2139027","Longitude":"15.3937110","Name":"Cesta Leona Dobrotinska"},{"Latitude":"46.2096029","Longitude":"15.3931887","Name":"Cesta Leona Dobrotinška"},{"Latitude":"46.0749414","Longitude":"15.6751667","Name":"Cesta Lijepe Naše"},{"Latitude":"46.0852600","Longitude":"14.4813471","Name":"Cesta Ljubljanske brigade"},{"Latitude":"45.7608186","Longitude":"14.6342217","Name":"Cesta Majde Šilc"},{"Latitude":"46.5806127","Longitude":"15.8758737","Name":"Cesta Maksa Kavčiča"},{"Latitude":"45.5294028","Longitude":"13.7387400","Name":"Cesta Marežganskega upora"},{"Latitude":"46.3797614","Longitude":"15.0502232","Name":"Cesta Matije Gubca"},{"Latitude":"46.2258725","Longitude":"15.3944417","Name":"Cesta Miloša Zidanška"},{"Latitude":"45.7636236","Longitude":"14.6324309","Name":"Cesta Notranjskega odreda"},{"Latitude":"46.1670976","Longitude":"15.0456067","Name":"Cesta Osvobodilne fronte"},{"Latitude":"46.1399943","Longitude":"14.9834230","Name":"Cesta Otona Župančiča"},{"Latitude":"46.1545119","Longitude":"14.5994332","Name":"Cesta Petra Majdiča"},{"Latitude":"45.9303133","Longitude":"13.6396053","Name":"Cesta Prekomorskih brigad"},{"Latitude":"46.5429528","Longitude":"15.6334650","Name":"Cesta Proletarskih brigad"},{"Latitude":"46.1752085","Longitude":"14.6166276","Name":"Cesta Radomeljske čete"},{"Latitude":"46.2372141","Longitude":"14.3743184","Name":"Cesta Rudija Šeliga"},{"Latitude":"46.3632006","Longitude":"15.1056634","Name":"Cesta Simona Blatnika"},{"Latitude":"45.5021236","Longitude":"13.6011509","Name":"Cesta Solinarjev"},{"Latitude":"46.2418976","Longitude":"14.3757565","Name":"Cesta Staneta Žagarja"},{"Latitude":"46.3555662","Longitude":"14.2953381","Name":"Cesta Ste Marie aux Mines"},{"Latitude":"46.3550969","Longitude":"14.2917890","Name":"Cesta Ste Marie aux mines"},{"Latitude":"45.9459033","Longitude":"14.6537146","Name":"Cesta Toneta Kralja"},{"Latitude":"46.4290819","Longitude":"14.0824900","Name":"Cesta Toneta Tomšiča"},{"Latitude":"46.1648770","Longitude":"15.0460797","Name":"Cesta Tončke Čeč"},{"Latitude":"46.0920799","Longitude":"14.4968197","Name":"Cesta Urške Zatlerjeve"},{"Latitude":"46.3555016","Longitude":"15.1264687","Name":"Cesta V"},{"Latitude":"46.3568473","Longitude":"15.1250583","Name":"Cesta VI"},{"Latitude":"46.2162293","Longitude":"15.3932602","Name":"Cesta Valentina Orožna"},{"Latitude":"46.4260422","Longitude":"14.0986090","Name":"Cesta Viktorja Svetina"},{"Latitude":"46.3589487","Longitude":"15.1293024","Name":"Cesta X"},{"Latitude":"46.3646415","Longitude":"15.1250016","Name":"Cesta XIV divizije"},{"Latitude":"46.5464709","Longitude":"15.6716620","Name":"Cesta XIV. divizije"},{"Latitude":"45.6492813","Longitude":"15.3109803","Name":"Cesta XV. brigade"},{"Latitude":"45.5435937","Longitude":"13.7286522","Name":"Cesta Zore Perello - Godina / Via Zora Perello - Godina"},{"Latitude":"46.1727227","Longitude":"14.6088041","Name":"Cesta borcev"},{"Latitude":"45.9234308","Longitude":"15.5885186","Name":"Cesta bratov Cerjakov"},{"Latitude":"45.9149926","Longitude":"15.5904341","Name":"Cesta bratov Milavcev"},{"Latitude":"46.3624604","Longitude":"15.1189176","Name":"Cesta bratov Mravljakov"},{"Latitude":"46.4325310","Longitude":"14.0699772","Name":"Cesta bratov Stražišarjev"},{"Latitude":"45.6509803","Longitude":"15.3038956","Name":"Cesta bratstva in enotnosti"},{"Latitude":"45.8231921","Longitude":"15.1588970","Name":"Cesta brigad"},{"Latitude":"45.9650624","Longitude":"14.6363174","Name":"Cesta dr. Jožeta Pučnika"},{"Latitude":"46.2355910","Longitude":"14.6112451","Name":"Cesta dr. T. Zajca"},{"Latitude":"46.0295370","Longitude":"14.4870427","Name":"Cesta dveh cesarjev"},{"Latitude":"46.0535180","Longitude":"14.4115090","Name":"Cesta dveh potokov"},{"Latitude":"45.9632912","Longitude":"14.2930537","Name":"Cesta gradenj"},{"Latitude":"45.9895697","Longitude":"15.4659932","Name":"Cesta izgnancev"},{"Latitude":"46.5594564","Longitude":"15.5777831","Name":"Cesta k Dravi"},{"Latitude":"46.5270751","Longitude":"15.6681307","Name":"Cesta k Tamu"},{"Latitude":"46.1822577","Longitude":"14.6328459","Name":"Cesta k cerkvi"},{"Latitude":"46.0577255","Longitude":"14.8350477","Name":"Cesta komandanta Staneta"},{"Latitude":"46.2213581","Longitude":"15.3108612","Name":"Cesta kozjanskega odreda"},{"Latitude":"45.9567585","Longitude":"15.4865757","Name":"Cesta krških žrtev"},{"Latitude":"46.4379279","Longitude":"14.0478952","Name":"Cesta maršala Tita"},{"Latitude":"45.5511460","Longitude":"13.7868702","Name":"Cesta med vinogradi"},{"Latitude":"45.5442220","Longitude":"13.7716371","Name":"Cesta med vinogradi - Strada fra i Vigneti"},{"Latitude":"45.5541846","Longitude":"13.7856812","Name":"Cesta med vinogradi / Strada fra i Vigneti"},{"Latitude":"45.5176288","Longitude":"13.5743430","Name":"Cesta mornariških odredov"},{"Latitude":"46.4651720","Longitude":"15.6902394","Name":"Cesta na Agrarno"},{"Latitude":"46.2466763","Longitude":"15.6382652","Name":"Cesta na Bellevue"},{"Latitude":"46.2696029","Longitude":"14.3598477","Name":"Cesta na Belo"},{"Latitude":"46.0524074","Longitude":"14.4478762","Name":"Cesta na Bokalce"},{"Latitude":"46.2441067","Longitude":"15.6279936","Name":"Cesta na Boč"},{"Latitude":"46.0475817","Longitude":"14.4573545","Name":"Cesta na Brdo"},{"Latitude":"46.0795845","Longitude":"14.5722953","Name":"Cesta na Brinovec"},{"Latitude":"46.0914718","Longitude":"14.5469224","Name":"Cesta na Brod"},{"Latitude":"45.7031097","Longitude":"13.8780680","Name":"Cesta na Bršljanovec"},{"Latitude":"46.4512516","Longitude":"15.6340406","Name":"Cesta na Bukovec"},{"Latitude":"46.2446089","Longitude":"15.2666274","Name":"Cesta na Dobrovo"},{"Latitude":"45.9617176","Longitude":"14.5815827","Name":"Cesta na Drenik"},{"Latitude":"45.9571244","Longitude":"15.0560988","Name":"Cesta na Fužine"},{"Latitude":"46.4401632","Longitude":"14.0437702","Name":"Cesta na Golico"},{"Latitude":"46.2048741","Longitude":"15.3949469","Name":"Cesta na Grad"},{"Latitude":"45.9497103","Longitude":"15.0683037","Name":"Cesta na Gradec"},{"Latitude":"46.4055459","Longitude":"15.8134160","Name":"Cesta na Hajdino"},{"Latitude":"46.3410965","Longitude":"14.2800529","Name":"Cesta na Hudo"},{"Latitude":"46.0123621","Longitude":"14.6530003","Name":"Cesta na Javor"},{"Latitude":"46.3186152","Longitude":"14.1807934","Name":"Cesta na Jezerca"},{"Latitude":"46.3719133","Longitude":"15.1024463","Name":"Cesta na Jezero"},{"Latitude":"46.4478360","Longitude":"15.6507900","Name":"Cesta na Ješenco"},{"Latitude":"46.0732800","Longitude":"14.5824438","Name":"Cesta na Ježah"},{"Latitude":"45.7508071","Longitude":"14.3276608","Name":"Cesta na Kalič"},{"Latitude":"46.2423449","Longitude":"14.3640262","Name":"Cesta na Klanec"},{"Latitude":"46.0339393","Longitude":"14.4428558","Name":"Cesta na Ključ"},{"Latitude":"46.0711623","Longitude":"14.5844474","Name":"Cesta na Kope"},{"Latitude":"45.7719714","Longitude":"14.2119740","Name":"Cesta na Kremenco"},{"Latitude":"45.9518082","Longitude":"14.6606900","Name":"Cesta na Krko"},{"Latitude":"46.5390386","Longitude":"15.4058299","Name":"Cesta na Kumen"},{"Latitude":"45.9481817","Longitude":"14.5319299","Name":"Cesta na Kurešček"},{"Latitude":"46.2493009","Longitude":"15.1651582","Name":"Cesta na Lavo"},{"Latitude":"46.0699016","Longitude":"14.4644133","Name":"Cesta na Laze"},{"Latitude":"46.0555361","Longitude":"14.1043579","Name":"Cesta na Ledinico"},{"Latitude":"45.7102024","Longitude":"13.8612652","Name":"Cesta na Lenivec"},{"Latitude":"46.3417066","Longitude":"14.9715175","Name":"Cesta na Lepo njivo"},{"Latitude":"46.3638142","Longitude":"14.1555261","Name":"Cesta na Lipce"},{"Latitude":"45.9875585","Longitude":"14.3962555","Name":"Cesta na Log"},{"Latitude":"46.0370178","Longitude":"14.5012845","Name":"Cesta na Loko"},{"Latitude":"46.4389394","Longitude":"13.6374234","Name":"Cesta na Mangart"},{"Latitude":"45.5416814","Longitude":"13.6758419","Name":"Cesta na Markovec"},{"Latitude":"46.0329334","Longitude":"14.5019100","Name":"Cesta na Mesarico"},{"Latitude":"46.2634315","Longitude":"14.3184377","Name":"Cesta na Okroglo"},{"Latitude":"46.2499954","Longitude":"15.2502885","Name":"Cesta na Ostrožno"},{"Latitude":"46.0697856","Longitude":"14.5815299","Name":"Cesta na Ozare"},{"Latitude":"46.2178937","Longitude":"15.3152384","Name":"Cesta na Pečovje"},{"Latitude":"46.1320700","Longitude":"13.9761200","Name":"Cesta na Plužne"},{"Latitude":"45.7073854","Longitude":"13.8597385","Name":"Cesta na Polane"},{"Latitude":"46.0921473","Longitude":"14.4758886","Name":"Cesta na Poljane"},{"Latitude":"45.9570495","Longitude":"14.7401743","Name":"Cesta na Polževo"},{"Latitude":"46.6239092","Longitude":"15.1791219","Name":"Cesta na Primož"},{"Latitude":"46.2672886","Longitude":"13.9585739","Name":"Cesta na Ravne"},{"Latitude":"46.2067154","Longitude":"15.4110568","Name":"Cesta na Rifnik"},{"Latitude":"45.5400817","Longitude":"13.7969408","Name":"Cesta na Rižano"},{"Latitude":"46.3732177","Longitude":"15.3864018","Name":"Cesta na Roglo"},{"Latitude":"46.3415747","Longitude":"14.9625474","Name":"Cesta na Rožnik"},{"Latitude":"46.2640889","Longitude":"14.3581223","Name":"Cesta na Rupo"},{"Latitude":"46.1466856","Longitude":"14.4022366","Name":"Cesta na Senico"},{"Latitude":"46.2266636","Longitude":"15.5202572","Name":"Cesta na Sv. Rok"},{"Latitude":"46.1446080","Longitude":"14.4011723","Name":"Cesta na Svetje"},{"Latitude":"45.6475025","Longitude":"14.8622318","Name":"Cesta na Trato"},{"Latitude":"45.7389083","Longitude":"14.7262256","Name":"Cesta na Ugar"},{"Latitude":"46.0397868","Longitude":"14.5894714","Name":"Cesta na Urh"},{"Latitude":"46.2499863","Longitude":"15.1538348","Name":"Cesta na Vrbje"},{"Latitude":"46.3412429","Longitude":"14.9578300","Name":"Cesta na Vrhe"},{"Latitude":"46.0454992","Longitude":"14.4512850","Name":"Cesta na Vrhovce"},{"Latitude":"46.1624452","Longitude":"14.6582838","Name":"Cesta na bajer"},{"Latitude":"45.9669969","Longitude":"14.3027163","Name":"Cesta na barju"},{"Latitude":"46.2071705","Longitude":"15.3822592","Name":"Cesta na brdo"},{"Latitude":"46.0126146","Longitude":"14.3692070","Name":"Cesta na breg"},{"Latitude":"46.0106260","Longitude":"15.3063350","Name":"Cesta na dobravo"},{"Latitude":"46.1622486","Longitude":"14.6580451","Name":"Cesta na gmajno"},{"Latitude":"46.2222186","Longitude":"15.2750349","Name":"Cesta na grad"},{"Latitude":"46.6138505","Longitude":"15.1558639","Name":"Cesta na gradišče"},{"Latitude":"45.9151528","Longitude":"14.3624316","Name":"Cesta na grič"},{"Latitude":"46.3652084","Longitude":"15.1195450","Name":"Cesta na griču"},{"Latitude":"45.7914216","Longitude":"14.3641480","Name":"Cesta na jezero"},{"Latitude":"46.2413594","Longitude":"14.3674015","Name":"Cesta na klanec"},{"Latitude":"46.3948215","Longitude":"15.6563626","Name":"Cesta na polje"},{"Latitude":"45.9632691","Longitude":"14.3021088","Name":"Cesta na polju"},{"Latitude":"46.0217240","Longitude":"14.4209418","Name":"Cesta na postajo"},{"Latitude":"45.6395021","Longitude":"14.8579585","Name":"Cesta na stadion"},{"Latitude":"46.3600466","Longitude":"15.1288040","Name":"Cesta na vrtače"},{"Latitude":"45.9114286","Longitude":"13.6405937","Name":"Cesta na Čuklje"},{"Latitude":"46.5035231","Longitude":"15.0750607","Name":"Cesta na Štibuhu"},{"Latitude":"45.5382077","Longitude":"13.7892960","Name":"Cesta na Žanej"},{"Latitude":"46.5678757","Longitude":"15.5581077","Name":"Cesta na Žavcarja"},{"Latitude":"46.5673524","Longitude":"15.5710195","Name":"Cesta na Žavcerja"},{"Latitude":"45.9823442","Longitude":"14.5657825","Name":"Cesta ob Bregu"},{"Latitude":"45.9376875","Longitude":"15.4716252","Name":"Cesta ob Gaju"},{"Latitude":"46.2953073","Longitude":"15.3002940","Name":"Cesta ob Hudinji"},{"Latitude":"46.1386655","Longitude":"14.4122344","Name":"Cesta ob Sori"},{"Latitude":"45.9905170","Longitude":"14.5642630","Name":"Cesta ob barju"},{"Latitude":"46.5011351","Longitude":"15.6798999","Name":"Cesta ob gramoznici"},{"Latitude":"46.5432134","Longitude":"15.7061836","Name":"Cesta ob lipi"},{"Latitude":"46.0095920","Longitude":"14.3540847","Name":"Cesta ob potoku"},{"Latitude":"46.3979071","Longitude":"15.6688870","Name":"Cesta ob ribniku"},{"Latitude":"46.2499684","Longitude":"15.1728739","Name":"Cesta ob železnici"},{"Latitude":"45.8402726","Longitude":"15.3392872","Name":"Cesta oktobrskih žrtev"},{"Latitude":"46.2212464","Longitude":"15.6450142","Name":"Cesta padlih aktivistov NOV"},{"Latitude":"46.1483944","Longitude":"15.0805874","Name":"Cesta padlih borcev"},{"Latitude":"46.2085507","Longitude":"15.4069356","Name":"Cesta pod Rifnikom"},{"Latitude":"45.7970104","Longitude":"14.3646046","Name":"Cesta pod Slivnico"},{"Latitude":"45.8134996","Longitude":"14.3197984","Name":"Cesta pod Srnjakom"},{"Latitude":"46.0122815","Longitude":"14.3732400","Name":"Cesta pod Strmco"},{"Latitude":"45.8124504","Longitude":"14.3275003","Name":"Cesta pod Tičnico"},{"Latitude":"45.9258459","Longitude":"14.3690736","Name":"Cesta pod goro"},{"Latitude":"46.3737019","Longitude":"15.3947683","Name":"Cesta pod hribom"},{"Latitude":"46.3660940","Longitude":"15.1054194","Name":"Cesta pod parkom"},{"Latitude":"45.9949407","Longitude":"15.4761226","Name":"Cesta prvih borcev"},{"Latitude":"45.5192186","Longitude":"13.5722009","Name":"Cesta rabskih žrtev"},{"Latitude":"46.4398495","Longitude":"14.0384057","Name":"Cesta revolucije"},{"Latitude":"46.0470009","Longitude":"14.5140157","Name":"Cesta slovenskih kmečkih uporov"},{"Latitude":"46.3595414","Longitude":"14.0971648","Name":"Cesta svobode"},{"Latitude":"46.1735230","Longitude":"14.3051664","Name":"Cesta talcev"},{"Latitude":"46.2361142","Longitude":"14.6116394","Name":"Cesta treh talcev"},{"Latitude":"46.3561811","Longitude":"15.1371273","Name":"Cesta v Bevče"},{"Latitude":"46.1307981","Longitude":"14.4140049","Name":"Cesta v Bonovec"},{"Latitude":"46.1756382","Longitude":"15.2347595","Name":"Cesta v Debro"},{"Latitude":"46.4979253","Longitude":"15.7027500","Name":"Cesta v Dobrovce"},{"Latitude":"46.1755142","Longitude":"14.6424298","Name":"Cesta v Dolenje"},{"Latitude":"45.7920749","Longitude":"14.3585083","Name":"Cesta v Dolenjo vas"},{"Latitude":"46.1018616","Longitude":"14.4491863","Name":"Cesta v Dvor"},{"Latitude":"45.6784037","Longitude":"13.9629322","Name":"Cesta v Gabrovo naselje"},{"Latitude":"46.2702663","Longitude":"15.0872423","Name":"Cesta v Gaj"},{"Latitude":"46.1238366","Longitude":"14.4795339","Name":"Cesta v Gameljne"},{"Latitude":"46.0187393","Longitude":"14.4634714","Name":"Cesta v Gorice"},{"Latitude":"46.4673473","Longitude":"15.7105740","Name":"Cesta v Hotinje"},{"Latitude":"45.5280562","Longitude":"13.6478257","Name":"Cesta v Jagodje"},{"Latitude":"46.0870313","Longitude":"14.4774744","Name":"Cesta v Kleče"},{"Latitude":"46.0659752","Longitude":"14.6294624","Name":"Cesta v Kresnice"},{"Latitude":"46.2180535","Longitude":"15.2629617","Name":"Cesta v Laško"},{"Latitude":"46.0093411","Longitude":"14.3534036","Name":"Cesta v Lipovce"},{"Latitude":"46.5503979","Longitude":"15.5496430","Name":"Cesta v Log"},{"Latitude":"46.3378624","Longitude":"14.9654052","Name":"Cesta v Loke"},{"Latitude":"46.2488288","Longitude":"15.2563532","Name":"Cesta v Lokrovec"},{"Latitude":"46.3614701","Longitude":"14.1119299","Name":"Cesta v Megre"},{"Latitude":"46.0381209","Longitude":"14.4997612","Name":"Cesta v Mestni log"},{"Latitude":"46.4895822","Longitude":"15.6946441","Name":"Cesta v Miklavž"},{"Latitude":"46.4056868","Longitude":"15.8038712","Name":"Cesta v Njiverce"},{"Latitude":"45.6995314","Longitude":"13.8802564","Name":"Cesta v Ograde"},{"Latitude":"45.6090979","Longitude":"14.3534724","Name":"Cesta v Palež"},{"Latitude":"46.1077952","Longitude":"14.5274689","Name":"Cesta v Pečale"},{"Latitude":"46.1050532","Longitude":"14.5396465","Name":"Cesta v Podboršt"},{"Latitude":"46.2501445","Longitude":"14.4853978","Name":"Cesta v Polico"},{"Latitude":"45.5294508","Longitude":"13.6682823","Name":"Cesta v Pregavor"},{"Latitude":"45.8109257","Longitude":"14.3293762","Name":"Cesta v Pretržje"},{"Latitude":"46.0694862","Longitude":"14.6209645","Name":"Cesta v Prod"},{"Latitude":"46.4605133","Longitude":"13.9420800","Name":"Cesta v Radovno"},{"Latitude":"46.4652621","Longitude":"15.6191790","Name":"Cesta v Ranče"},{"Latitude":"46.3532664","Longitude":"14.8332036","Name":"Cesta v Rastke"},{"Latitude":"46.5018223","Longitude":"15.7022096","Name":"Cesta v Rogozo"},{"Latitude":"46.4469124","Longitude":"14.0948036","Name":"Cesta v Rovte"},{"Latitude":"46.4534976","Longitude":"14.0876789","Name":"Cesta v Rovte + JKAT"},{"Latitude":"46.4524332","Longitude":"14.0846641","Name":"Cesta v Rovte JKAT"},{"Latitude":"46.5735079","Longitude":"15.6124428","Name":"Cesta v Rošpoh"},{"Latitude":"46.5796823","Longitude":"15.6194553","Name":"Cesta v Rošpoh od Vrbanske ceste- slepi del"},{"Latitude":"46.0501514","Longitude":"14.4934032","Name":"Cesta v Rožno dolino"},{"Latitude":"46.4992734","Longitude":"15.6808750","Name":"Cesta v Skoke"},{"Latitude":"45.7651000","Longitude":"14.2126299","Name":"Cesta v Staro vas"},{"Latitude":"46.2916932","Longitude":"15.3118559","Name":"Cesta v Tomaž"},{"Latitude":"46.2460787","Longitude":"15.2866089","Name":"Cesta v Trnovlje"},{"Latitude":"46.3769661","Longitude":"14.1026941","Name":"Cesta v Vintgar"},{"Latitude":"46.0653081","Longitude":"14.5875260","Name":"Cesta v Zajčjo dobravo"},{"Latitude":"45.6795046","Longitude":"13.9624800","Name":"Cesta v Zeleni gaj"},{"Latitude":"46.0345936","Longitude":"14.4589367","Name":"Cesta v Zgornji Log"},{"Latitude":"46.0328504","Longitude":"14.4579905","Name":"Cesta v Zgornji log"},{"Latitude":"45.9178464","Longitude":"14.1245761","Name":"Cesta v dedni dol"},{"Latitude":"46.0959131","Longitude":"14.4646456","Name":"Cesta v hrib"},{"Latitude":"46.0453045","Longitude":"14.5598677","Name":"Cesta v kostanj"},{"Latitude":"46.0723433","Longitude":"14.5880374","Name":"Cesta v zajčjo Dobravo"},{"Latitude":"46.0286841","Longitude":"14.4958359","Name":"Cesta v zeleni log"},{"Latitude":"46.0744191","Longitude":"14.5616279","Name":"Cesta v Šmartno"},{"Latitude":"46.1308313","Longitude":"14.4108299","Name":"Cesta v Žlebe"},{"Latitude":"46.1238250","Longitude":"14.4811577","Name":"Cesta vstaje"},{"Latitude":"46.1347346","Longitude":"14.6050461","Name":"Cesta za trgovino Rape – del ihanske"},{"Latitude":"46.5436171","Longitude":"15.6355081","Name":"Cesta zmage"},{"Latitude":"46.0536014","Longitude":"14.6028732","Name":"Cesta Španskih borcev"},{"Latitude":"46.0499519","Longitude":"14.6029478","Name":"Cesta španskih borcev"},{"Latitude":"46.2498803","Longitude":"15.1583051","Name":"Cesta Žalskega tabora"},{"Latitude":"46.4313287","Longitude":"14.0652840","Name":"Cesta železarjev"},{"Latitude":"46.4400370","Longitude":"15.6353236","Name":"Cestarska pot"},{"Latitude":"46.2243133","Longitude":"15.7011756","Name":"Ceste"},{"Latitude":"46.5264549","Longitude":"16.1490123","Name":"Cezanjevci"},{"Latitude":"46.4114777","Longitude":"15.4417817","Name":"Cezlak"},{"Latitude":"46.0490664","Longitude":"14.5645615","Name":"Chengdujska cesta"},{"Latitude":"46.2350221","Longitude":"14.3400146","Name":"Cicibanova ulica"},{"Latitude":"46.0556364","Longitude":"14.5064830","Name":"Cigaletova ulica"},{"Latitude":"46.4920532","Longitude":"15.7778593","Name":"Ciglence"},{"Latitude":"45.9554048","Longitude":"14.7468387","Name":"Ciglerjeva ulica"},{"Latitude":"46.3714264","Longitude":"15.5648508","Name":"Cigonca"},{"Latitude":"45.9753511","Longitude":"14.6276807","Name":"Cikava"},{"Latitude":"45.5358364","Longitude":"13.7916690","Name":"Cikuti"},{"Latitude":"46.0657947","Longitude":"14.5363496","Name":"Cilenškova ulica"},{"Latitude":"46.0522504","Longitude":"14.5880990","Name":"Cimermanova ulica"},{"Latitude":"46.0432814","Longitude":"14.5083554","Name":"Cimpermanova ulica"},{"Latitude":"46.2337605","Longitude":"15.2692421","Name":"Cinkarniška pot"},{"Latitude":"46.4216976","Longitude":"15.8773367","Name":"Ciril Metodov drevored"},{"Latitude":"46.6631430","Longitude":"16.1592814","Name":"Ciril Metodova ulica"},{"Latitude":"46.0507590","Longitude":"14.5098999","Name":"Ciril-Metodov trg"},{"Latitude":"46.2233866","Longitude":"14.3600852","Name":"Cirilova ulica"},{"Latitude":"46.6875000","Longitude":"15.5972761","Name":"Ciringa"},{"Latitude":"46.6479797","Longitude":"15.6605607","Name":"Cirknica"},{"Latitude":"46.3944963","Longitude":"15.7229331","Name":"Cirkovce"},{"Latitude":"46.3422327","Longitude":"15.9841811","Name":"Cirkulane"},{"Latitude":"46.1142251","Longitude":"14.4697022","Name":"Cizejeva ulica"},{"Latitude":"46.5421793","Longitude":"15.6838794","Name":"Cizljeva ulica"},{"Latitude":"46.0716308","Longitude":"14.5492590","Name":"Clevelandska ulica"},{"Latitude":"46.5799911","Longitude":"15.8312157","Name":"Cmureška cesta"},{"Latitude":"46.0482198","Longitude":"14.5317905","Name":"Codellijev most-novi"},{"Latitude":"46.0478026","Longitude":"14.5286163","Name":"Codellijev most-stari"},{"Latitude":"46.5782474","Longitude":"15.9494499","Name":"Cogetinci"},{"Latitude":"45.6536163","Longitude":"15.1943788","Name":"Coklovca"},{"Latitude":"46.5740432","Longitude":"15.6141450","Name":"Confidentijeva ulica"},{"Latitude":"46.5467424","Longitude":"15.5892586","Name":"Cotičeva ulica"},{"Latitude":"46.5351690","Longitude":"15.6340325","Name":"Crnekova ulica"},{"Latitude":"46.1982888","Longitude":"14.3096604","Name":"Crngrob"},{"Latitude":"46.4922049","Longitude":"16.1818076","Name":"Cuber"},{"Latitude":"46.4155437","Longitude":"15.9752060","Name":"Cunkovci"},{"Latitude":"46.0233095","Longitude":"14.4997570","Name":"Curnovska ulica"},{"Latitude":"46.5508057","Longitude":"16.2085699","Name":"Cven"},{"Latitude":"46.1301821","Longitude":"13.9921259","Name":"Cvetkova cesta"},{"Latitude":"46.0164570","Longitude":"14.5425200","Name":"Cvetkova ulica"},{"Latitude":"46.4103659","Longitude":"16.0690699","Name":"Cvetkovci"},{"Latitude":"46.0677792","Longitude":"14.5820462","Name":"Cvetlična pot"},{"Latitude":"46.4498838","Longitude":"15.6321702","Name":"Cvetlična ulica"},{"Latitude":"45.9381594","Longitude":"15.4689349","Name":"Cvetna pot"},{"Latitude":"45.5160990","Longitude":"13.5918347","Name":"Cvetna pot - Via dei Fiori"},{"Latitude":"46.6098056","Longitude":"16.2348840","Name":"Cvetno naselje"},{"Latitude":"45.8400923","Longitude":"14.9278852","Name":"Cvibelj"},{"Latitude":"45.7575981","Longitude":"15.0653686","Name":"Cviblje"},{"Latitude":"45.6369419","Longitude":"14.9039304","Name":"Cvišlerji"},{"Latitude":"46.3630354","Longitude":"14.1512482","Name":"Dacarjeva ulica"},{"Latitude":"46.0820753","Longitude":"14.5373215","Name":"Dajnkova ulica"},{"Latitude":"45.8398033","Longitude":"15.1321342","Name":"Daljni Vrh"},{"Latitude":"46.0540693","Longitude":"14.5057779","Name":"Dalmatinova ulica"},{"Latitude":"46.5416323","Longitude":"15.6402038","Name":"Dalmatinska ulica"},{"Latitude":"45.9625058","Longitude":"13.6629358","Name":"Damber"},{"Latitude":"46.5629216","Longitude":"15.6022766","Name":"Damiševa ulica"},{"Latitude":"46.0939042","Longitude":"14.5139492","Name":"Danile Kumarjeve ulica"},{"Latitude":"46.7751554","Longitude":"16.1635091","Name":"Dankovci"},{"Latitude":"45.5204657","Longitude":"13.5699286","Name":"Dantejeva ulica"},{"Latitude":"46.0647954","Longitude":"14.5267461","Name":"Davčna ulica"},{"Latitude":"46.2355608","Longitude":"14.1476916","Name":"Dašnica"},{"Latitude":"46.3707435","Longitude":"15.1191993","Name":"Deberca"},{"Latitude":"46.0177148","Longitude":"14.4164083","Name":"Debevčeva pot"},{"Latitude":"45.9963943","Longitude":"14.8118865","Name":"Debeče"},{"Latitude":"46.7002934","Longitude":"16.0209415","Name":"Dedenitzerstraße"},{"Latitude":"45.9698199","Longitude":"14.7269397","Name":"Dedni Dol"},{"Latitude":"45.8044312","Longitude":"15.1646607","Name":"Defranceschijeva ulica"},{"Latitude":"45.5425227","Longitude":"13.8182652","Name":"Dekani"},{"Latitude":"46.0805281","Longitude":"15.6283912","Name":"Dekmanca"},{"Latitude":"46.0303127","Longitude":"14.5025962","Name":"Delakova ulica"},{"Latitude":"46.3380134","Longitude":"15.4308706","Name":"Delavska cesta"},{"Latitude":"46.5394473","Longitude":"15.3893874","Name":"Delavska pot"},{"Latitude":"46.4331708","Longitude":"14.0631900","Name":"Delavska ulica"},{"Latitude":"45.9688251","Longitude":"14.2970227","Name":"Delavsko naselje"},{"Latitude":"45.9542928","Longitude":"13.6450673","Name":"Delpinova ulica"},{"Latitude":"46.1651569","Longitude":"14.3152311","Name":"Demšarjeva cesta"},{"Latitude":"45.9251483","Longitude":"14.3678315","Name":"Demšarjeva ulica"},{"Latitude":"46.1320113","Longitude":"14.5714961","Name":"Depala vas"},{"Latitude":"46.0462928","Longitude":"14.5454323","Name":"Dergančeva ulica"},{"Latitude":"46.0722521","Longitude":"14.4523120","Name":"Dergomaška ulica"},{"Latitude":"46.1725304","Longitude":"14.6081820","Name":"Dermasijeva ul."},{"Latitude":"46.1715213","Longitude":"14.6089583","Name":"Dermastijeva ulica"},{"Latitude":"46.0713016","Longitude":"14.5080059","Name":"Dermotova ulica"},{"Latitude":"46.0698888","Longitude":"14.4864808","Name":"Derčeva ulica"},{"Latitude":"46.5548108","Longitude":"15.5729926","Name":"Deržaničeva pot"},{"Latitude":"45.5608004","Longitude":"15.2370537","Name":"Desinec"},{"Latitude":"46.4950068","Longitude":"16.1296385","Name":"Desnjak"},{"Latitude":"45.5486770","Longitude":"13.7354926","Name":"Destradijev trg"},{"Latitude":"46.4947871","Longitude":"15.8807883","Name":"Destrnik"},{"Latitude":"46.3550366","Longitude":"14.2931555","Name":"Deteljica"},{"Latitude":"46.1376368","Longitude":"14.7415373","Name":"Detelova cesta"},{"Latitude":"46.2361086","Longitude":"14.3425119","Name":"Detelova ulica"},{"Latitude":"46.0542118","Longitude":"14.4130292","Name":"Devce"},{"Latitude":"46.4008394","Longitude":"15.5889822","Name":"Devina"},{"Latitude":"45.7064243","Longitude":"13.8750892","Name":"Devinska ulica"},{"Latitude":"46.5388911","Longitude":"15.6310241","Name":"Devova ulica"},{"Latitude":"46.2409587","Longitude":"15.2750890","Name":"Dečkova cesta"},{"Latitude":"46.0714608","Longitude":"14.5214109","Name":"Dečkova ulica"},{"Latitude":"46.0937528","Longitude":"14.5172169","Name":"Dečmanova ulica"},{"Latitude":"46.3618876","Longitude":"14.1595235","Name":"Dežmanova ulica"},{"Latitude":"46.3286545","Longitude":"15.8524469","Name":"Dežno pri Podlehniku"},{"Latitude":"46.1798795","Longitude":"13.7336963","Name":"Dijaška ulica"},{"Latitude":"45.8041224","Longitude":"15.1709391","Name":"Dilančeva ulica"},{"Latitude":"46.0711131","Longitude":"14.5155786","Name":"Dimičeva ulica"},{"Latitude":"45.6386651","Longitude":"14.8622287","Name":"Dimnikarska pot"},{"Latitude":"46.1462040","Longitude":"14.4019533","Name":"Dimčeva ulica"},{"Latitude":"46.5442201","Longitude":"14.9639663","Name":"Ditingerjeva ulica"},{"Latitude":"46.0347330","Longitude":"14.4534041","Name":"Divjakova ulica"},{"Latitude":"46.1481632","Longitude":"14.6343412","Name":"Dob"},{"Latitude":"45.9313637","Longitude":"14.8623750","Name":"Dob pri Šentvidu"},{"Latitude":"46.2028070","Longitude":"14.5955273","Name":"Dobajeva ulica"},{"Latitude":"45.8472425","Longitude":"14.3627030","Name":"Dobec"},{"Latitude":"46.5962380","Longitude":"16.2322474","Name":"Dobelska cesta"},{"Latitude":"46.6412937","Longitude":"16.1431058","Name":"Dobelska ulica"},{"Latitude":"46.5461537","Longitude":"14.9393083","Name":"Dobja vas"},{"Latitude":"46.1198123","Longitude":"14.1780586","Name":"Dobje"},{"Latitude":"46.1328203","Longitude":"14.4123239","Name":"Dobnikarjeva ulica"},{"Latitude":"45.9674905","Longitude":"14.2856548","Name":"Dobovičnikova ulica"},{"Latitude":"45.9004619","Longitude":"15.5978876","Name":"Dobovska cesta"},{"Latitude":"46.0494124","Longitude":"14.4517518","Name":"Dobrajčeva ulica"},{"Latitude":"45.5267358","Longitude":"13.6223408","Name":"Dobrava"},{"Latitude":"46.1205289","Longitude":"14.5480188","Name":"Dobrave"},{"Latitude":"45.9387201","Longitude":"14.5349541","Name":"Dobravica"},{"Latitude":"46.5489388","Longitude":"15.4863024","Name":"Dobravska cesta"},{"Latitude":"46.5282463","Longitude":"15.6749137","Name":"Dobravska ulica"},{"Latitude":"46.0542907","Longitude":"14.1132091","Name":"Dobračevska ulica"},{"Latitude":"46.0404969","Longitude":"14.4899269","Name":"Dobrdobska ulica"},{"Latitude":"46.2915188","Longitude":"15.8114908","Name":"Dobrina"},{"Latitude":"46.3415427","Longitude":"15.2229269","Name":"Dobrna"},{"Latitude":"46.3388693","Longitude":"15.4569462","Name":"Dobrnež"},{"Latitude":"45.8757246","Longitude":"14.9816957","Name":"Dobrnič"},{"Latitude":"46.0965628","Longitude":"15.4185786","Name":"Dobropolje"},{"Latitude":"46.2571953","Longitude":"15.2649348","Name":"Dobrova"},{"Latitude":"46.3608355","Longitude":"15.4664991","Name":"Dobrova pri Prihovi"},{"Latitude":"46.3659665","Longitude":"15.3955153","Name":"Dobroveljska cesta"},{"Latitude":"46.3192629","Longitude":"14.9718145","Name":"Dobrovlje pri Mozirju"},{"Latitude":"46.6549358","Longitude":"16.3432225","Name":"Dobrovnik"},{"Latitude":"46.0365318","Longitude":"14.5756111","Name":"Dobrunjska"},{"Latitude":"46.0382231","Longitude":"14.5826474","Name":"Dobrunjska cesta"},{"Latitude":"46.1787192","Longitude":"14.4780109","Name":"Dobruša"},{"Latitude":"45.8895358","Longitude":"15.3063984","Name":"Dobruška vas"},{"Latitude":"46.3583218","Longitude":"14.1643146","Name":"Dobrška ulica"},{"Latitude":"46.5272588","Longitude":"15.7004109","Name":"Dogoše"},{"Latitude":"46.5274794","Longitude":"15.6741869","Name":"Dogoška cesta"},{"Latitude":"46.8443583","Longitude":"16.0613163","Name":"Doiber Straße"},{"Latitude":"46.3483284","Longitude":"15.7731045","Name":"Doklece"},{"Latitude":"45.8527966","Longitude":"15.4782622","Name":"Dol"},{"Latitude":"46.0889919","Longitude":"14.6459201","Name":"Dol pri Ljubljani"},{"Latitude":"46.2092858","Longitude":"15.5269884","Name":"Dol pri Šmarju"},{"Latitude":"46.2125650","Longitude":"15.5253630","Name":"Dol pri Šmarju "},{"Latitude":"46.3746885","Longitude":"16.0055690","Name":"Dolane"},{"Latitude":"46.5394136","Longitude":"15.6294239","Name":"Dolarjeva ulica"},{"Latitude":"46.2459833","Longitude":"15.3850090","Name":"Dole"},{"Latitude":"46.1329044","Longitude":"14.6939027","Name":"Dole pod Sv. Trojico"},{"Latitude":"46.1313847","Longitude":"14.6955625","Name":"Dole pod Sveto Trojico"},{"Latitude":"46.1444474","Longitude":"14.7177403","Name":"Dole pri Krašcah"},{"Latitude":"45.9868671","Longitude":"14.6741246","Name":"Dole pri Polici"},{"Latitude":"46.0315154","Longitude":"14.5349156","Name":"Dolejnjska cesta"},{"Latitude":"46.3401168","Longitude":"15.8016454","Name":"Dolena"},{"Latitude":"46.8475539","Longitude":"16.2661275","Name":"Dolenci"},{"Latitude":"45.8320086","Longitude":"15.3411465","Name":"Dolenja Brezovica"},{"Latitude":"45.9003545","Longitude":"15.0705102","Name":"Dolenja Dobrava"},{"Latitude":"45.8777710","Longitude":"15.5256209","Name":"Dolenja Pirošica"},{"Latitude":"45.8982071","Longitude":"15.2894336","Name":"Dolenja Stara vas"},{"Latitude":"46.0660103","Longitude":"13.8833728","Name":"Dolenja Trebuša"},{"Latitude":"45.7886447","Longitude":"14.3523302","Name":"Dolenja vas"},{"Latitude":"45.9488069","Longitude":"15.5582882","Name":"Dolenja vas pri Artičah"},{"Latitude":"45.9953276","Longitude":"14.6956064","Name":"Dolenja vas pri Polici"},{"Latitude":"45.9639606","Longitude":"14.8859101","Name":"Dolenja vas pri Temenici"},{"Latitude":"45.9655239","Longitude":"14.9696554","Name":"Dolenja vas pri Čatežu"},{"Latitude":"45.5724310","Longitude":"15.2155817","Name":"Dolenja vas pri Črnomlju"},{"Latitude":"46.1756126","Longitude":"14.6540639","Name":"Dolenje"},{"Latitude":"45.7771006","Longitude":"14.3595202","Name":"Dolenje Jezero"},{"Latitude":"45.8340249","Longitude":"15.2780811","Name":"Dolenje Mokro Polje"},{"Latitude":"45.8380030","Longitude":"14.4146353","Name":"Dolenje Otave"},{"Latitude":"45.8029847","Longitude":"14.6734772","Name":"Dolenje Podpoljane"},{"Latitude":"45.8855356","Longitude":"15.0443491","Name":"Dolenje Ponikve"},{"Latitude":"45.9341815","Longitude":"15.3355247","Name":"Dolenje Radulje"},{"Latitude":"45.7707317","Longitude":"15.0489950","Name":"Dolenje polje"},{"Latitude":"46.0046387","Longitude":"15.2891579","Name":"Dolenji Boštanj"},{"Latitude":"45.7562175","Longitude":"14.7150924","Name":"Dolenji Lazi"},{"Latitude":"45.9892885","Longitude":"15.4535041","Name":"Dolenji Leskovec"},{"Latitude":"45.9008105","Longitude":"15.0323045","Name":"Dolenji Podboršt pri Treb."},{"Latitude":"46.0401206","Longitude":"14.5161513","Name":"Dolenjska cesta"},{"Latitude":"45.9093350","Longitude":"15.0132465","Name":"Dolenjska ulica"},{"Latitude":"46.2702606","Longitude":"14.3486126","Name":"Dolenčeva pot"},{"Latitude":"46.2240090","Longitude":"14.3597599","Name":"Dolenčeva ulica"},{"Latitude":"46.5495183","Longitude":"14.8904945","Name":"Dolga Brda"},{"Latitude":"46.2765074","Longitude":"15.5119512","Name":"Dolga Gora"},{"Latitude":"46.5863442","Longitude":"16.4443922","Name":"Dolga Vas"},{"Latitude":"45.5442199","Longitude":"13.6969588","Name":"Dolga reber"},{"Latitude":"46.6680052","Longitude":"16.1381256","Name":"Dolga ulica"},{"Latitude":"46.5911251","Longitude":"16.4377954","Name":"Dolga vas"},{"Latitude":"46.5295260","Longitude":"15.8042242","Name":"Dolge Njive"},{"Latitude":"46.3349354","Longitude":"15.5635502","Name":"Dolgi Vrh"},{"Latitude":"46.0312069","Longitude":"14.5085918","Name":"Dolgi breg"},{"Latitude":"46.0348777","Longitude":"14.4559879","Name":"Dolgi most"},{"Latitude":"46.0345688","Longitude":"14.7126249","Name":"Dolgo Brdo"},{"Latitude":"46.5692255","Longitude":"16.4756210","Name":"Dolgovaške Gorice"},{"Latitude":"46.5689176","Longitude":"16.4605498","Name":"Dolgovaške Gorice - Lendavske Gorice"},{"Latitude":"46.5740052","Longitude":"16.4657424","Name":"Dolgovaške gorice"},{"Latitude":"46.1031271","Longitude":"14.4487166","Name":"Dolharjeva ulica"},{"Latitude":"46.7463250","Longitude":"16.1939979","Name":"Dolina"},{"Latitude":"46.0697174","Longitude":"14.4511159","Name":"Dolinarjeva ulica"},{"Latitude":"45.5305224","Longitude":"13.7275950","Name":"Dolinska cesta"},{"Latitude":"45.6036725","Longitude":"13.9338881","Name":"Dolinska ulica"},{"Latitude":"46.0255968","Longitude":"14.5295058","Name":"Dolinškova ulica"},{"Latitude":"46.4805566","Longitude":"15.8943763","Name":"Dolič"},{"Latitude":"46.3853328","Longitude":"15.2974601","Name":"Doliška cesta"},{"Latitude":"46.0795987","Longitude":"14.4490144","Name":"Dolniška cesta"},{"Latitude":"46.5470856","Longitude":"16.3058295","Name":"Dolnja Bistrica"},{"Latitude":"45.6644311","Longitude":"14.1271064","Name":"Dolnja Košana"},{"Latitude":"45.5792228","Longitude":"15.1665954","Name":"Dolnja Paka"},{"Latitude":"46.5993256","Longitude":"15.6528625","Name":"Dolnja Počehova"},{"Latitude":"46.5979826","Longitude":"15.6581596","Name":"Dolnja Počehova (Toll Free)"},{"Latitude":"45.8531339","Longitude":"15.3787786","Name":"Dolnja Prekopa"},{"Latitude":"45.8972194","Longitude":"15.3004934","Name":"Dolnja Stara vas"},{"Latitude":"45.9952029","Longitude":"15.3614404","Name":"Dolnje Brezovo"},{"Latitude":"45.8302387","Longitude":"15.1495166","Name":"Dolnje Kamence"},{"Latitude":"45.9389969","Longitude":"14.9393651","Name":"Dolnje Prapreče"},{"Latitude":"45.8247976","Longitude":"14.6521149","Name":"Dolnje Retje"},{"Latitude":"46.8000661","Longitude":"16.0662396","Name":"Dolnji Slaveči"},{"Latitude":"46.8078965","Longitude":"16.0714591","Name":"Dolnji Slaveči - Grad"},{"Latitude":"46.7841023","Longitude":"16.0616397","Name":"Dolnji Slaveči - Motovilci"},{"Latitude":"45.6893670","Longitude":"15.2755244","Name":"Dolnji Suhor pri Metliki"},{"Latitude":"45.9712437","Longitude":"14.9268660","Name":"Dolnji Vrh"},{"Latitude":"46.0853201","Longitude":"14.4747321","Name":"Dolomitska cesta"},{"Latitude":"46.0938278","Longitude":"14.6769783","Name":"Dolsko"},{"Latitude":"45.8324884","Longitude":"15.4464097","Name":"Dolšce"},{"Latitude":"45.7676615","Longitude":"15.2535911","Name":"Dolž"},{"Latitude":"46.2675916","Longitude":"14.3586964","Name":"Dolžanova pot"},{"Latitude":"46.1531418","Longitude":"15.0506430","Name":"Dom in vrt"},{"Latitude":"46.5592691","Longitude":"15.5806700","Name":"Domadenikova ulica"},{"Latitude":"46.7570850","Longitude":"16.0362893","Name":"Domajinci"},{"Latitude":"46.7836474","Longitude":"16.2770364","Name":"Domanjševci"},{"Latitude":"46.5638169","Longitude":"15.6566181","Name":"Dominkuševa ulica"},{"Latitude":"46.5635045","Longitude":"15.6549577","Name":"Dominkuševa ulica do Kersnikove ulice"},{"Latitude":"46.1450314","Longitude":"14.5952089","Name":"Domžale"},{"Latitude":"46.1984118","Longitude":"14.5960350","Name":"Domžalska cesta"},{"Latitude":"46.2569728","Longitude":"15.7554692","Name":"Donačka Gora"},{"Latitude":"46.1457429","Longitude":"14.4104738","Name":"Donova cesta"},{"Latitude":"46.6301734","Longitude":"15.6337129","Name":"Doppler"},{"Latitude":"46.1977125","Longitude":"14.3240209","Name":"Dorfarje"},{"Latitude":"46.4338139","Longitude":"15.9514487","Name":"Dornava"},{"Latitude":"46.4314562","Longitude":"15.9405269","Name":"Dornavska cesta"},{"Latitude":"46.5354022","Longitude":"15.5993040","Name":"Dornikova ulica"},{"Latitude":"46.3929992","Longitude":"14.1605580","Name":"Doslovče"},{"Latitude":"46.4679005","Longitude":"13.9519115","Name":"Dovje"},{"Latitude":"46.4571985","Longitude":"15.1595393","Name":"Dovže"},{"Latitude":"45.9156536","Longitude":"14.2096270","Name":"Došče"},{"Latitude":"46.0799459","Longitude":"14.4894047","Name":"Drabosnjakova ulica"},{"Latitude":"46.0697048","Longitude":"14.4683072","Name":"Draga"},{"Latitude":"46.1471647","Longitude":"14.5944239","Name":"Dragarjeva ulica"},{"Latitude":"45.5200918","Longitude":"15.1769367","Name":"Dragatuš"},{"Latitude":"46.1093349","Longitude":"14.5966227","Name":"Dragomelj"},{"Latitude":"46.1060060","Longitude":"14.5951592","Name":"Dragomelj 119"},{"Latitude":"46.0195273","Longitude":"14.3820545","Name":"Dragomerška cesta"},{"Latitude":"45.6772729","Longitude":"15.2666643","Name":"Dragomlja vas"},{"Latitude":"45.4639963","Longitude":"13.6592290","Name":"Dragonja"},{"Latitude":"46.3908937","Longitude":"15.7314342","Name":"Dragonja vas"},{"Latitude":"46.5892067","Longitude":"16.0326454","Name":"Dragotinci"},{"Latitude":"45.5428600","Longitude":"15.1553419","Name":"Dragovanja vas"},{"Latitude":"46.4826139","Longitude":"15.9599835","Name":"Dragovič"},{"Latitude":"46.0398452","Longitude":"14.7843073","Name":"Dragovšek"},{"Latitude":"46.1753297","Longitude":"14.4194519","Name":"Dragočajna"},{"Latitude":"46.5789357","Longitude":"15.7109811","Name":"Dragučova"},{"Latitude":"46.5227220","Longitude":"16.0399257","Name":"Drakovci"},{"Latitude":"46.4253800","Longitude":"16.1034579","Name":"Drakšl"},{"Latitude":"46.6260070","Longitude":"15.7223775","Name":"Drankovec"},{"Latitude":"46.2424963","Longitude":"15.2603738","Name":"Drapšinova ulica"},{"Latitude":"46.0779242","Longitude":"14.4739660","Name":"Draveljska ulica"},{"Latitude":"46.3733212","Longitude":"15.3921025","Name":"Dravinjska cesta"},{"Latitude":"46.5428138","Longitude":"15.6859896","Name":"Dravinjska ulica"},{"Latitude":"46.3691693","Longitude":"15.9093258","Name":"Dravinjski Vrh"},{"Latitude":"46.3626245","Longitude":"15.8902912","Name":"Dravinjski vrh"},{"Latitude":"46.5117078","Longitude":"15.6990971","Name":"Dravska pot"},{"Latitude":"46.4014341","Longitude":"16.1518683","Name":"Dravska ulica"},{"Latitude":"46.6540243","Longitude":"15.1931550","Name":"Draxlerweg"},{"Latitude":"46.3315384","Longitude":"15.4785890","Name":"Draža vas"},{"Latitude":"46.6599835","Longitude":"15.7963939","Name":"Dražen Vrh - del"},{"Latitude":"46.3856209","Longitude":"15.8591040","Name":"Draženci"},{"Latitude":"46.4001028","Longitude":"15.8528878","Name":"Draženska cesta"},{"Latitude":"46.0478481","Longitude":"14.4289167","Name":"Draževnik"},{"Latitude":"46.2510192","Longitude":"14.1801974","Name":"Dražgoše"},{"Latitude":"46.2478076","Longitude":"14.3556986","Name":"Dražgoška ulica"},{"Latitude":"46.5353646","Longitude":"15.9236326","Name":"Drbetinci"},{"Latitude":"45.7964996","Longitude":"15.1859996","Name":"Drejčetova pot"},{"Latitude":"45.9493407","Longitude":"14.5880250","Name":"Drenik"},{"Latitude":"46.0675197","Longitude":"14.4916762","Name":"Drenikova cesta"},{"Latitude":"46.0664480","Longitude":"14.5001035","Name":"Drenikova ulica"},{"Latitude":"45.7837025","Longitude":"15.0080090","Name":"Drenje"},{"Latitude":"45.9974000","Longitude":"14.3304779","Name":"Drenov Grič"},{"Latitude":"46.3493641","Longitude":"16.0740555","Name":"Drenovec"},{"Latitude":"46.1110814","Longitude":"15.5438767","Name":"Drensko Rebro"},{"Latitude":"46.2685841","Longitude":"15.5881882","Name":"Drevenik"},{"Latitude":"46.5594762","Longitude":"15.5812833","Name":"Drevenškova ulica"},{"Latitude":"46.4541833","Longitude":"15.6661966","Name":"Drevesniška ulica"},{"Latitude":"45.5363663","Longitude":"13.6600177","Name":"Drevored 1. maja"},{"Latitude":"45.9150976","Longitude":"15.1740114","Name":"Drečji Vrh"},{"Latitude":"46.2468574","Longitude":"15.2030615","Name":"Drešinja vas"},{"Latitude":"45.4645254","Longitude":"15.2081833","Name":"Drežnik"},{"Latitude":"45.6452088","Longitude":"15.1721562","Name":"Drganj dol"},{"Latitude":"46.1745938","Longitude":"14.5746789","Name":"Drnovo"},{"Latitude":"45.9036398","Longitude":"15.3967406","Name":"Drnovo - Smednik"},{"Latitude":"46.2287205","Longitude":"14.6169984","Name":"Drnovškova pot"},{"Latitude":"46.2278218","Longitude":"15.2723455","Name":"Drobničeva ulica"},{"Latitude":"46.6959965","Longitude":"15.8476006","Name":"Drobtinci"},{"Latitude":"46.0237459","Longitude":"14.4035797","Name":"Drobtinška pot"},{"Latitude":"46.2146755","Longitude":"15.3917022","Name":"Drofenikova ulica"},{"Latitude":"46.2267106","Longitude":"14.3591155","Name":"Drolčevo naselje"},{"Latitude":"46.0341197","Longitude":"15.3145753","Name":"Drožanje"},{"Latitude":"46.0148189","Longitude":"15.3131528","Name":"Drožanjska cesta"},{"Latitude":"46.0062008","Longitude":"15.3118413","Name":"Drožnjanska cesta"},{"Latitude":"45.8014457","Longitude":"15.1562083","Name":"Drska"},{"Latitude":"46.4765629","Longitude":"15.8689474","Name":"Drstelja"},{"Latitude":"46.2176248","Longitude":"14.3731832","Name":"Drulovka"},{"Latitude":"46.3346178","Longitude":"15.6209130","Name":"Drumlažno"},{"Latitude":"46.0549961","Longitude":"14.5312333","Name":"Društvena ulica"},{"Latitude":"45.8674960","Longitude":"15.2571344","Name":"Družinska vas"},{"Latitude":"46.6418185","Longitude":"15.8956464","Name":"Drvanja"},{"Latitude":"46.6124208","Longitude":"15.8845290","Name":"Drvanjska cesta"},{"Latitude":"46.5359835","Longitude":"15.3794347","Name":"Drvarska pot"},{"Latitude":"45.7562425","Longitude":"14.3619342","Name":"Drvošec"},{"Latitude":"45.7940900","Longitude":"15.0818413","Name":"Drča"},{"Latitude":"45.7956337","Longitude":"15.0856903","Name":"Dule"},{"Latitude":"46.0838378","Longitude":"14.5137012","Name":"Dunajska cesta"},{"Latitude":"46.1913026","Longitude":"14.6710308","Name":"Dupeljne"},{"Latitude":"46.5009996","Longitude":"15.7536811","Name":"Duplek"},{"Latitude":"46.5260991","Longitude":"15.7013612","Name":"Dupleška cesta"},{"Latitude":"46.5070721","Longitude":"15.7507329","Name":"Dupleški vrh"},{"Latitude":"45.8633181","Longitude":"13.9484025","Name":"Duplje"},{"Latitude":"45.7558880","Longitude":"13.8344000","Name":"Dutovlje"},{"Latitude":"46.5471772","Longitude":"15.6395812","Name":"Dušanova ulica"},{"Latitude":"46.2769138","Longitude":"15.0751006","Name":"Dvojna ulica"},{"Latitude":"46.3342954","Longitude":"13.5416236","Name":"Dvor"},{"Latitude":"46.5533020","Longitude":"15.6440501","Name":"Dvorakova ulica"},{"Latitude":"45.8788392","Longitude":"15.6211208","Name":"Dvorce"},{"Latitude":"46.4983788","Longitude":"15.7616846","Name":"Dvorjane"},{"Latitude":"46.2578038","Longitude":"14.4892067","Name":"Dvorje"},{"Latitude":"45.8114701","Longitude":"14.6409556","Name":"Dvorska vas"},{"Latitude":"46.3022020","Longitude":"14.4220578","Name":"Dvorski trg"},{"Latitude":"46.0572330","Longitude":"14.5032039","Name":"Dvoržakova ulica"},{"Latitude":"46.5537062","Longitude":"15.6450573","Name":"Dvořakova ulica"},{"Latitude":"46.0605623","Longitude":"14.5024413","Name":"Džamijska ulica"},{"Latitude":"45.6283046","Longitude":"14.3973300","Name":"E6"},{"Latitude":"46.1379983","Longitude":"14.9884656","Name":"Eberlova cesta"},{"Latitude":"46.4530826","Longitude":"15.6354231","Name":"Eberlova ulica"},{"Latitude":"46.3632685","Longitude":"15.1236499","Name":"Efenkova cesta"},{"Latitude":"46.5317671","Longitude":"15.6756100","Name":"Efenkova ulica"},{"Latitude":"46.0653136","Longitude":"14.5058924","Name":"Einspielerjeva ulica"},{"Latitude":"46.0433346","Longitude":"14.5040461","Name":"Eipprova ulica"},{"Latitude":"46.5133117","Longitude":"15.6905935","Name":"Ekartova ulica"},{"Latitude":"46.2220740","Longitude":"14.6051562","Name":"Ekslerjeva ulica"},{"Latitude":"46.5704190","Longitude":"15.6115363","Name":"Elektrarniška ulica"},{"Latitude":"46.5946590","Longitude":"15.1601663","Name":"Elektrarniško naselje"},{"Latitude":"46.0722016","Longitude":"14.4492678","Name":"Ellerjeva ulica"},{"Latitude":"46.0463116","Longitude":"14.5025391","Name":"Emonska cesta"},{"Latitude":"46.5429140","Longitude":"15.6381882","Name":"Endlicherjeva ulica"},{"Latitude":"46.0647677","Longitude":"14.5221153","Name":"Endliherjeva ulica"},{"Latitude":"46.5477599","Longitude":"15.6266030","Name":"Engelsova ulica"},{"Latitude":"45.7671314","Longitude":"14.2167849","Name":"Erazmova ulica"},{"Latitude":"46.0346619","Longitude":"14.4502948","Name":"Erbežnikova ulica"},{"Latitude":"46.0507312","Longitude":"14.4948904","Name":"Erjavčeva cesta"},{"Latitude":"46.1529438","Longitude":"14.6284946","Name":"Erjavčeva ulica"},{"Latitude":"46.5386968","Longitude":"15.6361484","Name":"Ertlova ulica"},{"Latitude":"45.8324555","Longitude":"13.9081288","Name":"Erzelj"},{"Latitude":"46.0503361","Longitude":"14.5193995","Name":"Fabianijev most"},{"Latitude":"46.0659643","Longitude":"14.5238357","Name":"Fabianijeva"},{"Latitude":"46.0644827","Longitude":"14.5211198","Name":"Fabianijeva ulica"},{"Latitude":"46.0406501","Longitude":"14.4739835","Name":"Fajfarjeva ulica"},{"Latitude":"46.1315887","Longitude":"14.9983056","Name":"Fakinova ulica"},{"Latitude":"46.5585578","Longitude":"15.4578063","Name":"Fala"},{"Latitude":"46.5477166","Longitude":"15.4511880","Name":"Fala Grad"},{"Latitude":"46.5387503","Longitude":"15.5124018","Name":"Falska cesta"},{"Latitude":"45.7671134","Longitude":"14.5111696","Name":"Fara"},{"Latitude":"46.3398829","Longitude":"15.6319898","Name":"Farovec"},{"Latitude":"46.1389579","Longitude":"15.0043400","Name":"Farčnikova kolonija"},{"Latitude":"45.5036418","Longitude":"13.6085334","Name":"Fazan"},{"Latitude":"45.5060837","Longitude":"13.6063477","Name":"Fazanska ulica"},{"Latitude":"46.0698710","Longitude":"14.4669565","Name":"Ferberjeva ulica"},{"Latitude":"46.5412309","Longitude":"15.6423659","Name":"Ferkova ulica"},{"Latitude":"45.5474581","Longitude":"13.7381574","Name":"Ferrarska ulica / Via Ferrara"},{"Latitude":"45.5225508","Longitude":"13.5834759","Name":"Fiesa"},{"Latitude":"46.7900829","Longitude":"16.0032392","Name":"Fikšinci"},{"Latitude":"46.5522184","Longitude":"15.6130465","Name":"Filipičeva ulica"},{"Latitude":"46.6701513","Longitude":"16.3119020","Name":"Filovci"},{"Latitude":"45.8144885","Longitude":"14.6767594","Name":"Finkovo"},{"Latitude":"46.3680923","Longitude":"14.1203789","Name":"Finžgarjeva cesta"},{"Latitude":"46.2350944","Longitude":"14.3466871","Name":"Finžgarjeva ulica"},{"Latitude":"46.5442194","Longitude":"15.6575735","Name":"Finžgarjeva ulica - slepi del od Makedonske ulice"},{"Latitude":"46.4855671","Longitude":"13.8467148","Name":"Finžgarjevo naselje"},{"Latitude":"45.8963789","Longitude":"15.6873594","Name":"Firkeljeva ulica"},{"Latitude":"45.5157879","Longitude":"13.5813883","Name":"Fizine"},{"Latitude":"46.0660045","Longitude":"14.5271820","Name":"Flajšmanova ulica"},{"Latitude":"46.0865180","Longitude":"14.4652090","Name":"Flandrova ulica"},{"Latitude":"46.4299304","Longitude":"15.8840557","Name":"Flegeičeva ulica"},{"Latitude":"46.3974660","Longitude":"16.2653044","Name":"Flegeričeva ulica"},{"Latitude":"46.6130749","Longitude":"15.7284658","Name":"Flekušek"},{"Latitude":"46.6076605","Longitude":"15.1652944","Name":"Flisova ulica"},{"Latitude":"46.3978426","Longitude":"14.9871016","Name":"Florjan"},{"Latitude":"45.8034948","Longitude":"15.1690824","Name":"Florjanov trg"},{"Latitude":"46.0100492","Longitude":"15.3173769","Name":"Florjanska ulica"},{"Latitude":"46.5531677","Longitude":"15.6620334","Name":"Fluksova ulica"},{"Latitude":"46.5464783","Longitude":"15.6392959","Name":"Focheva ulica"},{"Latitude":"46.5552988","Longitude":"16.4853908","Name":"Fodorjeva vrsta"},{"Latitude":"46.0705191","Longitude":"14.5167974","Name":"Foersterjeva ulica"},{"Latitude":"46.7396865","Longitude":"16.2655527","Name":"Fokovci"},{"Latitude":"46.1910447","Longitude":"14.3243896","Name":"Forme"},{"Latitude":"46.4139129","Longitude":"16.0358055","Name":"Formin"},{"Latitude":"45.5201649","Longitude":"13.5678280","Name":"Fornače"},{"Latitude":"46.3453389","Longitude":"14.8326338","Name":"Foršt"},{"Latitude":"46.3914855","Longitude":"15.4377036","Name":"Fošt"},{"Latitude":"46.4789585","Longitude":"15.5504600","Name":"Frajhajm"},{"Latitude":"46.4541167","Longitude":"15.6331931","Name":"Fram"},{"Latitude":"46.5475003","Longitude":"15.6468074","Name":"Framska ulica"},{"Latitude":"46.2141277","Longitude":"14.6002637","Name":"Frana Albrehta ulica"},{"Latitude":"46.2144326","Longitude":"14.5991474","Name":"Franca Pirca ulica"},{"Latitude":"46.1864600","Longitude":"14.4940379","Name":"Franca Seška cesta"},{"Latitude":"46.3003980","Longitude":"14.4244186","Name":"Francarija"},{"Latitude":"46.5136703","Longitude":"15.0820300","Name":"Francetova cesta"},{"Latitude":"46.5181951","Longitude":"15.6849392","Name":"Franckina ulica"},{"Latitude":"45.9654269","Longitude":"14.0476661","Name":"Francoska cesta"},{"Latitude":"46.0634672","Longitude":"14.5452863","Name":"Francoska ulica"},{"Latitude":"46.0680441","Longitude":"14.5046605","Name":"Franketova ulica"},{"Latitude":"46.3196946","Longitude":"15.3173323","Name":"Frankolovo"},{"Latitude":"46.5467802","Longitude":"15.6456257","Name":"Frankolovska ulica"},{"Latitude":"46.5565868","Longitude":"15.6157058","Name":"Frankopanova ulica"},{"Latitude":"46.5116998","Longitude":"16.4450070","Name":"Frankopanska ulica"},{"Latitude":"46.3989968","Longitude":"16.1947696","Name":"Frankovci"},{"Latitude":"46.4314795","Longitude":"15.8744997","Name":"Frankovičeva ulica"},{"Latitude":"46.1697927","Longitude":"14.3240803","Name":"Frankovo naselje"},{"Latitude":"46.2263677","Longitude":"14.6112815","Name":"Frančiškanski trg"},{"Latitude":"46.4336999","Longitude":"15.8910196","Name":"Frasova ulica"},{"Latitude":"45.5370999","Longitude":"13.7947931","Name":"Frenkova cesta"},{"Latitude":"46.0361552","Longitude":"14.5707635","Name":"Frenkova pot"},{"Latitude":"45.5843379","Longitude":"13.7357534","Name":"Frenkova ulica"},{"Latitude":"46.0702607","Longitude":"14.4828531","Name":"Freyerjeva ulica"},{"Latitude":"46.8163508","Longitude":"15.9881865","Name":"Friedhofweg"},{"Latitude":"46.0566157","Longitude":"14.5189215","Name":"Friškovec"},{"Latitude":"46.6393844","Longitude":"15.8647437","Name":"Froleh"},{"Latitude":"46.5175132","Longitude":"16.2006164","Name":"Fulneška ulica"},{"Latitude":"46.0808862","Longitude":"14.5120568","Name":"Funtkova ulica"},{"Latitude":"46.5224913","Longitude":"14.8495992","Name":"Fužinarska pot"},{"Latitude":"46.0866037","Longitude":"14.0939804","Name":"Fužine"},{"Latitude":"46.0471653","Longitude":"14.5618976","Name":"Fužinska cesta"},{"Latitude":"46.3658416","Longitude":"14.3087617","Name":"Fužinska ulica"},{"Latitude":"46.0501099","Longitude":"14.5648132","Name":"Fužinski most"},{"Latitude":"46.8788948","Longitude":"16.2299221","Name":"Fő utca"},{"Latitude":"46.8753484","Longitude":"16.2651489","Name":"Fő út"},{"Latitude":"45.6449651","Longitude":"15.1619361","Name":"Gaber"},{"Latitude":"46.4286029","Longitude":"15.5949927","Name":"Gabernik"},{"Latitude":"46.4226217","Longitude":"15.5900849","Name":"Gaberniška ulica"},{"Latitude":"45.9006077","Longitude":"15.6562778","Name":"Gaberska pot"},{"Latitude":"46.5432030","Longitude":"16.0065807","Name":"Gabrc"},{"Latitude":"45.5751467","Longitude":"14.2400498","Name":"Gabrije"},{"Latitude":"46.0778668","Longitude":"14.3837665","Name":"Gabrje"},{"Latitude":"46.0491634","Longitude":"14.7011494","Name":"Gabrje pri Jančah"},{"Latitude":"45.7751217","Longitude":"15.0314823","Name":"Gabrje pri Soteski"},{"Latitude":"46.1351533","Longitude":"14.2461180","Name":"Gabrk"},{"Latitude":"46.4800053","Longitude":"15.9592734","Name":"Gabrnik"},{"Latitude":"46.0636207","Longitude":"14.6138000","Name":"Gabrov trg"},{"Latitude":"46.0008325","Longitude":"14.9882376","Name":"Gabrovka"},{"Latitude":"45.8787943","Longitude":"14.7994416","Name":"Gabrovčec"},{"Latitude":"45.9583838","Longitude":"14.2757477","Name":"Gabrče"},{"Latitude":"46.2702403","Longitude":"13.9526344","Name":"Gabrška ulica"},{"Latitude":"46.0474601","Longitude":"14.4712538","Name":"Gabrščkova ulica"},{"Latitude":"46.4271250","Longitude":"15.8668545","Name":"Gaizerjeva ulica"},{"Latitude":"46.5906661","Longitude":"15.5567460","Name":"Gaj"},{"Latitude":"46.6222590","Longitude":"15.5687165","Name":"Gaj nad Mariborom"},{"Latitude":"46.6622480","Longitude":"16.1421430","Name":"Gajeva ulica"},{"Latitude":"46.3972285","Longitude":"16.0152991","Name":"Gajevci"},{"Latitude":"46.2411871","Longitude":"15.2939621","Name":"Gaji"},{"Latitude":"46.6303157","Longitude":"16.3087599","Name":"Gajska ulica"},{"Latitude":"46.2071126","Longitude":"15.3876176","Name":"Gajstova pot"},{"Latitude":"46.5342605","Longitude":"16.1004262","Name":"Gajševci"},{"Latitude":"46.5264297","Longitude":"15.6822509","Name":"Gajštova ulica"},{"Latitude":"46.3642905","Longitude":"13.7172613","Name":"Galerija Berebica"},{"Latitude":"46.5603889","Longitude":"15.6766420","Name":"Galerija Meljski hrib"},{"Latitude":"46.2638617","Longitude":"14.3599200","Name":"Galetova ulica"},{"Latitude":"46.2939843","Longitude":"15.2051741","Name":"Galicija"},{"Latitude":"46.0836339","Longitude":"14.4431547","Name":"Galičeva ulica"},{"Latitude":"46.0337815","Longitude":"14.5197650","Name":"Galjevica"},{"Latitude":"45.5470800","Longitude":"13.7313152","Name":"Gallusova ulica"},{"Latitude":"46.5449454","Longitude":"15.9826293","Name":"Galušak"},{"Latitude":"46.1065800","Longitude":"14.5164247","Name":"Gameljska cesta"},{"Latitude":"45.6523583","Longitude":"15.3141636","Name":"Ganglova ulica"},{"Latitude":"46.6266904","Longitude":"16.2472671","Name":"Gančani"},{"Latitude":"45.5111279","Longitude":"13.6026822","Name":"Garibaldijeva ulica"},{"Latitude":"46.0646138","Longitude":"14.4964375","Name":"Gasilska cesta"},{"Latitude":"46.1546207","Longitude":"14.5929201","Name":"Gasilska pot"},{"Latitude":"46.5352203","Longitude":"15.4915698","Name":"Gasilska ulica"},{"Latitude":"46.0527834","Longitude":"14.5288180","Name":"Gasparijeva ulica"},{"Latitude":"46.1070931","Longitude":"14.5321918","Name":"Gača"},{"Latitude":"46.6024228","Longitude":"15.7027319","Name":"Gačnik"},{"Latitude":"46.5470755","Longitude":"15.5945876","Name":"Gačnikova ulica"},{"Latitude":"46.5062810","Longitude":"15.6953637","Name":"Gašperičeva ulica"},{"Latitude":"46.0533048","Longitude":"14.5558145","Name":"Gašperšičeva ulica"},{"Latitude":"45.5243812","Longitude":"13.6963334","Name":"Gažon"},{"Latitude":"46.6788105","Longitude":"16.0610516","Name":"Gederovci"},