[{"Latitude":"-17.6325537","Longitude":"177.4521116","Name":"A. V. Ram Narayan Road"},{"Latitude":"-17.6681607","Longitude":"177.5378743","Name":"Abaca Road"},{"Latitude":"-18.1371595","Longitude":"178.4602435","Name":"Ackland Street"},{"Latitude":"-17.6230021","Longitude":"177.4548333","Name":"Adam Street"},{"Latitude":"-18.1528734","Longitude":"178.4295232","Name":"Adi Davila Drive"},{"Latitude":"-18.2447888","Longitude":"178.0826708","Name":"Admiral Circle"},{"Latitude":"-18.1316867","Longitude":"178.4487045","Name":"Aidney Road"},{"Latitude":"-18.1177784","Longitude":"178.4424593","Name":"Aiwa Street"},{"Latitude":"-17.6200438","Longitude":"177.4479730","Name":"Ajodhya Prasad Road"},{"Latitude":"-18.1391629","Longitude":"178.4422047","Name":"Albert Lee Place"},{"Latitude":"-18.1350143","Longitude":"178.4416525","Name":"Alexander Road"},{"Latitude":"-18.0338574","Longitude":"178.5222808","Name":"Alfred Road"},{"Latitude":"-17.6143749","Longitude":"177.4607853","Name":"Alladatta Street"},{"Latitude":"-18.1501082","Longitude":"178.4317929","Name":"Allardyce Road"},{"Latitude":"-18.0350979","Longitude":"178.5180151","Name":"Amar Singh Road"},{"Latitude":"-17.6170192","Longitude":"177.4553777","Name":"Amatai Street"},{"Latitude":"-18.1090478","Longitude":"178.4674527","Name":"Ambala Place"},{"Latitude":"-18.1319719","Longitude":"178.4427340","Name":"Ambler Place"},{"Latitude":"-18.1033247","Longitude":"178.4421726","Name":"Amputch Street"},{"Latitude":"-18.1259294","Longitude":"178.4300200","Name":"Amra Street"},{"Latitude":"-18.1387323","Longitude":"178.4315374","Name":"Amy Street"},{"Latitude":"-18.1352293","Longitude":"178.4288008","Name":"Anand Street"},{"Latitude":"-17.7763200","Longitude":"177.4315581","Name":"Anderson Road"},{"Latitude":"-17.6326390","Longitude":"177.4399391","Name":"Andhra Place"},{"Latitude":"-17.8001771","Longitude":"177.4195163","Name":"Andrews Road"},{"Latitude":"-18.1099214","Longitude":"178.4519535","Name":"Archie Seeto Street"},{"Latitude":"-18.1288789","Longitude":"178.4319323","Name":"Argo Street"},{"Latitude":"-18.1104508","Longitude":"178.4507139","Name":"Arjun Jiva Street"},{"Latitude":"-18.1338806","Longitude":"178.4414637","Name":"Armstrong Street"},{"Latitude":"-18.2525069","Longitude":"178.0662671","Name":"Atoll Place"},{"Latitude":"-18.1378351","Longitude":"178.4337948","Name":"Augustus Street"},{"Latitude":"-18.0719646","Longitude":"178.5027491","Name":"Aurora Street"},{"Latitude":"-17.6200812","Longitude":"177.4626102","Name":"Autar Place"},{"Latitude":"-18.1303408","Longitude":"178.4525927","Name":"Auto City Place"},{"Latitude":"-18.1364597","Longitude":"178.4467778","Name":"Avon Place"},{"Latitude":"-17.8026088","Longitude":"177.4151926","Name":"Baker Lane"},{"Latitude":"-18.1325040","Longitude":"178.4394539","Name":"Bakshi Street"},{"Latitude":"-17.6318293","Longitude":"177.4570942","Name":"Bal Ram Dass Street"},{"Latitude":"-17.5392532","Longitude":"177.6948506","Name":"Bala Street"},{"Latitude":"-18.0952187","Longitude":"178.4736141","Name":"Balabala Crescent"},{"Latitude":"-17.7667756","Longitude":"177.4457065","Name":"Balabala Road"},{"Latitude":"-17.6217643","Longitude":"177.4410070","Name":"Balawa Street"},{"Latitude":"-18.1333014","Longitude":"178.4427426","Name":"Bale Street"},{"Latitude":"-18.1608570","Longitude":"177.6192401","Name":"Balenabelo Road"},{"Latitude":"-18.2452929","Longitude":"178.0786770","Name":"Banda Place"},{"Latitude":"-17.6249131","Longitude":"177.4420731","Name":"Bandila Crescent"},{"Latitude":"-17.5216686","Longitude":"178.2539001","Name":"Banisoqosoqo Road"},{"Latitude":"-18.1571080","Longitude":"178.4298637","Name":"Banuve Street"},{"Latitude":"-17.7653133","Longitude":"177.4288470","Name":"Baravi Road"},{"Latitude":"-18.1562109","Longitude":"178.4427212","Name":"Barker Place"},{"Latitude":"-18.1446440","Longitude":"178.4413475","Name":"Barrett Place"},{"Latitude":"-18.1516416","Longitude":"178.4298294","Name":"Barton Place"},{"Latitude":"-18.1282686","Longitude":"178.4616082","Name":"Batiki Street"},{"Latitude":"-18.1452298","Longitude":"178.4342136","Name":"Bau Street"},{"Latitude":"-17.7700404","Longitude":"177.4425840","Name":"Bauvudi Road"},{"Latitude":"-17.6323654","Longitude":"177.4543753","Name":"Bavadra Road"},{"Latitude":"-18.1470028","Longitude":"178.4556002","Name":"Beach Road"},{"Latitude":"-18.0786050","Longitude":"178.5036763","Name":"Beaumont Road"},{"Latitude":"-17.6162497","Longitude":"177.4635661","Name":"Bebe Street"},{"Latitude":"-17.7715589","Longitude":"177.4386068","Name":"Beddoes Circle"},{"Latitude":"-18.1289460","Longitude":"178.4492367","Name":"Beddoes Street"},{"Latitude":"-18.2503551","Longitude":"178.0666545","Name":"Belo Circle"},{"Latitude":"-18.1284745","Longitude":"178.4443548","Name":"Belo Street"},{"Latitude":"-18.1333667","Longitude":"178.4595740","Name":"Benau Street"},{"Latitude":"-18.1582377","Longitude":"178.4363032","Name":"Beqa Place"},{"Latitude":"-17.6294661","Longitude":"177.4383666","Name":"Berar Place"},{"Latitude":"-18.1497649","Longitude":"178.4285043","Name":"Berckley Cres Drive"},{"Latitude":"-18.1449018","Longitude":"178.4289491","Name":"Berry Road"},{"Latitude":"-18.0980850","Longitude":"178.4409144","Name":"Bhimji Street"},{"Latitude":"-18.1213355","Longitude":"178.4560218","Name":"Bhindi Street"},{"Latitude":"-17.6454101","Longitude":"177.4314943","Name":"Bhola Place"},{"Latitude":"-18.0984300","Longitude":"178.4595600","Name":"Biau Drive"},{"Latitude":"-18.1125025","Longitude":"178.4744500","Name":"Bikabhai Street"},{"Latitude":"-17.7786208","Longitude":"177.4444851","Name":"Bila Road"},{"Latitude":"-17.6036880","Longitude":"177.4528544","Name":"Bila Street"},{"Latitude":"-17.6186917","Longitude":"177.4690460","Name":"Bioletti Road"},{"Latitude":"-18.0337136","Longitude":"178.5574868","Name":"Blake Feeder Road"},{"Latitude":"-17.6185410","Longitude":"177.4550067","Name":"Blue Lagoon Street"},{"Latitude":"-16.6735200","Longitude":"179.8431700","Name":"Boce Bay Ferry Dock"},{"Latitude":"-16.6758493","Longitude":"179.8330503","Name":"Boce Bay Road"},{"Latitude":"-18.0947597","Longitude":"178.4827121","Name":"Boila Circle"},{"Latitude":"-18.1028902","Longitude":"178.4983701","Name":"Bonu Road"},{"Latitude":"-18.1301467","Longitude":"178.4407929","Name":"Borron Road"},{"Latitude":"-18.1013023","Longitude":"178.4585652","Name":"Bose Place"},{"Latitude":"-18.1159596","Longitude":"178.4566373","Name":"Bougainville Street"},{"Latitude":"-17.6008003","Longitude":"177.4584896","Name":"Bouwalu Street"},{"Latitude":"-17.7735290","Longitude":"177.4327837","Name":"Brewers Road"},{"Latitude":"-18.1375489","Longitude":"178.4323131","Name":"Brewster Street"},{"Latitude":"-17.7788993","Longitude":"177.3795722","Name":"Bridge # 1"},{"Latitude":"-17.7748157","Longitude":"177.3750712","Name":"Bridge # 2"},{"Latitude":"-18.1363652","Longitude":"178.4372878","Name":"Brown Street"},{"Latitude":"-18.1352697","Longitude":"178.4508570","Name":"Browning Street"},{"Latitude":"-18.1357321","Longitude":"178.4481928","Name":"Bryce Street"},{"Latitude":"-18.2387767","Longitude":"178.0841092","Name":"Bua Place"},{"Latitude":"-17.7587661","Longitude":"177.4510056","Name":"Buabua Road"},{"Latitude":"-18.0394629","Longitude":"178.5562725","Name":"Budhai Road"},{"Latitude":"-17.8055673","Longitude":"177.7411777","Name":"Bukuya Road"},{"Latitude":"-17.6182755","Longitude":"177.4630595","Name":"Bula Street"},{"Latitude":"-18.1161168","Longitude":"178.4760826","Name":"Bulei Road"},{"Latitude":"-18.0738317","Longitude":"178.5145982","Name":"Buli Court"},{"Latitude":"-18.0983076","Longitude":"178.4598776","Name":"Buli Place"},{"Latitude":"-18.1007240","Longitude":"178.4234326","Name":"Bulou Street"},{"Latitude":"-17.6169723","Longitude":"177.4659775","Name":"Bululeke Street"},{"Latitude":"-18.2412983","Longitude":"178.0820008","Name":"Bunako Circle"},{"Latitude":"-18.1443518","Longitude":"178.4486827","Name":"Burerua Street"},{"Latitude":"-18.1152516","Longitude":"178.4394894","Name":"Bureta Street"},{"Latitude":"-18.1571080","Longitude":"178.4298637","Name":"Burton Place"},{"Latitude":"-18.1095958","Longitude":"177.5088089","Name":"Butoni Road"},{"Latitude":"-18.1419064","Longitude":"178.4240627","Name":"Butt Street"},{"Latitude":"-18.0994253","Longitude":"178.4596802","Name":"Cabe Place"},{"Latitude":"-18.0981018","Longitude":"178.4683308","Name":"Cakacaka Road"},{"Latitude":"-17.6098257","Longitude":"177.4609588","Name":"Cakau Street"},{"Latitude":"-17.6162420","Longitude":"177.4625741","Name":"Calcutta Street"},{"Latitude":"-17.6044483","Longitude":"177.4697507","Name":"California Road"},{"Latitude":"-17.7606453","Longitude":"177.4445066","Name":"Canberra Drive"},{"Latitude":"-17.6215004","Longitude":"177.4388922","Name":"Cannery Street"},{"Latitude":"-17.6295029","Longitude":"177.4424483","Name":"Captain Withers Street"},{"Latitude":"-18.1466785","Longitude":"178.4349234","Name":"Carew Street"},{"Latitude":"-18.1433802","Longitude":"178.4238896","Name":"Carnavon Street"},{"Latitude":"-18.1407264","Longitude":"178.4514118","Name":"Carpenter Street"},{"Latitude":"-17.7735797","Longitude":"177.4747508","Name":"Carreras Road"},{"Latitude":"-18.1547021","Longitude":"178.4440736","Name":"Catalina Drive"},{"Latitude":"-18.1465930","Longitude":"178.4550106","Name":"Catalina Street"},{"Latitude":"-18.0978830","Longitude":"178.4669411","Name":"Caubati Road"},{"Latitude":"-18.0992387","Longitude":"178.4657178","Name":"Caubati Village Road"},{"Latitude":"-18.1091514","Longitude":"178.4739685","Name":"Caukuro Street"},{"Latitude":"-17.7721552","Longitude":"177.4349264","Name":"Cawa Road"},{"Latitude":"-17.5999223","Longitude":"177.4630963","Name":"Cemetary Road"},{"Latitude":"-18.1389466","Longitude":"178.4233976","Name":"Central Street"},{"Latitude":"-18.0979543","Longitude":"178.4858561","Name":"Cevua Plc"},{"Latitude":"-17.6153060","Longitude":"177.4641256","Name":"Chabilal Place"},{"Latitude":"-18.0626630","Longitude":"178.5201880","Name":"Chadwick Road"},{"Latitude":"-17.6219902","Longitude":"177.4620408","Name":"Chameli Street"},{"Latitude":"-18.0282730","Longitude":"178.5207742","Name":"Chandra Prasad"},{"Latitude":"-18.1073359","Longitude":"178.4654682","Name":"Chanik Road"},{"Latitude":"-18.1393094","Longitude":"178.4334367","Name":"Charles Street"},{"Latitude":"-18.1581154","Longitude":"178.4261068","Name":"Charlton Avenue"},{"Latitude":"-18.1397778","Longitude":"178.4452403","Name":"Cheng Place"},{"Latitude":"-18.0209526","Longitude":"178.5258114","Name":"China Garden"},{"Latitude":"-17.6198810","Longitude":"177.4696994","Name":"Choy Gopal Road"},{"Latitude":"-18.1019217","Longitude":"178.4597231","Name":"Church Road"},{"Latitude":"-18.1008515","Longitude":"178.4890864","Name":"Church Street"},{"Latitude":"-17.5296648","Longitude":"177.6693000","Name":"Clapcott Street"},{"Latitude":"-18.1476210","Longitude":"178.4320177","Name":"Clarke Street"},{"Latitude":"-17.8024035","Longitude":"177.4162690","Name":"Clay Street"},{"Latitude":"-17.6126312","Longitude":"177.4585775","Name":"Commissioners Drive"},{"Latitude":"-17.6229762","Longitude":"177.4681379","Name":"Compoy Place"},{"Latitude":"-17.7624244","Longitude":"177.4501626","Name":"Concave Road"},{"Latitude":"-18.1461710","Longitude":"178.4260686","Name":"Constitution Avenue"},{"Latitude":"-17.7609306","Longitude":"177.4476277","Name":"Constitution Crescent"},{"Latitude":"-18.2446282","Longitude":"178.0790237","Name":"Cook Place"},{"Latitude":"-17.6252042","Longitude":"177.4618872","Name":"Corbett Street"},{"Latitude":"-17.6186773","Longitude":"177.4558776","Name":"Covuli Street"},{"Latitude":"-18.1352578","Longitude":"178.4582983","Name":"Craig Place"},{"Latitude":"-18.1569566","Longitude":"178.4260482","Name":"Crawford Avenue"},{"Latitude":"-18.1224852","Longitude":"178.4388545","Name":"Crompton Place"},{"Latitude":"-16.6071926","Longitude":"179.1457915","Name":"Cross Island Road"},{"Latitude":"-18.1382625","Longitude":"178.4265505","Name":"Cumming Street"},{"Latitude":"-18.0968105","Longitude":"178.4556874","Name":"Cunningham Road"},{"Latitude":"-17.6135310","Longitude":"177.4653734","Name":"Dakua Lane"},{"Latitude":"-18.2349535","Longitude":"178.0833151","Name":"Dakua Place"},{"Latitude":"-17.7593357","Longitude":"177.4512978","Name":"Dakua Road"},{"Latitude":"-18.1109260","Longitude":"178.4487714","Name":"Dalton Place"},{"Latitude":"-16.4290316","Longitude":"179.3726156","Name":"Damanu Street"},{"Latitude":"-18.2361116","Longitude":"178.0744244","Name":"Damu Circle Road"},{"Latitude":"-18.1065044","Longitude":"178.4551315","Name":"Damu Place"},{"Latitude":"-18.2420667","Longitude":"178.0800066","Name":"Daniva Place"},{"Latitude":"-18.0931892","Longitude":"178.4803303","Name":"Daniva Road"},{"Latitude":"-17.6061613","Longitude":"177.4436088","Name":"Daniva Street"},{"Latitude":"-18.1362362","Longitude":"178.4294142","Name":"Davey Avenue"},{"Latitude":"-18.1346695","Longitude":"178.4502805","Name":"Davui Lane"},{"Latitude":"-18.1442266","Longitude":"178.4379581","Name":"Dawa Street"},{"Latitude":"-18.1347665","Longitude":"178.4578049","Name":"Daya Street"},{"Latitude":"-18.1057206","Longitude":"178.4310299","Name":"Delainavesi Road"},{"Latitude":"-18.2446081","Longitude":"178.0782210","Name":"Delakula Place"},{"Latitude":"-17.7794406","Longitude":"177.3813703","Name":"Denarau Island Bridge"},{"Latitude":"-17.7721207","Longitude":"177.3695416","Name":"Denarau Island Road"},{"Latitude":"-18.1482877","Longitude":"178.4306778","Name":"Denison Road"},{"Latitude":"-17.7634865","Longitude":"177.4478270","Name":"Deo Street"},{"Latitude":"-18.1412230","Longitude":"178.4367343","Name":"Deoki Place"},{"Latitude":"-18.1014218","Longitude":"178.4386141","Name":"Deovji Street"},{"Latitude":"-18.1362297","Longitude":"178.4486306","Name":"Derrick Street"},{"Latitude":"-18.1435349","Longitude":"178.4272063","Name":"Desvoeux Road"},{"Latitude":"-16.8026459","Longitude":"179.4008000","Name":"Devodara Road"},{"Latitude":"-18.1317516","Longitude":"178.4643805","Name":"Dhanesh Karsanji Bhindi Street"},{"Latitude":"-18.1304056","Longitude":"178.4425821","Name":"Dhanji Street"},{"Latitude":"-18.1472149","Longitude":"178.4383181","Name":"Dhurup Singh Place"},{"Latitude":"-18.1020033","Longitude":"178.4580408","Name":"Dike Place"},{"Latitude":"-17.6453308","Longitude":"177.4331605","Name":"Dildar Shah Street"},{"Latitude":"-18.1268920","Longitude":"178.4441403","Name":"Dilio Street"},{"Latitude":"-18.0326641","Longitude":"178.5237689","Name":"Dilkusha Road"},{"Latitude":"-18.2353130","Longitude":"178.0704536","Name":"Dilo Place"},{"Latitude":"-18.0680077","Longitude":"178.5150167","Name":"Dilo Street"},{"Latitude":"-18.1428824","Longitude":"178.4282550","Name":"Disraeli Road"},{"Latitude":"-18.1527530","Longitude":"178.4300285","Name":"Domain Road"},{"Latitude":"-18.1058334","Longitude":"178.4546198","Name":"Donu Place"},{"Latitude":"-17.6186501","Longitude":"177.4427729","Name":"Drasa Avenue"},{"Latitude":"-17.6105091","Longitude":"177.4626539","Name":"Dravuni Street"},{"Latitude":"-17.6582896","Longitude":"177.3985129","Name":"Dreketi Feeder Road"},{"Latitude":"-17.5497309","Longitude":"178.2584202","Name":"Dreketi Road"},{"Latitude":"-18.1408364","Longitude":"177.5062567","Name":"Duabale Road"},{"Latitude":"-18.1423213","Longitude":"178.4323318","Name":"Dudley Street"},{"Latitude":"-18.0223468","Longitude":"178.5076560","Name":"Duilomaloma Road"},{"Latitude":"-18.0918634","Longitude":"178.4745368","Name":"Duna Crescent"},{"Latitude":"-18.1485345","Longitude":"178.4332709","Name":"Duncan Road"},{"Latitude":"-18.1036244","Longitude":"178.4846008","Name":"Duvula Street"},{"Latitude":"-18.1419461","Longitude":"178.4327524","Name":"Eden Street"},{"Latitude":"-18.1269151","Longitude":"178.4392798","Name":"Edinburgh Drive"},{"Latitude":"-18.1309671","Longitude":"178.4274090","Name":"Eliza Street"},{"Latitude":"-18.1397004","Longitude":"178.4261160","Name":"Ellery Street"},{"Latitude":"-18.1178933","Longitude":"178.4378847","Name":"Ellis Place"},{"Latitude":"-17.7808051","Longitude":"177.4194260","Name":"Enamanu Road"},{"Latitude":"-18.1367829","Longitude":"178.4376400","Name":"Epeli Street"},{"Latitude":"-17.6219877","Longitude":"177.4580077","Name":"Evans Street"},{"Latitude":"-18.1567818","Longitude":"178.4278210","Name":"Evelyn Place"},{"Latitude":"-18.1142217","Longitude":"178.4439416","Name":"Evetts Place"},{"Latitude":"-18.1348749","Longitude":"178.4352618","Name":"Extension Street"},{"Latitude":"-18.0485909","Longitude":"178.4496993","Name":"FEA Tower Track"},{"Latitude":"-18.0763642","Longitude":"178.5018224","Name":"FNTC Road"},{"Latitude":"-17.7733534","Longitude":"177.3765268","Name":"Fairway Palms"},{"Latitude":"-18.2401715","Longitude":"178.0750292","Name":"Fairway Place"},{"Latitude":"-18.1309105","Longitude":"178.4499713","Name":"Falvey Road"},{"Latitude":"-17.7736090","Longitude":"177.4376827","Name":"Fasa Avenue"},{"Latitude":"-18.1521413","Longitude":"178.4317310","Name":"Fell Place"},{"Latitude":"-18.1181947","Longitude":"178.4582806","Name":"Finau Street"},{"Latitude":"-18.1388269","Longitude":"178.4581563","Name":"Fletcher Road"},{"Latitude":"-17.6456833","Longitude":"177.4328311","Name":"Fong Place"},{"Latitude":"-18.1364319","Longitude":"178.4278885","Name":"Fort Street"},{"Latitude":"-18.1199937","Longitude":"178.4312154","Name":"Foster Road"},{"Latitude":"-18.1405594","Longitude":"178.4246313","Name":"Foster Street"},{"Latitude":"-18.2336797","Longitude":"178.0820491","Name":"Frangipani Place"},{"Latitude":"-18.1216287","Longitude":"178.4445708","Name":"Fulaga Street"},{"Latitude":"-17.6300759","Longitude":"177.4405872","Name":"Futala Place"},{"Latitude":"-18.1280079","Longitude":"178.4496401","Name":"Gaji Road"},{"Latitude":"-17.6255665","Longitude":"177.4428621","Name":"Galba Street"},{"Latitude":"-17.6262608","Longitude":"177.4634835","Name":"Ganges Street"},{"Latitude":"-18.1569566","Longitude":"178.4260482","Name":"Gardiner Road"},{"Latitude":"-18.1550283","Longitude":"178.4313143","Name":"Garvey Drive"},{"Latitude":"-18.1584683","Longitude":"178.4345326","Name":"Gasau Street"},{"Latitude":"-18.1360992","Longitude":"178.4427769","Name":"George Place"},{"Latitude":"-17.6442834","Longitude":"177.4307781","Name":"Gibson Place"},{"Latitude":"-16.4282212","Longitude":"179.3768294","Name":"Gibson Street"},{"Latitude":"-18.1459773","Longitude":"178.4258632","Name":"Gladstone Road"},{"Latitude":"-17.6276196","Longitude":"177.4516027","Name":"Golf Link Crescent"},{"Latitude":"-18.1186807","Longitude":"178.4620596","Name":"Golf Link Road"},{"Latitude":"-18.0983129","Longitude":"178.4375944","Name":"Gomati Street"},{"Latitude":"-18.1437818","Longitude":"178.4241737","Name":"Goodenough Street"},{"Latitude":"-18.1125565","Longitude":"178.4406568","Name":"Goodrum Place"},{"Latitude":"-18.1395444","Longitude":"178.4473834","Name":"Goodsir Road"},{"Latitude":"-18.1406496","Longitude":"178.4240761","Name":"Gordon Street"},{"Latitude":"-18.1452864","Longitude":"178.4262954","Name":"Gorrie Street"},{"Latitude":"-18.1478412","Longitude":"178.4223790","Name":"Grahame Street"},{"Latitude":"-18.1308727","Longitude":"178.4391535","Name":"Grant Place"},{"Latitude":"-18.1387068","Longitude":"178.4492856","Name":"Grantham Road"},{"Latitude":"-18.2474995","Longitude":"178.0721009","Name":"Great Harbour Drive"},{"Latitude":"-18.1322003","Longitude":"178.4447253","Name":"Greene Street"},{"Latitude":"-18.1387870","Longitude":"178.4262154","Name":"Greig Street"},{"Latitude":"-17.7763437","Longitude":"177.4358252","Name":"Grey Road"},{"Latitude":"-18.1078015","Longitude":"178.4475097","Name":"Griffith Place"},{"Latitude":"-17.7776629","Longitude":"177.4312841","Name":"Haji Street"},{"Latitude":"-18.1498966","Longitude":"178.4362492","Name":"Hamilton-Beattie Street"},{"Latitude":"-18.0333276","Longitude":"178.5229357","Name":"Hancock Road"},{"Latitude":"-18.1249243","Longitude":"178.4378090","Name":"Harper Place"},{"Latitude":"-18.1322616","Longitude":"178.4258959","Name":"Harris Road"},{"Latitude":"-17.6329668","Longitude":"177.4540994","Name":"Harry Ah Tong Place"},{"Latitude":"-18.1322003","Longitude":"178.4447253","Name":"Havelock Place"},{"Latitude":"-17.6203735","Longitude":"177.4395729","Name":"Hedstrom Place"},{"Latitude":"-18.1271593","Longitude":"178.4383738","Name":"Hedstroms Place"},{"Latitude":"-18.1200217","Longitude":"178.4407685","Name":"Helsen Street"},{"Latitude":"-18.1148906","Longitude":"178.4371979","Name":"Hemraj Street"},{"Latitude":"-18.1418674","Longitude":"178.4253442","Name":"Hercules Street"},{"Latitude":"-18.1495703","Longitude":"178.4358887","Name":"Herrick Place"},{"Latitude":"-18.2510542","Longitude":"178.0731118","Name":"Hibiscus Drive"},{"Latitude":"-16.7816663","Longitude":"179.3361090","Name":"Hibiscus Highway"},{"Latitude":"-18.1390341","Longitude":"178.4293917","Name":"High Street"},{"Latitude":"-17.6293584","Longitude":"177.4545711","Name":"Hira Rao Place"},{"Latitude":"-18.1424251","Longitude":"178.4285342","Name":"Holland Street"},{"Latitude":"-17.6247067","Longitude":"177.4572789","Name":"Hollander Road"},{"Latitude":"-18.1438284","Longitude":"178.4356570","Name":"Holmes Street"},{"Latitude":"-17.6281399","Longitude":"177.4390707","Name":"Homer Crescent"},{"Latitude":"-16.7793008","Longitude":"179.3366472","Name":"Hooper Road"},{"Latitude":"-18.1342166","Longitude":"178.4294053","Name":"Horton Street"},{"Latitude":"-17.6138508","Longitude":"177.4547646","Name":"Hospital Road"},{"Latitude":"-18.1167668","Longitude":"178.4379876","Name":"Howard Places"},{"Latitude":"-18.1330340","Longitude":"178.4439448","Name":"Howell Road"},{"Latitude":"-18.1118233","Longitude":"178.4481792","Name":"Hunt Place"},{"Latitude":"-18.1415759","Longitude":"178.4364822","Name":"Hunter Street"},{"Latitude":"-18.1407469","Longitude":"178.4331854","Name":"Huon Street"},{"Latitude":"-18.1482996","Longitude":"178.4537729","Name":"Hutson Street"},{"Latitude":"-18.1160608","Longitude":"178.4616408","Name":"Ibu Place"},{"Latitude":"-17.6453951","Longitude":"177.4311767","Name":"Ika Place"},{"Latitude":"-18.0913841","Longitude":"178.4738823","Name":"Ikadroka Place"},{"Latitude":"-18.1526306","Longitude":"178.4315851","Name":"Imthurn Road"},{"Latitude":"-17.7665650","Longitude":"177.4414502","Name":"Independence Crescent"},{"Latitude":"-17.6182385","Longitude":"177.4595089","Name":"Indus Place"},{"Latitude":"-17.7689830","Longitude":"177.4361144","Name":"Industrial Street"},{"Latitude":"-18.0130197","Longitude":"178.5526921","Name":"Irrigation Road"},{"Latitude":"-18.1061128","Longitude":"178.4482307","Name":"Irvine Place"},{"Latitude":"-17.6093802","Longitude":"177.4629075","Name":"Ivi Place"},{"Latitude":"-18.0682729","Longitude":"178.5233959","Name":"JP Maharaj Street"},{"Latitude":"-18.1508508","Longitude":"178.4327597","Name":"Jackson Street"},{"Latitude":"-16.4302990","Longitude":"179.3754968","Name":"Jaduram Street"},{"Latitude":"-18.1289279","Longitude":"178.4563082","Name":"Jai Ambamaa Street"},{"Latitude":"-18.1287729","Longitude":"178.4580505","Name":"Jai Hanuman Road"},{"Latitude":"-17.6193884","Longitude":"177.4705220","Name":"Jale Street"},{"Latitude":"-16.4293612","Longitude":"179.3688681","Name":"James Madhavan Street"},{"Latitude":"-17.6337169","Longitude":"177.4552897","Name":"Jamnadas Bhagwan Street"},{"Latitude":"-17.6185978","Longitude":"177.4609272","Name":"Jamuna Street"},{"Latitude":"-18.1302837","Longitude":"178.4462498","Name":"Jaya Ben Place"},{"Latitude":"-18.1317353","Longitude":"178.4657109","Name":"Jayent Karsanji Bhindi Street"},{"Latitude":"-18.1195015","Longitude":"178.4651806","Name":"Jerusalem Road"},{"Latitude":"-18.0981223","Longitude":"178.4360861","Name":"Jetha Lal"},{"Latitude":"-17.6198712","Longitude":"177.4636516","Name":"Jinnu Road"},{"Latitude":"-17.6079536","Longitude":"177.4547785","Name":"Jinnu Street"},{"Latitude":"-18.1371877","Longitude":"178.4408437","Name":"Joe Singh Place"},{"Latitude":"-17.6342856","Longitude":"177.4573405","Name":"John Hicks Place"},{"Latitude":"-18.1408367","Longitude":"178.4297951","Name":"Johnson Street"},{"Latitude":"-18.1398576","Longitude":"178.4241805","Name":"Joske Street"},{"Latitude":"-18.1203383","Longitude":"178.4502534","Name":"Joyce Perks Street"},{"Latitude":"-17.6209912","Longitude":"177.4419435","Name":"K. M. James Road"},{"Latitude":"-18.1132203","Longitude":"178.4385592","Name":"Kaba Road"},{"Latitude":"-17.7391359","Longitude":"177.4581079","Name":"Kabani Road"},{"Latitude":"-18.1205557","Longitude":"178.4444868","Name":"Kabara Street"},{"Latitude":"-18.1114318","Longitude":"178.4543676","Name":"Kabatia Place"},{"Latitude":"-18.1044300","Longitude":"178.4852338","Name":"Kabote Circle"},{"Latitude":"-18.1585471","Longitude":"178.4359592","Name":"Kadavu Road"},{"Latitude":"-18.0928899","Longitude":"178.4980445","Name":"KaiKai Street"},{"Latitude":"-18.1068489","Longitude":"178.4536835","Name":"Kaikai Place"},{"Latitude":"-18.0680064","Longitude":"178.5209186","Name":"Kaisau Court"},{"Latitude":"-18.1263935","Longitude":"178.4469775","Name":"Kaka Street"},{"Latitude":"-18.0910716","Longitude":"178.4997283","Name":"Kake Street"},{"Latitude":"-17.6219062","Longitude":"177.4686362","Name":"Kale Khan Place"},{"Latitude":"-18.0978394","Longitude":"178.4576176","Name":"Kali Place"},{"Latitude":"-18.0730770","Longitude":"178.5167869","Name":"Kalia Court"},{"Latitude":"-18.1094472","Longitude":"178.4755135","Name":"Kaloa Street"},{"Latitude":"-18.0715083","Longitude":"178.5000456","Name":"Kalokalo Crescent"},{"Latitude":"-17.6189872","Longitude":"177.4573553","Name":"Kama Street"},{"Latitude":"-18.2331600","Longitude":"178.0811050","Name":"Kamba Place"},{"Latitude":"-18.1158267","Longitude":"178.4604345","Name":"Kameli Place"},{"Latitude":"-18.1301695","Longitude":"178.4462240","Name":"Kanavi Street"},{"Latitude":"-18.1397865","Longitude":"178.4483447","Name":"Kapadia Place"},{"Latitude":"-18.1008122","Longitude":"178.4577146","Name":"Kara Place"},{"Latitude":"-17.6172725","Longitude":"177.4670444","Name":"Kara Punja Road"},{"Latitude":"-18.1272572","Longitude":"178.4489419","Name":"Karan Singh Road"},{"Latitude":"-18.1274433","Longitude":"178.4594095","Name":"Kasanji Street"},{"Latitude":"-18.1274611","Longitude":"178.4371378","Name":"Kasavu Road"},{"Latitude":"-18.1086518","Longitude":"178.4789038","Name":"Kaudamu Road"},{"Latitude":"-18.1097186","Longitude":"178.4538440","Name":"Kaukimoce Road"},{"Latitude":"-18.1318658","Longitude":"178.4602864","Name":"Kaunitoni Street"},{"Latitude":"-18.2370991","Longitude":"178.0712381","Name":"Kauvula Place"},{"Latitude":"-18.2297606","Longitude":"178.0713863","Name":"Kava Place"},{"Latitude":"-17.9697373","Longitude":"177.6596115","Name":"Kavanagasau Road"},{"Latitude":"-16.7952218","Longitude":"179.4228826","Name":"Kavika Falls"},{"Latitude":"-18.1558191","Longitude":"178.4362933","Name":"Kavika Place"},{"Latitude":"-18.1121415","Longitude":"178.4524192","Name":"Kavu Place"},{"Latitude":"-18.0779624","Longitude":"178.5052333","Name":"Kelland Street"},{"Latitude":"-17.7908487","Longitude":"177.4241344","Name":"Kennedy Avenue"},{"Latitude":"-17.6344060","Longitude":"177.4565090","Name":"Kermode Road"},{"Latitude":"-17.7791423","Longitude":"177.4300927","Name":"Khalil Street"},{"Latitude":"-18.0870739","Longitude":"178.4648436","Name":"Khalsa Road"},{"Latitude":"-18.1351530","Longitude":"178.4600375","Name":"Khemindra Street"},{"Latitude":"-18.1418867","Longitude":"178.4467223","Name":"Kia Street"},{"Latitude":"-18.0714348","Longitude":"178.5031828","Name":"Kida Place"},{"Latitude":"-18.2432505","Longitude":"178.0767526","Name":"Kikau Place"},{"Latitude":"-18.1273432","Longitude":"178.4410699","Name":"Kikau Street"},{"Latitude":"-18.1432152","Longitude":"178.4238790","Name":"Kimberley Street"},{"Latitude":"-18.0294953","Longitude":"178.5328002","Name":"King's Highway"},{"Latitude":"-17.6222279","Longitude":"177.4357101","Name":"Kings Road"},{"Latitude":"-18.1389280","Longitude":"178.4376314","Name":"Kini Street"},{"Latitude":"-18.1101706","Longitude":"178.4785742","Name":"Kinoya Road"},{"Latitude":"-18.1111428","Longitude":"178.4718532","Name":"Kishore Bhindi Drive"},{"Latitude":"-17.6160424","Longitude":"177.4581956","Name":"Kiwi Place"},{"Latitude":"-18.1441733","Longitude":"178.4309200","Name":"Knolly Street"},{"Latitude":"-18.1213305","Longitude":"178.4416366","Name":"Komo Street"},{"Latitude":"-17.3086877","Longitude":"179.4362993","Name":"Koro Crossing 2"},{"Latitude":"-16.7962099","Longitude":"179.4221643","Name":"Koro Lane"},{"Latitude":"-18.2439417","Longitude":"178.0785915","Name":"Koro Place"},{"Latitude":"-18.0759328","Longitude":"178.5125276","Name":"Koroba Street"},{"Latitude":"-17.8082518","Longitude":"177.4223131","Name":"Korociri Road"},{"Latitude":"-18.1270365","Longitude":"178.4489505","Name":"Koroi Place"},{"Latitude":"-18.1003635","Longitude":"178.4590364","Name":"Koroi Street"},{"Latitude":"-16.7193160","Longitude":"178.7409278","Name":"Korokadi Road"},{"Latitude":"-17.7646403","Longitude":"177.4428490","Name":"Koronawaqa Road"},{"Latitude":"-17.7601689","Longitude":"177.4468024","Name":"Korowai Road"},{"Latitude":"-18.0973409","Longitude":"178.4347301","Name":"Krishna Street"},{"Latitude":"-17.6165162","Longitude":"177.4562278","Name":"Kuata Street"},{"Latitude":"-18.0981111","Longitude":"178.5000209","Name":"Kukusau Road"},{"Latitude":"-17.6252032","Longitude":"177.4572730","Name":"Kula Place"},{"Latitude":"-18.1280213","Longitude":"178.4474630","Name":"Kula Street"},{"Latitude":"-17.6194909","Longitude":"177.4705542","Name":"Kulu Street"},{"Latitude":"-18.1595465","Longitude":"178.4273232","Name":"Kumi Road  Turners Crescent"},{"Latitude":"-18.2352260","Longitude":"178.0826819","Name":"Kura Drive"},{"Latitude":"-18.1415759","Longitude":"178.4364822","Name":"Kurusiga Place"},{"Latitude":"-18.0206089","Longitude":"178.5542703","Name":"Labau Feeder Road"},{"Latitude":"-18.1110167","Longitude":"178.4053951","Name":"Labiko Street"},{"Latitude":"-18.1171299","Longitude":"178.4656116","Name":"Lady Maraia Road"},{"Latitude":"-18.1059985","Longitude":"178.4385884","Name":"Lady Narain Road"},{"Latitude":"-18.1256309","Longitude":"178.4465101","Name":"Lakeba Street"},{"Latitude":"-18.1270188","Longitude":"178.4570773","Name":"Lalita Bhindi Street"},{"Latitude":"-18.1102101","Longitude":"178.4146739","Name":"Lami Village Road"},{"Latitude":"-18.1389246","Longitude":"178.4460654","Name":"Lateef Road"},{"Latitude":"-18.1482501","Longitude":"178.4489065","Name":"Laucala Bay Road"},{"Latitude":"-18.2397413","Longitude":"178.0714596","Name":"Lavena Place"},{"Latitude":"-18.1198889","Longitude":"178.4568344","Name":"Lavena Road"},{"Latitude":"-18.1424733","Longitude":"177.5041358","Name":"Lawaoa Road"},{"Latitude":"-18.1463405","Longitude":"178.4336485","Name":"Le Hunt Street"},{"Latitude":"-17.7659054","Longitude":"177.4762378","Name":"Legalega Road"},{"Latitude":"-16.7948782","Longitude":"179.3072605","Name":"Leisiaceva Road"},{"Latitude":"-18.1380227","Longitude":"178.4390991","Name":"Leka Street"},{"Latitude":"-18.1313784","Longitude":"178.4400976","Name":"Lekutu Street"},{"Latitude":"-18.1347665","Longitude":"178.4578049","Name":"Lemaki Street"},{"Latitude":"-18.1288789","Longitude":"178.4319323","Name":"Leonidas Street"},{"Latitude":"-18.2336899","Longitude":"178.0803861","Name":"Lesi Place"},{"Latitude":"-18.1019882","Longitude":"178.4308046","Name":"Lester Street"},{"Latitude":"-18.1539196","Longitude":"178.4347715","Name":"Leveti Street"},{"Latitude":"-18.1399813","Longitude":"178.4468750","Name":"Leys Road"},{"Latitude":"-17.6218584","Longitude":"177.4482292","Name":"Lin On Place"},{"Latitude":"-17.6283234","Longitude":"177.4558063","Name":"Link Road"},{"Latitude":"-18.1110965","Longitude":"178.4403817","Name":"Loa Street"},{"Latitude":"-17.8009465","Longitude":"177.4175197","Name":"Lodhia Street"},{"Latitude":"-18.1447235","Longitude":"178.4244181","Name":"Loftus Street"},{"Latitude":"-18.1037306","Longitude":"178.4436731","Name":"Loloma Street"},{"Latitude":"-17.6043971","Longitude":"177.4494998","Name":"Loma Lane"},{"Latitude":"-17.6947927","Longitude":"177.4341590","Name":"Lomolomo Public School Road"},{"Latitude":"-17.7608072","Longitude":"177.4442979","Name":"London Avenue"},{"Latitude":"-18.1116540","Longitude":"178.4414259","Name":"Lovoni Road"},{"Latitude":"-18.1351122","Longitude":"178.4460385","Name":"Lucys Lane"},{"Latitude":"-18.1223859","Longitude":"178.4598309","Name":"Luke Street"},{"Latitude":"-17.6224793","Longitude":"177.4684846","Name":"Lum Street"},{"Latitude":"-16.6366928","Longitude":"178.9884016","Name":"Lutukina Cocoa Road"},{"Latitude":"-17.6257277","Longitude":"177.4437607","Name":"M. N. Naidu Road"},{"Latitude":"-17.6193788","Longitude":"177.4685042","Name":"M. T. Khan Road"},{"Latitude":"-18.1473845","Longitude":"178.4321551","Name":"Ma'afu Street"},{"Latitude":"-18.1419064","Longitude":"178.4240627","Name":"MacArthur Street"},{"Latitude":"-18.1408626","Longitude":"178.4471457","Name":"Madams Place"},{"Latitude":"-18.1147603","Longitude":"178.4547959","Name":"Maddocks Road"},{"Latitude":"-18.1079080","Longitude":"178.4645766","Name":"Madhavan Street"},{"Latitude":"-17.6271363","Longitude":"177.4538812","Name":"Madho Crescent"},{"Latitude":"-18.1145124","Longitude":"178.4394992","Name":"Maharaj Place"},{"Latitude":"-16.7787784","Longitude":"179.3381490","Name":"Main Street"},{"Latitude":"-17.6771515","Longitude":"177.3854034","Name":"Mainaloa Road"},{"Latitude":"-18.1576722","Longitude":"178.4387345","Name":"Makaluva Road"},{"Latitude":"-18.2336491","Longitude":"178.0793776","Name":"Makita Place"},{"Latitude":"-18.1509047","Longitude":"178.4372305","Name":"Makita Street"},{"Latitude":"-18.0910883","Longitude":"178.4887847","Name":"Makosoi Road"},{"Latitude":"-18.1330995","Longitude":"178.4365013","Name":"Mal Street"},{"Latitude":"-18.2371318","Longitude":"178.0801779","Name":"Mala Circle"},{"Latitude":"-18.0998728","Longitude":"178.4856731","Name":"Mala Place"},{"Latitude":"-17.6148459","Longitude":"177.4557249","Name":"Malamala Street"},{"Latitude":"-18.1357325","Longitude":"178.4563800","Name":"Malau Place"},{"Latitude":"-18.1436347","Longitude":"178.4262248","Name":"Malcolm Street"},{"Latitude":"-17.6306511","Longitude":"177.4551235","Name":"Mali Lane"},{"Latitude":"-18.1182352","Longitude":"178.4360220","Name":"Mali Place"},{"Latitude":"-18.1184149","Longitude":"178.4578687","Name":"Malima Street"},{"Latitude":"-18.2453346","Longitude":"178.0794685","Name":"Malolo Place"},{"Latitude":"-17.6088610","Longitude":"177.4521714","Name":"Malolo Street"},{"Latitude":"-18.1027187","Longitude":"178.4649414","Name":"Mamas Place"},{"Latitude":"-17.6064415","Longitude":"177.4556790","Name":"Mana Street"},{"Latitude":"-18.2371924","Longitude":"178.0696947","Name":"Manawi Place"},{"Latitude":"-18.0976790","Longitude":"178.4919850","Name":"Mandhir Street"},{"Latitude":"-18.1220202","Longitude":"178.4427855","Name":"Mandir Street"},{"Latitude":"-18.0694357","Longitude":"178.5227736","Name":"Manuka Street"},{"Latitude":"-18.0816233","Longitude":"178.5012012","Name":"Manulava Circle"},{"Latitude":"-18.0936303","Longitude":"178.4930551","Name":"Maqbool Road"},{"Latitude":"-18.2347401","Longitude":"178.0710987","Name":"Marasa Place"},{"Latitude":"-17.6237439","Longitude":"177.4556912","Name":"Marau Place"},{"Latitude":"-16.8081225","Longitude":"179.4454524","Name":"Maravu"},{"Latitude":"-17.6150798","Longitude":"177.4485163","Name":"Maravu Street"},{"Latitude":"-16.8082352","Longitude":"179.4427450","Name":"Maravu West"},{"Latitude":"-17.7974475","Longitude":"177.8487343","Name":"Mare Village Road"},{"Latitude":"-18.1443276","Longitude":"178.4443005","Name":"Mariko Street"},{"Latitude":"-17.6035946","Longitude":"177.4466697","Name":"Marine Drive"},{"Latitude":"-17.7727302","Longitude":"177.3764246","Name":"Mariners Reach"},{"Latitude":"-18.1456334","Longitude":"178.4309149","Name":"Marion Street"},{"Latitude":"-18.1377452","Longitude":"178.4270968","Name":"Mark Street"},{"Latitude":"-18.1398833","Longitude":"177.5073678","Name":"Market Road"},{"Latitude":"-17.6251213","Longitude":"177.4586229","Name":"Marlow Street"},{"Latitude":"-18.1552129","Longitude":"178.4376294","Name":"Marou Road"},{"Latitude":"-18.0943018","Longitude":"178.4587261","Name":"Marsha Place"},{"Latitude":"-17.7752819","Longitude":"177.4324349","Name":"Martintar Road"},{"Latitude":"-18.2281590","Longitude":"178.0717415","Name":"Mase Place"},{"Latitude":"-18.0732299","Longitude":"178.5177311","Name":"Matana Street"},{"Latitude":"-18.0802675","Longitude":"178.4984191","Name":"Matanikorovatu Road"},{"Latitude":"-18.0972939","Longitude":"178.4455005","Name":"Matanikutu Road"},{"Latitude":"-18.1379085","Longitude":"178.4382408","Name":"Matanitobua Street"},{"Latitude":"-18.0995740","Longitude":"178.4690276","Name":"Matau Road"},{"Latitude":"-17.8348499","Longitude":"177.3760447","Name":"Mate Rd, Nadi"},{"Latitude":"-18.2443331","Longitude":"178.0773090","Name":"Matu Place"},{"Latitude":"-18.0887082","Longitude":"178.5002361","Name":"Matu Street"},{"Latitude":"-18.1268774","Longitude":"178.4294695","Name":"Matua Street"},{"Latitude":"-18.1248073","Longitude":"178.4447958","Name":"Matuku Street"},{"Latitude":"-18.1200217","Longitude":"178.4347088","Name":"Mavoa Road"},{"Latitude":"-18.1154293","Longitude":"178.4565812","Name":"Mawaraka Place"},{"Latitude":"-18.1389065","Longitude":"178.4455277","Name":"McFarlane Road"},{"Latitude":"-18.1464051","Longitude":"178.4297263","Name":"McGregor Road"},{"Latitude":"-18.1205193","Longitude":"178.4373782","Name":"McOwen Street"},{"Latitude":"-18.1179606","Longitude":"178.4605509","Name":"Mead Road"},{"Latitude":"-17.6198561","Longitude":"177.4678401","Name":"Mehndi Place"},{"Latitude":"-18.0293280","Longitude":"178.5482963","Name":"Methodist Farm Road"},{"Latitude":"-18.1065696","Longitude":"178.4435100","Name":"Mika Dreu Place"},{"Latitude":"-17.6118324","Longitude":"177.4426208","Name":"Mill View Road"},{"Latitude":"-18.0266162","Longitude":"178.5426901","Name":"Millenium Road"},{"Latitude":"-18.1374940","Longitude":"178.4609559","Name":"Millet Street"},{"Latitude":"-18.1527185","Longitude":"178.4372019","Name":"Milne Road"},{"Latitude":"-18.1359782","Longitude":"178.4456951","Name":"Milverton Road"},{"Latitude":"-17.6182487","Longitude":"177.4501397","Name":"Mission Place"},{"Latitude":"-18.1387313","Longitude":"177.5072632","Name":"Mission Road"},{"Latitude":"-18.1238882","Longitude":"178.4432490","Name":"Moala Street"},{"Latitude":"-18.1515358","Longitude":"178.4451253","Name":"Moana Drive"},{"Latitude":"-18.1171505","Longitude":"178.4597398","Name":"Moce Street"},{"Latitude":"-18.2432053","Longitude":"178.0849757","Name":"Mokosoi Road"},{"Latitude":"-18.0947576","Longitude":"178.4963905","Name":"Mokosoi Street"},{"Latitude":"-18.1563592","Longitude":"178.4381158","Name":"Moli Place"},{"Latitude":"-17.6196485","Longitude":"177.4410490","Name":"Morris Street"},{"Latitude":"-17.6429855","Longitude":"177.4309377","Name":"Moti Chandra Crescent"},{"Latitude":"-18.1329985","Longitude":"178.4388645","Name":"Moti Street"},{"Latitude":"-17.7746686","Longitude":"177.4348231","Name":"Mount St Mary Crescent"},{"Latitude":"-18.0962986","Longitude":"178.4470197","Name":"Muaicolo Road"},{"Latitude":"-18.1546201","Longitude":"178.4418115","Name":"Muanikau Road"},{"Latitude":"-18.0819962","Longitude":"178.5002589","Name":"Muanikoso Road"},{"Latitude":"-16.4274346","Longitude":"179.3691766","Name":"Mudaliar Place"},{"Latitude":"-18.1235140","Longitude":"178.4609891","Name":"Mukta Ben Place"},{"Latitude":"-18.1250302","Longitude":"178.4425366","Name":"Munia Street"},{"Latitude":"-18.1403132","Longitude":"178.4244741","Name":"Murray Street"},{"Latitude":"-17.6302035","Longitude":"177.4395067","Name":"Mutlah Street"},{"Latitude":"-16.6003790","Longitude":"178.8502273","Name":"Nabouwalu Road"},{"Latitude":"-18.1198099","Longitude":"178.4574567","Name":"Nabua Road"},{"Latitude":"-17.7680925","Longitude":"177.8995541","Name":"Nabutautau Road"},{"Latitude":"-18.0959987","Longitude":"178.4582025","Name":"Nacagilevu Crescent"},{"Latitude":"-18.1420261","Longitude":"178.4556356","Name":"Nacara Street"},{"Latitude":"-16.7992177","Longitude":"179.3353584","Name":"Nacekoro Heights Road"},{"Latitude":"-18.0935956","Longitude":"178.4696410","Name":"Nacoqio Road"},{"Latitude":"-17.6070431","Longitude":"177.4586729","Name":"Nacula Street"},{"Latitude":"-18.1409802","Longitude":"178.4392740","Name":"Nacuva Street"},{"Latitude":"-18.0351000","Longitude":"178.5520296","Name":"Nadali By-pass"},{"Latitude":"-18.0987498","Longitude":"178.4968746","Name":"Nadawa Road"},{"Latitude":"-16.4252391","Longitude":"179.3685613","Name":"Nadawa Street"},{"Latitude":"-17.8079090","Longitude":"177.7897264","Name":"Nadevo Village Road"},{"Latitude":"-17.7624260","Longitude":"177.4581356","Name":"Nadi Back Road"},{"Latitude":"-18.1102996","Longitude":"178.4271877","Name":"Nadonumai Road"},{"Latitude":"-17.6108886","Longitude":"177.4420287","Name":"Nadovu Road"},{"Latitude":"-17.6296079","Longitude":"177.4601971","Name":"Nagaga Street"},{"Latitude":"-17.6136528","Longitude":"177.4722256","Name":"Naikabula Road"},{"Latitude":"-18.1408122","Longitude":"178.4443110","Name":"Nailuva Road"},{"Latitude":"-18.1099286","Longitude":"178.4029531","Name":"Naimawi Street"},{"Latitude":"-18.1383391","Longitude":"178.4473428","Name":"Nairai Road"},{"Latitude":"-17.7437536","Longitude":"177.4400623","Name":"Naisosovou"},{"Latitude":"-18.0656414","Longitude":"178.5182031","Name":"Nakasi Road"},{"Latitude":"-18.2273005","Longitude":"178.1021018","Name":"Nakaulevu Road"},{"Latitude":"-18.1019987","Longitude":"178.4241353","Name":"Nakauvadra Road"},{"Latitude":"-18.1300224","Longitude":"178.4603896","Name":"Nakelo Street"},{"Latitude":"-18.1090445","Longitude":"178.4049206","Name":"Nakula Street"},{"Latitude":"-17.7615818","Longitude":"177.4533027","Name":"Namaka Lane"},{"Latitude":"-18.0967004","Longitude":"178.4595857","Name":"Namako Place"},{"Latitude":"-18.1241476","Longitude":"178.4584229","Name":"Namara Road"},{"Latitude":"-18.1254418","Longitude":"178.4559283","Name":"Namena Road"},{"Latitude":"-17.6043998","Longitude":"177.4562417","Name":"Namoli Avenue"},{"Latitude":"-17.7786490","Longitude":"177.4583898","Name":"Namoli Road"},{"Latitude":"-17.5337935","Longitude":"177.6716817","Name":"Namosau Bridge"},{"Latitude":"-17.6124737","Longitude":"177.4500104","Name":"Namosau Street"},{"Latitude":"-16.6851334","Longitude":"178.7876177","Name":"Namuavoivoi Road"},{"Latitude":"-18.1227348","Longitude":"178.4440865","Name":"Namuka Street"},{"Latitude":"-17.7869445","Longitude":"177.7913350","Name":"Nanoko Road"},{"Latitude":"-17.7732060","Longitude":"177.8246158","Name":"Nanoko Village Road"},{"Latitude":"-18.2625651","Longitude":"178.0442353","Name":"Nanuku Lane"},{"Latitude":"-18.1318658","Longitude":"178.4602864","Name":"Nanuku Street"},{"Latitude":"-17.6087468","Longitude":"177.4532816","Name":"Nanuya Street"},{"Latitude":"-18.1296410","Longitude":"178.4403208","Name":"Naqasima Place"},{"Latitude":"-18.0920964","Longitude":"178.4694915","Name":"Naqumu Road"},{"Latitude":"-18.1157961","Longitude":"178.4376357","Name":"Narain Place"},{"Latitude":"-18.0976929","Longitude":"178.4385949","Name":"Naranji Street"},{"Latitude":"-17.6054726","Longitude":"177.4516501","Name":"Narara Parade"},{"Latitude":"-18.1391629","Longitude":"178.4422047","Name":"Nararo Road"},{"Latitude":"-17.5327598","Longitude":"178.2572621","Name":"Narau Road"},{"Latitude":"-18.0849519","Longitude":"178.5013108","Name":"Narere Road"},{"Latitude":"-17.7976983","Longitude":"177.4157023","Name":"Narewa Road"},{"Latitude":"-17.8044127","Longitude":"177.4145832","Name":"Narotam Lane"},{"Latitude":"-18.0974082","Longitude":"178.4452172","Name":"Nasagavoki Road"},{"Latitude":"-18.0539419","Longitude":"178.5645143","Name":"Nasali Road"},{"Latitude":"-18.0997150","Longitude":"177.5384196","Name":"Nasau Back Road"},{"Latitude":"-17.8779920","Longitude":"177.7000592","Name":"Nasaucoko Road"},{"Latitude":"-16.4351462","Longitude":"179.3610944","Name":"Nasekula Road"},{"Latitude":"-18.0183003","Longitude":"178.5560725","Name":"Nasesara Road"},{"Latitude":"-18.1119448","Longitude":"178.4060610","Name":"Nasevou Street"},{"Latitude":"-18.1588059","Longitude":"178.4376985","Name":"Nasilai Place"},{"Latitude":"-17.7710558","Longitude":"177.4370284","Name":"Nasilivata Road"},{"Latitude":"-18.0923937","Longitude":"178.4853729","Name":"Nasinu Road"},{"Latitude":"-17.6054308","Longitude":"177.4592268","Name":"Nasoki Street"},{"Latitude":"-18.0944647","Longitude":"178.4870744","Name":"Nasole Road"},{"Latitude":"-17.7477522","Longitude":"177.4554109","Name":"Nasoso Road"},{"Latitude":"-17.7744342","Longitude":"177.4880399","Name":"Nassau Road"},{"Latitude":"-17.6470047","Longitude":"177.4392885","Name":"Natabua Road"},{"Latitude":"-17.6308939","Longitude":"177.4244570","Name":"Natabua Seaside Road"},{"Latitude":"-17.6178681","Longitude":"177.4457427","Name":"Natokowaqa Street"},{"Latitude":"-18.0919027","Longitude":"178.4698885","Name":"Natuvukica Road"},{"Latitude":"-18.0302684","Longitude":"178.5456245","Name":"Nauluvatu Road"},{"Latitude":"-17.6043848","Longitude":"177.4594129","Name":"Nava Street"},{"Latitude":"-17.8080664","Longitude":"177.7844158","Name":"Navaga Village Road"},{"Latitude":"-16.7879249","Longitude":"179.3256766","Name":"Navakase Road"},{"Latitude":"-18.0907926","Longitude":"178.4769937","Name":"Naveiwakau Road"},{"Latitude":"-16.7832009","Longitude":"179.3245203","Name":"Naveria Road"},{"Latitude":"-16.5169815","Longitude":"179.1082833","Name":"Naviadamu Road"},{"Latitude":"-16.4760673","Longitude":"178.9358700","Name":"Navidamu to Raviravi Road"},{"Latitude":"-17.6049507","Longitude":"177.4551300","Name":"Naviti Street"},{"Latitude":"-17.6564224","Longitude":"177.4430532","Name":"Navua Road"},{"Latitude":"-17.4694157","Longitude":"178.2669220","Name":"Navuniivi Road"},{"Latitude":"-18.0952298","Longitude":"178.4467021","Name":"Navurevure Road"},{"Latitude":"-17.6247436","Longitude":"177.4349179","Name":"Navutu Heights"},{"Latitude":"-17.6212971","Longitude":"177.4350924","Name":"Navutu Road"},{"Latitude":"-18.0986094","Longitude":"178.4591394","Name":"Nawai Place"},{"Latitude":"-17.8158914","Longitude":"177.4414688","Name":"Nawaka Road"},{"Latitude":"-17.8042035","Longitude":"177.4373745","Name":"Nawaka Village"},{"Latitude":"-17.8066504","Longitude":"177.4290032","Name":"Nawakalevu Settlement Road"},{"Latitude":"-18.0936058","Longitude":"178.4680324","Name":"Nawame Road"},{"Latitude":"-18.0985050","Longitude":"178.4866313","Name":"Nawanawa Road"},{"Latitude":"-18.1192595","Longitude":"178.4423306","Name":"Nayau Street"},{"Latitude":"-18.0895586","Longitude":"178.4779700","Name":"Nayavumata Road"},{"Latitude":"-18.1452868","Longitude":"177.5107752","Name":"Nayawa Street"},{"Latitude":"-17.6277419","Longitude":"177.4583299","Name":"Nazir Place"},{"Latitude":"-17.6035852","Longitude":"177.4510655","Name":"Nede Street"},{"Latitude":"-18.0906102","Longitude":"178.4995041","Name":"Nepani Road"},{"Latitude":"-18.1543365","Longitude":"178.4405771","Name":"New Boult Street"},{"Latitude":"-17.6164762","Longitude":"177.4419068","Name":"New Nadovu Road"},{"Latitude":"-18.1557918","Longitude":"178.4415775","Name":"Nicoll Place"},{"Latitude":"-18.1368471","Longitude":"178.4261264","Name":"Nina Street"},{"Latitude":"-18.1116357","Longitude":"178.4450807","Name":"Niranjan Place"},{"Latitude":"-18.1164234","Longitude":"178.4723484","Name":"Niu Street"},{"Latitude":"-18.0888217","Longitude":"178.4619890","Name":"Niubalavu Crescent"},{"Latitude":"-18.2372300","Longitude":"178.0759429","Name":"Nokinoko Circle Road"},{"Latitude":"-18.1013343","Longitude":"178.4595686","Name":"Noko Place"},{"Latitude":"-18.1190719","Longitude":"178.4654908","Name":"Nokonoko Road"},{"Latitude":"-16.6969905","Longitude":"-179.8669063","Name":"North Coastal Road"},{"Latitude":"-17.6077333","Longitude":"177.4499016","Name":"Northern Club Road"},{"Latitude":"-17.7808464","Longitude":"177.4321452","Name":"Northern Press Road"},{"Latitude":"-16.8065687","Longitude":"179.3280017","Name":"Nukubalavu Road"},{"Latitude":"-18.1588059","Longitude":"178.4376985","Name":"Nukulau Road"},{"Latitude":"-18.0970641","Longitude":"178.5607993","Name":"Nukutubu Road"},{"Latitude":"-18.1126420","Longitude":"178.4083662","Name":"Nukuwatu Street"},{"Latitude":"-17.6042030","Longitude":"177.4449154","Name":"Nuqa Place"},{"Latitude":"-18.1535686","Longitude":"178.4327438","Name":"O'Brien Road"},{"Latitude":"-18.2344917","Longitude":"178.0763599","Name":"Ogo Circle"},{"Latitude":"-18.0919552","Longitude":"178.4768864","Name":"Ogo Place"},{"Latitude":"-17.7861370","Longitude":"178.4580630","Name":"Old Kings Highway"},{"Latitude":"-18.1368117","Longitude":"178.4471286","Name":"Olga Place"},{"Latitude":"-18.0765345","Longitude":"178.5071739","Name":"Omkar Road"},{"Latitude":"-18.1171505","Longitude":"178.4597398","Name":"Oneata Street"},{"Latitude":"-16.8003809","Longitude":"179.3865011","Name":"Oneva 2nd Stage"},{"Latitude":"-16.8008025","Longitude":"179.3884510","Name":"Oneva Road"},{"Latitude":"-18.0790232","Longitude":"178.5113581","Name":"Oni Place"},{"Latitude":"-18.1232846","Longitude":"178.4411719","Name":"Ono Street"},{"Latitude":"-18.2357075","Longitude":"178.0823924","Name":"Orchid Place"},{"Latitude":"-17.6325145","Longitude":"177.4440904","Name":"Oriana Place"},{"Latitude":"-18.0787083","Longitude":"178.5050791","Name":"Ormi Place"},{"Latitude":"-17.7593353","Longitude":"177.4474664","Name":"Otawa Road"},{"Latitude":"-18.1106858","Longitude":"178.4730515","Name":"PT Mahanbu Maharaj Street"},{"Latitude":"-18.1089844","Longitude":"178.4497757","Name":"Padam Lala Road"},{"Latitude":"-17.6704063","Longitude":"177.4099317","Name":"Padarath Road"},{"Latitude":"-18.0722916","Longitude":"178.5213574","Name":"Pagoda Street"},{"Latitude":"-18.0708331","Longitude":"178.5210355","Name":"Painapiu Street"},{"Latitude":"-18.1016670","Longitude":"178.4294796","Name":"Palm Drive"},{"Latitude":"-17.7680542","Longitude":"177.4300768","Name":"Palm Road"},{"Latitude":"-18.1119131","Longitude":"178.4473650","Name":"Panapasa Road"},{"Latitude":"-17.6295608","Longitude":"177.4571588","Name":"Panikar Nair Street"},{"Latitude":"-17.7745550","Longitude":"177.3814976","Name":"Paradise Point"},{"Latitude":"-18.0296597","Longitude":"178.5521004","Name":"Pareti Feeder Road"},{"Latitude":"-18.1236865","Longitude":"178.4547870","Name":"Park Road"},{"Latitude":"-16.4283408","Longitude":"179.3740947","Name":"Park Street"},{"Latitude":"-18.0962412","Longitude":"178.4381077","Name":"Pasvali Street"},{"Latitude":"-18.1077770","Longitude":"178.4437761","Name":"Pathik Crescent"},{"Latitude":"-18.1179930","Longitude":"178.4515610","Name":"Paul Sloan Street"},{"Latitude":"-18.1464051","Longitude":"178.4297263","Name":"Pender Street"},{"Latitude":"-18.1037632","Longitude":"178.4443597","Name":"Petrie Road"},{"Latitude":"-17.6156882","Longitude":"177.4576532","Name":"Pflugers Avenue"},{"Latitude":"-17.6244640","Longitude":"177.4597074","Name":"Pickering Place"},{"Latitude":"-18.1192552","Longitude":"178.4587098","Name":"Pikeu Street"},{"Latitude":"-18.0885081","Longitude":"178.4941169","Name":"Pilling Road"},{"Latitude":"-17.6323673","Longitude":"177.4429176","Name":"Pompey Place"},{"Latitude":"-17.6200392","Longitude":"177.4593154","Name":"Poona Place"},{"Latitude":"-17.7680217","Longitude":"177.4349090","Name":"Prabhat Street"},{"Latitude":"-18.0172692","Longitude":"178.5587827","Name":"Prakash Feeder Road"},{"Latitude":"-18.1403534","Longitude":"178.4252284","Name":"Pratt Street"},{"Latitude":"-18.1057375","Longitude":"178.4413865","Name":"Princes Road"},{"Latitude":"-18.0722610","Longitude":"178.4923466","Name":"Pritam Singh Road"},{"Latitude":"-17.6172783","Longitude":"177.4528201","Name":"Qalito Place"},{"Latitude":"-17.6162569","Longitude":"177.5051679","Name":"Qalito Road"},{"Latitude":"-18.1024006","Longitude":"178.4897185","Name":"Qarase Street"},{"Latitude":"-18.1079323","Longitude":"178.4011015","Name":"Qauaia Street"},{"Latitude":"-17.7647684","Longitude":"177.4403407","Name":"Qeledamu Road"},{"Latitude":"-18.1106309","Longitude":"178.3992952","Name":"Qeleya Road"},{"Latitude":"-17.6344853","Longitude":"177.4543823","Name":"Qereqeretabua Road"},{"Latitude":"-16.7453214","Longitude":"-179.9333632","Name":"Qila Road"},{"Latitude":"-18.1543722","Longitude":"178.4233143","Name":"Queen Elizabeth Drive"},{"Latitude":"-18.1152554","Longitude":"178.4311868","Name":"Queens Road"},{"Latitude":"-17.7768510","Longitude":"177.4305118","Name":"RD"},{"Latitude":"-18.0950442","Longitude":"178.4584428","Name":"Racule Drive"},{"Latitude":"-18.1063921","Longitude":"178.4510647","Name":"Ragg Avenue"},{"Latitude":"-17.6199974","Longitude":"177.4564831","Name":"Ragg Street"},{"Latitude":"-18.1135193","Longitude":"178.4032170","Name":"Raghunath Singh Drive"},{"Latitude":"-17.6454964","Longitude":"177.4339689","Name":"Rai Place"},{"Latitude":"-18.0827443","Longitude":"178.4581404","Name":"Raibevu Road"},{"Latitude":"-18.0844271","Longitude":"178.4589021","Name":"Raisaluwaki Road"},{"Latitude":"-18.1371499","Longitude":"178.4430216","Name":"Raisara Road"},{"Latitude":"-18.1239297","Longitude":"178.4529797","Name":"Raiwasa Road"},{"Latitude":"-18.1451632","Longitude":"177.4974413","Name":"Rakirakilevu Road"},{"Latitude":"-18.1381369","Longitude":"178.4444509","Name":"Rakoroi Road"},{"Latitude":"-18.1421579","Longitude":"178.4435891","Name":"Rakua Street"},{"Latitude":"-17.6261212","Longitude":"177.4587873","Name":"Ram Asre Street"},{"Latitude":"-18.0249637","Longitude":"178.5473976","Name":"Ram Autar Feeder Road"},{"Latitude":"-17.6314582","Longitude":"177.4520921","Name":"Ram Sami Reddy Road"},{"Latitude":"-17.6135824","Longitude":"177.4593269","Name":"Raman Nair Street"},{"Latitude":"-18.0928935","Longitude":"178.4878834","Name":"Rambo Road"},{"Latitude":"-18.1389882","Longitude":"178.4281715","Name":"Raojibhai Patel Street"},{"Latitude":"-16.4281199","Longitude":"179.3747318","Name":"Rara Avenue"},{"Latitude":"-17.6299575","Longitude":"177.4553570","Name":"Ratu Cakobau Crescent"},{"Latitude":"-18.1485085","Longitude":"178.4265443","Name":"Ratu Cakobau Road"},{"Latitude":"-18.1122562","Longitude":"178.4693027","Name":"Ratu Dovi Road"},{"Latitude":"-17.6323085","Longitude":"177.4549471","Name":"Ratu Inia Qoro Road"},{"Latitude":"-18.1260744","Longitude":"178.4449781","Name":"Ratu Mara Road"},{"Latitude":"-17.6254781","Longitude":"177.4387988","Name":"Ratu Sir Kamisese Mara Road"},{"Latitude":"-17.6300105","Longitude":"177.4573511","Name":"Ratu Sukuna Crescent"},{"Latitude":"-18.1464307","Longitude":"178.4401858","Name":"Ratu Sukuna Road"},{"Latitude":"-17.6058355","Longitude":"177.4615188","Name":"Rava Street"},{"Latitude":"-19.0982130","Longitude":"178.1606505","Name":"Ravitaki Road"},{"Latitude":"-17.6043848","Longitude":"177.4594129","Name":"Ravouvou Street"},{"Latitude":"-17.7926263","Longitude":"177.4223022","Name":"Ray Prasad Road"},{"Latitude":"-17.6273385","Longitude":"177.4530413","Name":"Razak Road"},{"Latitude":"-18.1061642","Longitude":"178.4856422","Name":"Reba Circle"},{"Latitude":"-16.4304419","Longitude":"179.3766340","Name":"Reddy Place"},{"Latitude":"-18.1389466","Longitude":"178.4233976","Name":"Regal Lane"},{"Latitude":"-18.1438481","Longitude":"178.4463087","Name":"Reki Street"},{"Latitude":"-18.1334799","Longitude":"178.4252801","Name":"Renown Street"},{"Latitude":"-18.1389434","Longitude":"178.4248504","Name":"Renwick Road"},{"Latitude":"-18.1196536","Longitude":"178.4317938","Name":"Reservoir Road"},{"Latitude":"-18.1099389","Longitude":"178.4544105","Name":"Rev Mustapha Street"},{"Latitude":"-18.1438633","Longitude":"178.4365465","Name":"Rewa Street"},{"Latitude":"-17.6342963","Longitude":"177.4557564","Name":"Rhine Lane"},{"Latitude":"-18.1536238","Longitude":"178.4331936","Name":"Richards Road"},{"Latitude":"-17.8016901","Longitude":"177.4185779","Name":"Richmond Crescent"},{"Latitude":"-18.1088557","Longitude":"178.4497718","Name":"Riemenschneider Place"},{"Latitude":"-18.1273452","Longitude":"178.4635757","Name":"Rifle Range Road"},{"Latitude":"-17.6240977","Longitude":"177.4414217","Name":"Rifle Range Street"},{"Latitude":"-17.6264203","Longitude":"177.4641668","Name":"Riley Place"},{"Latitude":"-18.1442144","Longitude":"178.4308996","Name":"Riley Street"},{"Latitude":"-18.1392122","Longitude":"178.4390973","Name":"Ritova Street"},{"Latitude":"-18.2523838","Longitude":"178.0672626","Name":"River Drive"},{"Latitude":"-17.7777218","Longitude":"177.3816007","Name":"Riverside Gardens"},{"Latitude":"-18.0968942","Longitude":"178.4434319","Name":"Ro Kalokalosere Road"},{"Latitude":"-18.0956786","Longitude":"178.4481698","Name":"Ro Katarotaro Road"},{"Latitude":"-18.0956949","Longitude":"178.4451228","Name":"Ro Kuboulevu Road"},{"Latitude":"-18.1350482","Longitude":"178.4279853","Name":"Robertson Road"},{"Latitude":"-18.1323906","Longitude":"178.4270172","Name":"Rodwell Road"},{"Latitude":"-18.0999767","Longitude":"178.4222269","Name":"Rogavoka Street"},{"Latitude":"-18.0988620","Longitude":"178.4870685","Name":"Rogi Place"},{"Latitude":"-17.6166512","Longitude":"177.4635041","Name":"Rogovoka Street"},{"Latitude":"-18.0940119","Longitude":"178.4580510","Name":"Rokosawa Road"},{"Latitude":"-18.1286504","Longitude":"178.4282305","Name":"Rona Street"},{"Latitude":"-18.0767116","Longitude":"178.4969579","Name":"Ronshanee Place"},{"Latitude":"-16.4287194","Longitude":"179.3749871","Name":"Rosawa Street"},{"Latitude":"-18.1332443","Longitude":"178.4411547","Name":"Rose Place"},{"Latitude":"-18.0908436","Longitude":"178.4902974","Name":"Rosi Street"},{"Latitude":"-17.7704243","Longitude":"177.4351003","Name":"Rovate Road"},{"Latitude":"-17.6248533","Longitude":"177.4318439","Name":"Royal Palm Road"},{"Latitude":"-16.8088996","Longitude":"179.4446521","Name":"Ruelas Road"},{"Latitude":"-17.6290268","Longitude":"177.4612253","Name":"Ruve Place"},{"Latitude":"-18.1276996","Longitude":"178.4443548","Name":"Ruve Street"},{"Latitude":"-18.1352183","Longitude":"178.4573596","Name":"Ryland Place"},{"Latitude":"-17.6327504","Longitude":"177.4496963","Name":"S. M. Koya Road"},{"Latitude":"-18.1232780","Longitude":"178.4547730","Name":"SM Bidesi Place"},{"Latitude":"-17.7262530","Longitude":"177.4772579","Name":"Sabeto Road"},{"Latitude":"-18.0975235","Longitude":"178.4864596","Name":"Sagali Plc"},{"Latitude":"-17.7657756","Longitude":"177.4462741","Name":"Sahib Street"},{"Latitude":"-18.0825058","Longitude":"178.4628097","Name":"Sakoca Road"},{"Latitude":"-17.6206215","Longitude":"177.4637384","Name":"Sakoor Place"},{"Latitude":"-18.2346213","Longitude":"178.0740321","Name":"Saku Place"},{"Latitude":"-18.1117989","Longitude":"178.4540157","Name":"Salala Place"},{"Latitude":"-18.2309034","Longitude":"178.0723578","Name":"Salato Place"},{"Latitude":"-18.1111136","Longitude":"178.4497671","Name":"Salato Road"},{"Latitude":"-18.1122802","Longitude":"178.4451494","Name":"Salesi Road"},{"Latitude":"-16.7733723","Longitude":"179.5138631","Name":"Salt Lake Road"},{"Latitude":"-17.6303845","Longitude":"177.4557548","Name":"Salusalu Street"},{"Latitude":"-18.1185340","Longitude":"178.4504979","Name":"Sam Lal Street"},{"Latitude":"-17.6147007","Longitude":"177.4615308","Name":"Samat Street"},{"Latitude":"-17.6230891","Longitude":"177.4631170","Name":"Sandalwood Street"},{"Latitude":"-16.4311532","Longitude":"179.3738123","Name":"Sangam Avenue"},{"Latitude":"-17.6033813","Longitude":"177.4503905","Name":"Saqa Street"},{"Latitude":"-18.2341442","Longitude":"178.0756200","Name":"Sara Place"},{"Latitude":"-17.6322695","Longitude":"177.4529702","Name":"Sarju Delegate Road"},{"Latitude":"-18.1064640","Longitude":"178.4657023","Name":"Sarju Prasad Road"},{"Latitude":"-16.4296019","Longitude":"179.3728091","Name":"Sarosaro Lane"},{"Latitude":"-18.1376816","Longitude":"178.4559176","Name":"Sarosaro Place"},{"Latitude":"-18.1068703","Longitude":"178.4751793","Name":"Sarosaro Street"},{"Latitude":"-17.6487327","Longitude":"177.4492487","Name":"Saru Back Road"},{"Latitude":"-17.6256644","Longitude":"177.4561988","Name":"Satya Place"},{"Latitude":"-17.7907211","Longitude":"177.4288934","Name":"Saunaka Village Road"},{"Latitude":"-17.6033205","Longitude":"177.4595463","Name":"Sautamata Street"},{"Latitude":"-17.6215503","Longitude":"177.4392728","Name":"Sava Pl"},{"Latitude":"-18.1085132","Longitude":"178.4768225","Name":"Savai Place"},{"Latitude":"-17.6215633","Longitude":"177.4526481","Name":"Savala Place"},{"Latitude":"-17.9555766","Longitude":"178.4051264","Name":"Savu Road"},{"Latitude":"-16.7743865","Longitude":"179.3481495","Name":"Savusavu to Labasa Highway"},{"Latitude":"-18.1321370","Longitude":"178.4347332","Name":"Sawani Street"},{"Latitude":"-18.1190516","Longitude":"178.4501735","Name":"Sawau Street"},{"Latitude":"-17.6527124","Longitude":"177.3893859","Name":"Saweni Beach Road"},{"Latitude":"-18.1367492","Longitude":"178.4253163","Name":"Scott Street"},{"Latitude":"-16.6981247","Longitude":"179.2887731","Name":"Sekawa Road"},{"Latitude":"-18.1172507","Longitude":"178.4725550","Name":"Sekoula Road"},{"Latitude":"-18.1425008","Longitude":"178.4268393","Name":"Selbourne Street"},{"Latitude":"-17.6131118","Longitude":"177.4490663","Name":"Senikau Lane"},{"Latitude":"-17.7686925","Longitude":"177.4440631","Name":"Senikau Road"},{"Latitude":"-18.0968227","Longitude":"178.4595857","Name":"Seru Crescent"},{"Latitude":"-18.1442611","Longitude":"178.4347372","Name":"Serua Street"},{"Latitude":"-18.1495214","Longitude":"178.4368843","Name":"Service Street"},{"Latitude":"-18.1278741","Longitude":"178.4418203","Name":"Sese Street"},{"Latitude":"-18.2487083","Longitude":"178.0670709","Name":"Sevua Circle"},{"Latitude":"-18.1068144","Longitude":"178.4498615","Name":"Sevuka Place"},{"Latitude":"-18.1526388","Longitude":"178.4324863","Name":"Seymour Drive"},{"Latitude":"-18.1246785","Longitude":"178.4523277","Name":"Shalimar Street"},{"Latitude":"-18.1226381","Longitude":"178.4615921","Name":"Shanta Ben Place"},{"Latitude":"-17.6100569","Longitude":"177.4579508","Name":"Sharps Street"},{"Latitude":"-17.6214380","Longitude":"177.4439040","Name":"Shiu Raj Street"},{"Latitude":"-18.1452832","Longitude":"178.4336980","Name":"Short Street"},{"Latitude":"-18.1527379","Longitude":"178.4422203","Name":"Shortcut Road"},{"Latitude":"-18.1104508","Longitude":"178.4507139","Name":"Shri Raman Place"},{"Latitude":"-16.4376905","Longitude":"179.3789042","Name":"Siberia Road"},{"Latitude":"-18.1159677","Longitude":"178.4686423","Name":"Siga Road"},{"Latitude":"-17.8976157","Longitude":"177.7413547","Name":"Sigatoka Valley Road"},{"Latitude":"-18.1133728","Longitude":"178.4719396","Name":"Sikeci Place"},{"Latitude":"-16.4290316","Longitude":"179.3726156","Name":"Silas Ramjan Street"},{"Latitude":"-17.6208445","Longitude":"177.4438796","Name":"Simplex Lane"},{"Latitude":"-18.1410517","Longitude":"177.5084471","Name":"Singatoka Valley Road"},{"Latitude":"-17.6323631","Longitude":"177.4537289","Name":"Sirdar Narsimlu Place"},{"Latitude":"-18.0737603","Longitude":"178.5124417","Name":"Siriti Court"},{"Latitude":"-17.7671452","Longitude":"177.4419157","Name":"Skylodge Road"},{"Latitude":"-18.1111550","Longitude":"178.4045595","Name":"Solomoni Street"},{"Latitude":"-18.1291236","Longitude":"178.4274176","Name":"Sonoma Street"},{"Latitude":"-18.1069424","Longitude":"178.4830086","Name":"Soqe Place"},{"Latitude":"-18.0939651","Longitude":"178.4688001","Name":"Soronacagi Road"},{"Latitude":"-18.1146951","Longitude":"178.4601861","Name":"Sotutu Place"},{"Latitude":"-17.7780462","Longitude":"177.3785752","Name":"Sovereign Quays"},{"Latitude":"-18.1199428","Longitude":"178.4446633","Name":"Sovu Place"},{"Latitude":"-18.1397518","Longitude":"178.4292543","Name":"Spring Street"},{"Latitude":"-16.4309422","Longitude":"179.3726160","Name":"St. Marys Lane"},{"Latitude":"-18.1450308","Longitude":"178.4552433","Name":"Statham Street"},{"Latitude":"-18.1371416","Longitude":"178.4267020","Name":"Stewart Street"},{"Latitude":"-18.1404956","Longitude":"178.4230216","Name":"Stinson Parade"},{"Latitude":"-18.1542904","Longitude":"178.4401252","Name":"Stodart Road"},{"Latitude":"-18.1586969","Longitude":"178.4273286","Name":"Storck Street"},{"Latitude":"-18.1358239","Longitude":"178.4265828","Name":"Struan Street"},{"Latitude":"-17.6170831","Longitude":"177.4524183","Name":"Sugar Avenue"},{"Latitude":"-18.1147114","Longitude":"178.4589415","Name":"Sukanaivalu Road"},{"Latitude":"-17.8009465","Longitude":"177.4175197","Name":"Sukuna Road"},{"Latitude":"-18.1000698","Longitude":"178.4576975","Name":"Suli Place"},{"Latitude":"-17.6227892","Longitude":"177.4610226","Name":"Sulua Street"},{"Latitude":"-18.1020041","Longitude":"178.4676418","Name":"Sunland Street"},{"Latitude":"-18.1397518","Longitude":"178.4292543","Name":"Suva Street"},{"Latitude":"-18.1293174","Longitude":"178.4293811","Name":"Syria Road"},{"Latitude":"-17.6424395","Longitude":"177.4310204","Name":"Tabua Place"},{"Latitude":"-18.0987320","Longitude":"178.4576688","Name":"Tabua Street"},{"Latitude":"-18.0873939","Longitude":"178.4587517","Name":"Tacirua Heights Road"},{"Latitude":"-17.6130815","Longitude":"177.4486523","Name":"Tagimoucia Street"},{"Latitude":"-17.6216567","Longitude":"177.4607689","Name":"Taj Place"},{"Latitude":"-18.1285235","Longitude":"178.4409388","Name":"Talasiga Street"},{"Latitude":"-18.1418327","Longitude":"178.4436617","Name":"Tamasua Road"},{"Latitude":"-18.1142879","Longitude":"178.4338508","Name":"Tamavua Road"},{"Latitude":"-18.1466679","Longitude":"178.4386737","Name":"Tanoa Street"},{"Latitude":"-18.1296338","Longitude":"178.4556023","Name":"Taramati Street"},{"Latitude":"-18.2313254","Longitude":"178.0738068","Name":"Tasman Place"},{"Latitude":"-17.6275306","Longitude":"177.4689192","Name":"Tavakubu Back Road"},{"Latitude":"-17.6320223","Longitude":"177.4598035","Name":"Tavakubu Road"},{"Latitude":"-17.6093798","Longitude":"177.4511873","Name":"Tavewa Avenue"},{"Latitude":"-18.1081670","Longitude":"178.4709487","Name":"Tavola Street"},{"Latitude":"-18.2321595","Longitude":"178.0745386","Name":"Tavuto Place"},{"Latitude":"-18.1337194","Longitude":"178.4387158","Name":"Tawake Street"},{"Latitude":"-17.6475945","Longitude":"177.4565471","Name":"Tawatawa Road"},{"Latitude":"-18.1153465","Longitude":"178.4606897","Name":"Taylor Lane"},{"Latitude":"-18.1458293","Longitude":"178.4467376","Name":"Telau Street"},{"Latitude":"-18.0289845","Longitude":"178.5631526","Name":"Temple Feeder Road"},{"Latitude":"-17.7696787","Longitude":"177.3761988","Name":"The Cove"},{"Latitude":"-17.7757239","Longitude":"177.3783690","Name":"The Links"},{"Latitude":"-18.1013023","Longitude":"178.4585652","Name":"The Plains"},{"Latitude":"-17.6186668","Longitude":"177.4524296","Name":"Thomson Crescent"},{"Latitude":"-18.1374739","Longitude":"178.4259153","Name":"Thomson Street"},{"Latitude":"-18.1445648","Longitude":"178.4248432","Name":"Thurston Street"},{"Latitude":"-18.1117907","Longitude":"178.4497327","Name":"Tikaram Place"},{"Latitude":"-17.7755982","Longitude":"177.4371400","Name":"Tilak Place"},{"Latitude":"-18.1078228","Longitude":"178.4725098","Name":"Tivi Road"},{"Latitude":"-18.2306373","Longitude":"178.0716107","Name":"Tivitivi Place"},{"Latitude":"-17.6213550","Longitude":"177.4522701","Name":"Tivoa Place"},{"Latitude":"-18.1403654","Longitude":"178.4578733","Name":"Toa Street"},{"Latitude":"-18.1253850","Longitude":"178.4289113","Name":"Tofua Street"},{"Latitude":"-18.1322756","Longitude":"178.4379089","Name":"Toganivalu Road"},{"Latitude":"-18.1567818","Longitude":"178.4278210","Name":"Tokelau Street"},{"Latitude":"-17.7611244","Longitude":"177.4456108","Name":"Tokitaki Street"},{"Latitude":"-17.6166956","Longitude":"177.4578627","Name":"Tokoriki Place"},{"Latitude":"-18.1008072","Longitude":"178.4874359","Name":"Tomanu Street"},{"Latitude":"-18.1387323","Longitude":"178.4315374","Name":"Toorak Road"},{"Latitude":"-17.6182102","Longitude":"177.4443848","Name":"Topline Place"},{"Latitude":"-18.1156489","Longitude":"178.4615525","Name":"Torokina Place"},{"Latitude":"-18.1248073","Longitude":"178.4447958","Name":"Totoya Street"},{"Latitude":"-18.0826948","Longitude":"178.4913918","Name":"Tovata Road"},{"Latitude":"-18.1416146","Longitude":"178.4268187","Name":"Tower Street"},{"Latitude":"-17.7627991","Longitude":"177.4551340","Name":"Transville Road"},{"Latitude":"-17.6271089","Longitude":"177.4421162","Name":"Trig Place"},{"Latitude":"-17.6198298","Longitude":"177.4546336","Name":"Tualesia Street"},{"Latitude":"-18.1171421","Longitude":"178.4414783","Name":"Tubou Street"},{"Latitude":"-17.6043971","Longitude":"177.4494998","Name":"Tui Street"},{"Latitude":"-18.1097431","Longitude":"178.4448661","Name":"Tuisowaqa Road"},{"Latitude":"-17.6032283","Longitude":"177.4536372","Name":"Tukani Street"},{"Latitude":"-18.1404793","Longitude":"178.4453518","Name":"Tulele Place"},{"Latitude":"-18.1596362","Longitude":"178.4276751","Name":"Turners Place"},{"Latitude":"-18.1166526","Longitude":"178.4423134","Name":"Tuvana Place"},{"Latitude":"-17.7691574","Longitude":"177.4427015","Name":"UCI Road"},{"Latitude":"-18.1336522","Longitude":"178.4463217","Name":"Udal Street"},{"Latitude":"-18.1305039","Longitude":"178.4493397","Name":"Udit Narayan Road"},{"Latitude":"-18.0888839","Longitude":"178.5023703","Name":"Ulavi Street"},{"Latitude":"-18.1266698","Longitude":"178.4370348","Name":"Uluvatu Road"},{"Latitude":"-18.0935257","Longitude":"178.4797295","Name":"Ura Place"},{"Latitude":"-18.1369763","Longitude":"178.4253317","Name":"Usher Street"},{"Latitude":"-17.6265110","Longitude":"177.4485051","Name":"V. M. Pillay Road"},{"Latitude":"-16.7877558","Longitude":"179.3225790","Name":"Vai Vai Loop"},{"Latitude":"-18.1428937","Longitude":"178.4392193","Name":"Vaivai Place"},{"Latitude":"-17.6544605","Longitude":"177.4633491","Name":"Vaivai Road"},{"Latitude":"-17.6046309","Longitude":"177.4535584","Name":"Vakabale Street"},{"Latitude":"-17.5941981","Longitude":"177.5383007","Name":"Vakabuli Road"},{"Latitude":"-18.0934015","Longitude":"178.4701226","Name":"Valetabu Road"},{"Latitude":"-17.6064415","Longitude":"177.4556790","Name":"Valetia Street"},{"Latitude":"-18.0751168","Longitude":"178.5149952","Name":"Valili Street"},{"Latitude":"-17.6137265","Longitude":"177.4577316","Name":"Valima Hill Road"},{"Latitude":"-18.0934043","Longitude":"178.4575073","Name":"Valley Drive"},{"Latitude":"-18.0792883","Longitude":"178.5116907","Name":"Vama Street"},{"Latitude":"-18.2357171","Longitude":"178.0689976","Name":"Vanua Levu Drive"},{"Latitude":"-18.1450558","Longitude":"178.4454445","Name":"Varani Street"},{"Latitude":"-18.1124907","Longitude":"178.4727726","Name":"Vashantilal Road"},{"Latitude":"-18.0767079","Longitude":"178.5039552","Name":"Vatoa Road"},{"Latitude":"-18.1236680","Longitude":"178.4427168","Name":"Vatoa Street"},{"Latitude":"-18.0837606","Longitude":"178.4998365","Name":"Vatudina Road"},{"Latitude":"-18.0801553","Longitude":"178.4987303","Name":"Vatusue Street"},{"Latitude":"-18.1120713","Longitude":"178.4006170","Name":"Vatuvia Street"},{"Latitude":"-17.7689933","Longitude":"177.4412039","Name":"Vau Road"},{"Latitude":"-18.1083424","Longitude":"178.4507075","Name":"Vaugham Road"},{"Latitude":"-17.6129949","Longitude":"177.4411161","Name":"Veitari Road"},{"Latitude":"-18.1579782","Longitude":"178.4376346","Name":"Veiuto Road"},{"Latitude":"-18.1485315","Longitude":"178.4384131","Name":"Verata Street"},{"Latitude":"-18.1138379","Longitude":"178.4690154","Name":"Vere Road"},{"Latitude":"-17.6077791","Longitude":"177.4523045","Name":"Verona Street"},{"Latitude":"-18.1047134","Longitude":"178.4461776","Name":"Verrier Road"},{"Latitude":"-17.6145188","Longitude":"177.4660474","Name":"Vesi Crescent"},{"Latitude":"-18.1446896","Longitude":"178.4382558","Name":"Vesi Road"},{"Latitude":"-18.1059340","Longitude":"178.4687959","Name":"Vesida Place"},{"Latitude":"-18.1096827","Longitude":"178.4736544","Name":"Vesivesi Road"},{"Latitude":"-18.1124535","Longitude":"178.4074184","Name":"Vetaia Street"},{"Latitude":"-18.1405897","Longitude":"178.4231541","Name":"Victoria Parade"},{"Latitude":"-18.1282069","Longitude":"178.4606971","Name":"Vidal Avenue"},{"Latitude":"-17.6048474","Longitude":"177.4521737","Name":"Vidilo Street"},{"Latitude":"-18.0993471","Longitude":"178.4578532","Name":"Vila Place"},{"Latitude":"-18.1314009","Longitude":"178.4661572","Name":"Vinod Karsanji Bhindi Street"},{"Latitude":"-17.6121141","Longitude":"177.4620214","Name":"Vio Road"},{"Latitude":"-18.1364744","Longitude":"178.4601576","Name":"Viria Road"},{"Latitude":"-17.6562423","Longitude":"177.4287430","Name":"Viseisei Back Road"},{"Latitude":"-17.6909591","Longitude":"177.4192646","Name":"Viseisei Village Road"},{"Latitude":"-18.0692738","Longitude":"178.5135897","Name":"Vishnu Deo Road"},{"Latitude":"-18.1395969","Longitude":"178.4273317","Name":"Vishnu Deo Street"},{"Latitude":"-18.2437907","Longitude":"178.0645562","Name":"Visi Circle"},{"Latitude":"-18.2354286","Longitude":"178.0777403","Name":"Viti Levu Drive"},{"Latitude":"-18.2471467","Longitude":"178.0813869","Name":"Vitilevu Drive"},{"Latitude":"-17.6064125","Longitude":"177.4423810","Name":"Vitogo Parade"},{"Latitude":"-17.5943364","Longitude":"177.4961788","Name":"Vitogo Road"},{"Latitude":"-18.0932402","Longitude":"178.4722730","Name":"Vo Place"},{"Latitude":"-17.7663255","Longitude":"177.4488523","Name":"Vodokana Street"},{"Latitude":"-18.1140768","Longitude":"178.4431425","Name":"Volavola Road"},{"Latitude":"-17.3203187","Longitude":"178.1812637","Name":"Voli Voli Beach Ressort"},{"Latitude":"-17.3360451","Longitude":"178.2015951","Name":"Volivoli Road"},{"Latitude":"-18.2439000","Longitude":"178.0757253","Name":"Vomo Place"},{"Latitude":"-17.6095012","Longitude":"177.4581795","Name":"Vomo Street"},{"Latitude":"-18.2400086","Longitude":"178.0831956","Name":"Vonu Road"},{"Latitude":"-18.1478113","Longitude":"178.4541426","Name":"Vonu Street"},{"Latitude":"-18.1213305","Longitude":"178.4416366","Name":"Votua Road"},{"Latitude":"-16.6737008","Longitude":"178.7224765","Name":"Votua Village Road"},{"Latitude":"-17.7624038","Longitude":"177.4584490","Name":"Votualevu Road"},{"Latitude":"-16.7085893","Longitude":"179.3110789","Name":"Vuadomo Road"},{"Latitude":"-18.0303842","Longitude":"178.5340187","Name":"Vuci Road"},{"Latitude":"-18.0438794","Longitude":"178.5530860","Name":"Vucimaca Airport Road"},{"Latitude":"-17.6866838","Longitude":"177.4282900","Name":"Vuda Back Road"},{"Latitude":"-17.6810340","Longitude":"177.3882510","Name":"Vuda Marina Road"},{"Latitude":"-17.6787077","Longitude":"177.3971865","Name":"Vuda Point Road"},{"Latitude":"-17.7677334","Longitude":"177.4430610","Name":"Vudi Cresant Road"},{"Latitude":"-18.1443097","Longitude":"177.5038161","Name":"Vudi Road"},{"Latitude":"-18.1552684","Longitude":"178.4382441","Name":"Vuivui Road"},{"Latitude":"-18.0942455","Longitude":"178.4888276","Name":"Vukase Street"},{"Latitude":"-18.1211069","Longitude":"178.4576627","Name":"Vuna Road"},{"Latitude":"-18.1095320","Longitude":"178.4461190","Name":"Vunakece Road"},{"Latitude":"-17.8050691","Longitude":"177.4144182","Name":"Vunavau"},{"Latitude":"-17.8038419","Longitude":"177.4144929","Name":"Vunavau Lane"},{"Latitude":"-18.1168654","Longitude":"178.4485809","Name":"Vunibau Place"},{"Latitude":"-17.5228304","Longitude":"178.2573661","Name":"Vunikavikaloa Road"},{"Latitude":"-17.5395586","Longitude":"178.2586260","Name":"Vunikavikaloa Sett Road"},{"Latitude":"-18.0895264","Longitude":"178.4680860","Name":"Vunisinu Road"},{"Latitude":"-16.6609350","Longitude":"178.7985862","Name":"Vuniuto Road"},{"Latitude":"-17.6204259","Longitude":"177.4512408","Name":"Vunivadra Place"},{"Latitude":"-18.1372641","Longitude":"178.4375799","Name":"Vunivalu Road"},{"Latitude":"-18.1029168","Longitude":"178.4415289","Name":"Vunivi Street"},{"Latitude":"-18.1370290","Longitude":"178.4556515","Name":"Vusavusa Place"},{"Latitude":"-18.1604357","Longitude":"178.4351165","Name":"Vuya Road"},{"Latitude":"-18.2330435","Longitude":"178.0718674","Name":"Wai Crescent Road"},{"Latitude":"-18.0858157","Longitude":"178.5019597","Name":"Waidranu Street"},{"Latitude":"-18.0297871","Longitude":"178.5156156","Name":"Waila Feeder Road"},{"Latitude":"-18.1329425","Longitude":"178.4579518","Name":"Wailea Street"},{"Latitude":"-17.7813898","Longitude":"177.4240752","Name":"Wailoaloa Road"},{"Latitude":"-18.0944137","Longitude":"178.4386828","Name":"Wailoku Road"},{"Latitude":"-18.1309980","Longitude":"178.4357428","Name":"Waimanu Road"},{"Latitude":"-18.0710986","Longitude":"178.5733073","Name":"Wainibokasi Bridge"},{"Latitude":"-18.1036657","Longitude":"178.4598560","Name":"Wainitarawau Road"},{"Latitude":"-18.1068311","Longitude":"178.4671614","Name":"Wainivula Road"},{"Latitude":"-17.6097572","Longitude":"177.4597604","Name":"Wainunu Street"},{"Latitude":"-17.6557996","Longitude":"177.4300769","Name":"Wairebetia Road"},{"Latitude":"-18.1047911","Longitude":"178.4393437","Name":"Wairua Road"},{"Latitude":"-17.6098829","Longitude":"177.4632088","Name":"Waiyavi Street"},{"Latitude":"-18.2328700","Longitude":"178.0750020","Name":"Walu Place"},{"Latitude":"-17.6048932","Longitude":"177.4462300","Name":"Walu Street"},{"Latitude":"-17.3231053","Longitude":"178.2027699","Name":"Wananavu Access Road"},{"Latitude":"-17.7676083","Longitude":"177.4352426","Name":"Waoavuka Street"},{"Latitude":"-17.7460874","Longitude":"177.4371639","Name":"Waqa Circle"},{"Latitude":"-18.0907400","Longitude":"178.4681826","Name":"Waqanui Road"},{"Latitude":"-17.6190220","Longitude":"177.4638470","Name":"Waqatabu Place"},{"Latitude":"-17.7660745","Longitude":"177.4282824","Name":"Wasawasa Road"},{"Latitude":"-17.6123889","Longitude":"177.4395156","Name":"Waterfront Road"},{"Latitude":"-17.8418111","Longitude":"177.7138426","Name":"Wauosi Village Road"},{"Latitude":"-17.6140991","Longitude":"177.4563367","Name":"Waya Street"},{"Latitude":"-17.7631001","Longitude":"177.4415494","Name":"Wellington Drive"},{"Latitude":"-16.7659942","Longitude":"-179.9652477","Name":"West Coast Road"},{"Latitude":"-18.1125267","Longitude":"178.4641946","Name":"Whippy Street"},{"Latitude":"-16.8100203","Longitude":"179.3212833","Name":"Whitten Lane"},{"Latitude":"-18.1478412","Longitude":"178.4277949","Name":"Wiliamson Road"},{"Latitude":"-18.1409715","Longitude":"178.4382596","Name":"Wilkinson Street"},{"Latitude":"-18.0333336","Longitude":"178.5244632","Name":"Witherow Road"},{"Latitude":"-18.1049749","Longitude":"178.4473354","Name":"Woodward Place"},{"Latitude":"-16.7856186","Longitude":"179.3239614","Name":"Woodward Road"},{"Latitude":"-18.2355649","Longitude":"178.0833473","Name":"Yaka Place"},{"Latitude":"-18.1351311","Longitude":"177.4971251","Name":"Yaka Road"},{"Latitude":"-17.6204475","Longitude":"177.4655458","Name":"Yalandi Street"},{"Latitude":"-18.0194258","Longitude":"177.7064484","Name":"Yalavou Road"},{"Latitude":"-17.6207746","Longitude":"177.4685005","Name":"Yankanna Place"},{"Latitude":"-18.1595384","Longitude":"178.4377602","Name":"Yanuca Place"},{"Latitude":"-18.1241496","Longitude":"178.4564636","Name":"Yarawa Road"},{"Latitude":"-17.6053839","Longitude":"177.4553900","Name":"Yasawa Street"},{"Latitude":"-18.2457837","Longitude":"178.0660518","Name":"Yasi Circle"},{"Latitude":"-18.1015803","Longitude":"178.4249038","Name":"Yasi Road"},{"Latitude":"-18.1017174","Longitude":"178.4847081","Name":"YasiYasi Road"},{"Latitude":"-18.0904331","Longitude":"178.4984243","Name":"Yawa Street"},{"Latitude":"-18.1154705","Longitude":"178.4484779","Name":"Yohann Place"},{"Latitude":"-17.8016003","Longitude":"177.4169133","Name":"residential"},{"Latitude":"-17.7706610","Longitude":"177.3749070","Name":"residential driveway"},{"Latitude":"-17.8852277","Longitude":"177.3228977","Name":"residential house"}]