[{"Latitude":"40.7704969","Longitude":"67.6255532","Name":"\"Золотой Мост\""},{"Latitude":"42.3432528","Longitude":"59.5652582","Name":"1 May ko'shesi"},{"Latitude":"39.6749009","Longitude":"66.9444975","Name":"1 Tupik"},{"Latitude":"41.1292281","Longitude":"69.4101530","Name":"1 линия"},{"Latitude":"39.9215021","Longitude":"65.9213566","Name":"1 сентябрь кучаси"},{"Latitude":"41.3325528","Longitude":"69.2700772","Name":"1 тупик Бахор"},{"Latitude":"39.6353470","Longitude":"66.9857804","Name":"1-y pr-d X. Dexlevi"},{"Latitude":"41.3198048","Longitude":"69.3731458","Name":"1-й проезд Ёшлик"},{"Latitude":"41.3296779","Longitude":"69.3771407","Name":"1-й проезд Мирзо Бабура"},{"Latitude":"41.2180805","Longitude":"69.3192694","Name":"1-й проезд Мустакиллик"},{"Latitude":"41.3546433","Longitude":"69.1937778","Name":"1-й проезд Нозимахоним, 9"},{"Latitude":"41.3177663","Longitude":"69.3620643","Name":"1-й проезд Тинчлик"},{"Latitude":"41.3178718","Longitude":"69.3718217","Name":"1-й проезд Тоирова"},{"Latitude":"41.3208822","Longitude":"69.3709400","Name":"1-й тупик Ёшлик"},{"Latitude":"41.3168389","Longitude":"69.3670729","Name":"1-й тупик Мустакиллик"},{"Latitude":"40.8584098","Longitude":"72.9952114","Name":"1-көчө"},{"Latitude":"41.3427649","Longitude":"69.2899412","Name":"1-проезд Эзгулик"},{"Latitude":"41.3756351","Longitude":"69.2042019","Name":"1-я улица Кайирма"},{"Latitude":"41.3192769","Longitude":"69.2087654","Name":"1-я улица Оклон"},{"Latitude":"41.3474950","Longitude":"69.1820344","Name":"1-я улица Фаровон"},{"Latitude":"41.3995779","Longitude":"69.3221738","Name":"10 - Guliston ochiq ko'chasi"},{"Latitude":"39.6742372","Longitude":"66.9444068","Name":"2 Tupik"},{"Latitude":"39.6598848","Longitude":"66.9167617","Name":"2-y Mebel'naya pr-d"},{"Latitude":"41.3191969","Longitude":"69.3709964","Name":"2-й проезд Ёшлик"},{"Latitude":"41.3293780","Longitude":"69.3777696","Name":"2-й проезд Мирзо Бабура"},{"Latitude":"41.2185731","Longitude":"69.3184896","Name":"2-й проезд Мустакиллик"},{"Latitude":"41.3171811","Longitude":"69.3629610","Name":"2-й проезд Тинчлик"},{"Latitude":"41.3183028","Longitude":"69.3679182","Name":"2-й тупик Мустакиллик"},{"Latitude":"40.8577490","Longitude":"72.9950026","Name":"2-көчө"},{"Latitude":"40.9965350","Longitude":"70.1190599","Name":"2-проезд Грум"},{"Latitude":"41.2495308","Longitude":"69.2542742","Name":"2-я улица Гагарин худуди"},{"Latitude":"41.3742631","Longitude":"69.2032470","Name":"2-я улица Кайирма"},{"Latitude":"41.3426715","Longitude":"69.2752328","Name":"2-я улица Корхожиота"},{"Latitude":"41.3179642","Longitude":"69.2052665","Name":"2-я улица Оклон"},{"Latitude":"41.3135036","Longitude":"69.1950271","Name":"2-я улица Учкургон узун"},{"Latitude":"41.3466461","Longitude":"69.1806056","Name":"2-я улица Фаровон"},{"Latitude":"39.6642939","Longitude":"67.0059631","Name":"2pr-d Sarbadarov"},{"Latitude":"39.6739517","Longitude":"66.9428680","Name":"3 Tupik"},{"Latitude":"41.3204927","Longitude":"69.3715919","Name":"3-й проезд Ёшлик"},{"Latitude":"41.3179568","Longitude":"69.3636740","Name":"3-й проезд Тинчлик"},{"Latitude":"40.8571749","Longitude":"72.9943018","Name":"3-көчө"},{"Latitude":"41.3734172","Longitude":"69.1976060","Name":"3-я улица Кайирма"},{"Latitude":"41.3426785","Longitude":"69.2781330","Name":"3-я улица Корхожиота"},{"Latitude":"41.3444352","Longitude":"69.1797619","Name":"3-я улица Хонка"},{"Latitude":"39.6730864","Longitude":"66.9440120","Name":"4 Tupik"},{"Latitude":"39.6618870","Longitude":"67.0032392","Name":"4 pr-d Turakula Zexni"},{"Latitude":"40.5122413","Longitude":"70.9274133","Name":"4 чинары улица"},{"Latitude":"41.3006389","Longitude":"69.1633312","Name":"4-Sharof tor ko'chasi"},{"Latitude":"41.2209461","Longitude":"69.3190638","Name":"4-й проезд Мустакиллик"},{"Latitude":"40.8563610","Longitude":"72.9960994","Name":"4-көчө"},{"Latitude":"41.3768519","Longitude":"69.2003629","Name":"4-я улица Кайирма"},{"Latitude":"41.3457238","Longitude":"69.1781407","Name":"4-я улица Фаровон"},{"Latitude":"41.3436520","Longitude":"69.1806429","Name":"4-я улица Хонка"},{"Latitude":"42.4018092","Longitude":"59.4477378","Name":"40-jilliq ko'shesi"},{"Latitude":"37.4946316","Longitude":"67.3956812","Name":"4P102"},{"Latitude":"40.5739387","Longitude":"68.7489325","Name":"4R-652"},{"Latitude":"40.5686602","Longitude":"68.7618576","Name":"4R-653"},{"Latitude":"39.7298545","Longitude":"64.4845095","Name":"4К-186"},{"Latitude":"39.6727872","Longitude":"66.9425401","Name":"5 Tupik"},{"Latitude":"41.2187894","Longitude":"69.3174870","Name":"5-й проезд Мустакиллик"},{"Latitude":"41.3739216","Longitude":"69.1970357","Name":"5-я улица Кайирма"},{"Latitude":"41.3450563","Longitude":"69.1789074","Name":"5-я улица Фаровон"},{"Latitude":"41.3429958","Longitude":"69.1806881","Name":"5-я улица Хонка"},{"Latitude":"39.6720920","Longitude":"66.9436883","Name":"6 TUPIK"},{"Latitude":"40.7179491","Longitude":"72.8974067","Name":"60-лет Киргизии улица"},{"Latitude":"42.4715976","Longitude":"59.6163382","Name":"61 kvartal"},{"Latitude":"42.3277058","Longitude":"59.5720286","Name":"64 kvartal"},{"Latitude":"41.3156687","Longitude":"69.3709286","Name":"7-й проезд Тоирова"},{"Latitude":"41.2808594","Longitude":"69.2949777","Name":"8 Mart ko'chasi"},{"Latitude":"40.1863011","Longitude":"71.7198926","Name":"8 mart ko'chasi"},{"Latitude":"39.9183077","Longitude":"65.9414087","Name":"8 март кучаси"},{"Latitude":"40.9099479","Longitude":"69.3528684","Name":"8 марта"},{"Latitude":"40.8443542","Longitude":"68.5254298","Name":"8 марта улица"},{"Latitude":"43.0296722","Longitude":"60.2695603","Name":"8-mart ko'shesi"},{"Latitude":"41.3600570","Longitude":"69.3542935","Name":"8-й проезд Хамкоробод"},{"Latitude":"41.3546040","Longitude":"69.3717316","Name":"9 May ko'chasi"},{"Latitude":"39.9213678","Longitude":"65.9400755","Name":"9 май кучаси"},{"Latitude":"40.4346790","Longitude":"71.6905661","Name":"911"},{"Latitude":"42.4490316","Longitude":"59.6084763","Name":"A. Amanbaev ko'shesi"},{"Latitude":"40.1064637","Longitude":"67.8393345","Name":"A. Azizov ko'chasi"},{"Latitude":"42.4075592","Longitude":"59.4390896","Name":"A. Begimov ko'shesi"},{"Latitude":"41.5457349","Longitude":"60.9898235","Name":"A. Bunchakov ko'shesi"},{"Latitude":"42.5879219","Longitude":"59.5336460","Name":"A. Dabilov ko'shesi"},{"Latitude":"43.0482274","Longitude":"58.8392996","Name":"A. Dawletov ko'shesi"},{"Latitude":"42.4122092","Longitude":"59.4652280","Name":"A. Ekramov ko'shesi"},{"Latitude":"41.5458295","Longitude":"61.0196775","Name":"A. Farabiy ko'shesi"},{"Latitude":"42.4646825","Longitude":"59.6407313","Name":"A. Gabulov ko'shesi"},{"Latitude":"42.6819601","Longitude":"59.7170770","Name":"A. Ibadullaev ko'shesi"},{"Latitude":"42.6823054","Longitude":"59.7277020","Name":"A. Ibinaminov ko'shesi"},{"Latitude":"41.5439251","Longitude":"60.9954900","Name":"A. Ibragimov ko'shesi"},{"Latitude":"41.5458990","Longitude":"61.0259491","Name":"A. Ikramov ko'shesi"},{"Latitude":"42.4382094","Longitude":"59.5392248","Name":"A. Imanov ko'shesi"},{"Latitude":"42.9216222","Longitude":"59.8012116","Name":"A. Ismetullaev ko'shesi"},{"Latitude":"41.5565497","Longitude":"60.9849370","Name":"A. Jabbarov ko'shesi"},{"Latitude":"41.5491323","Longitude":"61.0023329","Name":"A. Jumabaev ko'shesi"},{"Latitude":"42.5907897","Longitude":"59.5405178","Name":"A. Kan ko'shesi"},{"Latitude":"41.5620700","Longitude":"60.9796696","Name":"A. Karimbaev ko'shesi"},{"Latitude":"41.5465191","Longitude":"60.9818881","Name":"A. Karimov ko'shesi"},{"Latitude":"41.5483191","Longitude":"61.0177231","Name":"A. Kaxxor ko'shesi"},{"Latitude":"40.1543074","Longitude":"67.8391297","Name":"A. Komilov ko'chasi"},{"Latitude":"42.7664688","Longitude":"59.6069442","Name":"A. Kulmanov ko'shesi"},{"Latitude":"42.4633233","Longitude":"59.6423830","Name":"A. Kunnazarov ko'shesi"},{"Latitude":"41.4015253","Longitude":"69.3666334","Name":"A. Majlimov"},{"Latitude":"42.7821527","Longitude":"59.6018253","Name":"A. Mambetnazarov ko'shesi"},{"Latitude":"43.0214631","Longitude":"60.2743113","Name":"A. Matekeev ko'shesi"},{"Latitude":"39.7606744","Longitude":"64.4078079","Name":"A. Munzim ko'chasi"},{"Latitude":"43.0276117","Longitude":"60.0325944","Name":"A. Musaev ko'shesi"},{"Latitude":"40.7539185","Longitude":"72.3527102","Name":"A. Musayev ko'chasi"},{"Latitude":"40.9128095","Longitude":"72.1105260","Name":"A. Navoiy ko'chasi"},{"Latitude":"42.4309234","Longitude":"59.4686551","Name":"A. Palvanov ko'shesi"},{"Latitude":"41.5611190","Longitude":"61.0225536","Name":"A. Pirmanov ko'shesi"},{"Latitude":"42.7671795","Longitude":"59.6109792","Name":"A. Pirnazarov ko'shesi"},{"Latitude":"42.3844826","Longitude":"59.6308836","Name":"A. Qidirbaev ko'shesi"},{"Latitude":"41.5694453","Longitude":"60.9784223","Name":"A. Qudaybergenov ko'shesi"},{"Latitude":"42.6904619","Longitude":"59.7375585","Name":"A. Qutlimuratov ko'shesi"},{"Latitude":"43.0451215","Longitude":"58.8404695","Name":"A. Quwanbaev 1 ko'shesi"},{"Latitude":"43.0440401","Longitude":"58.8393501","Name":"A. Quwanbaev 2 ko'shesi"},{"Latitude":"43.0461629","Longitude":"58.8401451","Name":"A. Quwanbaev ko'shesi"},{"Latitude":"41.0032728","Longitude":"71.6723952","Name":"A. Raximov ko'chasi"},{"Latitude":"42.4625627","Longitude":"59.6105017","Name":"A. S. Pushkin ko'shesi"},{"Latitude":"41.5595139","Longitude":"60.9776647","Name":"A. Sadullaev ko'shesi"},{"Latitude":"42.9227161","Longitude":"59.7868264","Name":"A. Saparbaeva ko'shesi"},{"Latitude":"42.7755079","Longitude":"59.6176426","Name":"A. Saparov ko'shesi"},{"Latitude":"42.6833957","Longitude":"59.7180458","Name":"A. Shajenov ko'shesi"},{"Latitude":"42.6962931","Longitude":"59.7396233","Name":"A. Shamuratov ko'shesi"},{"Latitude":"43.0267702","Longitude":"60.0205147","Name":"A. Shamuratova ko'shesi"},{"Latitude":"43.0290535","Longitude":"60.0198916","Name":"A. Toreshov ko'shesi"},{"Latitude":"41.5547414","Longitude":"60.9710377","Name":"A. Urazbaeva ko'shesi"},{"Latitude":"42.5272665","Longitude":"59.6110652","Name":"A. Uteniyazov ko'shesi"},{"Latitude":"43.0482801","Longitude":"58.8441030","Name":"A. Utepov ko'shesi"},{"Latitude":"42.4924179","Longitude":"59.6051654","Name":"A. Xalmuratov ko'shesi"},{"Latitude":"43.0219443","Longitude":"60.2798437","Name":"A. Xojalepesov ko'shesi"},{"Latitude":"40.5228730","Longitude":"72.0631117","Name":"A. Yasaviy ko'chasi"},{"Latitude":"40.3893551","Longitude":"71.7884302","Name":"A. Yassaviy nom. ko‘cha"},{"Latitude":"39.6339360","Longitude":"66.9467409","Name":"A. Yassawi kuchasi"},{"Latitude":"40.7480662","Longitude":"72.3236847","Name":"A. Yo'ldoshev ko'chasi"},{"Latitude":"40.7684162","Longitude":"72.3848286","Name":"A.Ashurov ko`chasi"},{"Latitude":"40.5450033","Longitude":"70.9315144","Name":"A.Charxiy ko'chasi"},{"Latitude":"41.3814316","Longitude":"69.2220709","Name":"A.Kaxxor 1-o'tish ko'chasi"},{"Latitude":"41.3833135","Longitude":"69.2234688","Name":"A.Kaxxor 2-o'tish ko'chasi"},{"Latitude":"41.3876134","Longitude":"69.4587806","Name":"A.Navoiy ko‘chasi"},{"Latitude":"41.4488119","Longitude":"69.5402288","Name":"A.Qodiriy  tor"},{"Latitude":"40.0834139","Longitude":"64.0660891","Name":"A380 - Varaxsha q - Moxonko'l dahasi - Qorako'l sh"},{"Latitude":"42.4579517","Longitude":"59.5917226","Name":"Abad ko'shesi"},{"Latitude":"42.6907747","Longitude":"59.4672618","Name":"Abadan awili"},{"Latitude":"42.5152610","Longitude":"59.6229043","Name":"Abadan ko'shesi"},{"Latitude":"42.5241707","Longitude":"59.6182188","Name":"Abat el ko'shesi"},{"Latitude":"42.4242545","Longitude":"59.6007237","Name":"Abat joli ko'shesi"},{"Latitude":"42.4747538","Longitude":"59.6426701","Name":"Abat makan ko'shesi"},{"Latitude":"42.4284129","Longitude":"59.6120632","Name":"Abatliq ko'shesi"},{"Latitude":"39.7647285","Longitude":"64.4015897","Name":"Abay ko'chasi"},{"Latitude":"41.5469880","Longitude":"60.9989163","Name":"Abbasov ko'shesi"},{"Latitude":"42.9349343","Longitude":"59.8002092","Name":"Abbaz Dabilov ko'shesi"},{"Latitude":"42.4802659","Longitude":"59.5988859","Name":"Abbaz Dabilov o'tkeli"},{"Latitude":"42.4674397","Longitude":"59.6392631","Name":"Abdimuratov ko'shesi"},{"Latitude":"42.4442881","Longitude":"59.6108153","Name":"Abdiraman O'tepov ko'shesi"},{"Latitude":"41.5338595","Longitude":"61.0222688","Name":"Abdiraxmanov ko'shesi"},{"Latitude":"42.4631924","Longitude":"59.6205171","Name":"Abdreyim Sultanov ko'shesi"},{"Latitude":"42.9262108","Longitude":"59.7728674","Name":"Abdreymov ko'shesi"},{"Latitude":"41.5534771","Longitude":"60.6432681","Name":"Abdug’ozi Bahodirhon ko’chasi"},{"Latitude":"39.7454778","Longitude":"64.4108570","Name":"Abdulaziz Somiy ko'chasi"},{"Latitude":"41.2921846","Longitude":"69.2473965","Name":"Abdulla Avloni 1-o'tish ko'chasi"},{"Latitude":"41.2882914","Longitude":"69.2417430","Name":"Abdulla Avloni 2-o'tish ko'chasi"},{"Latitude":"41.2880930","Longitude":"69.2409158","Name":"Abdulla Avloni 3-o'tish ko'chasi"},{"Latitude":"41.2917453","Longitude":"69.2505252","Name":"Abdulla Avloni ko'chasi"},{"Latitude":"41.2682958","Longitude":"69.2651072","Name":"Abdulla Kahhar 3-o'tish ko'chasi"},{"Latitude":"41.2837742","Longitude":"69.2588958","Name":"Abdulla Kahhar 5-o'tish ko'chasi"},{"Latitude":"41.2818087","Longitude":"69.2627135","Name":"Abdulla Kahhar 6-o'tish ko'chasi"},{"Latitude":"41.2783848","Longitude":"69.2653923","Name":"Abdulla Kahhar 7-o'tish ko'chasi"},{"Latitude":"41.2712085","Longitude":"69.2642239","Name":"Abdulla Kahhar 9-o'tish ko'chasi"},{"Latitude":"41.2728373","Longitude":"69.2647290","Name":"Abdulla Kahhar ko'chasi"},{"Latitude":"41.2731094","Longitude":"69.2665508","Name":"Abdulla Kahhor 1-o'tish ko'chasi"},{"Latitude":"41.2720314","Longitude":"69.2657873","Name":"Abdulla Kahhor 2-o'tish ko'chasi"},{"Latitude":"41.2720314","Longitude":"69.2657873","Name":"Abdulla Kahhor berk ko'chasi"},{"Latitude":"40.1475494","Longitude":"67.8413072","Name":"Abdulla Kahhor ko'chasi"},{"Latitude":"40.7742661","Longitude":"72.3763642","Name":"Abdulla Nabiyev ko'chasi"},{"Latitude":"42.4106381","Longitude":"59.4439378","Name":"Abdulla Qadiriy ko'shesi"},{"Latitude":"42.4750989","Longitude":"59.5532093","Name":"Abdulla Qadriy ko'shesi"},{"Latitude":"41.2844780","Longitude":"69.2584972","Name":"Abdulla Qahhor 4-o'tish ko'chasi"},{"Latitude":"41.2844780","Longitude":"69.2584972","Name":"Abdulla Qahhor ko'chasi"},{"Latitude":"41.3210902","Longitude":"69.2853573","Name":"Abdulla Qodiriy ko'chasi"},{"Latitude":"40.8139848","Longitude":"69.2006517","Name":"Abdulla Qodiriy ko`chasi"},{"Latitude":"39.7685783","Longitude":"64.4124007","Name":"Abdulla To'qay ko'chasi"},{"Latitude":"41.2612216","Longitude":"69.1706868","Name":"Abdulla Tukay 3-o'tish ko'chasi"},{"Latitude":"41.3798439","Longitude":"60.3573470","Name":"Abdullah Rakhmonov ko'chasi"},{"Latitude":"39.6380528","Longitude":"66.9863532","Name":"Abdullo Qahor ko'chasi"},{"Latitude":"39.6416231","Longitude":"66.9842915","Name":"Abdullo Qahor kuchasi"},{"Latitude":"39.6509504","Longitude":"66.9303861","Name":"Abdulxaurxan"},{"Latitude":"39.6472548","Longitude":"66.9585395","Name":"Abdurahmon Jomiy ko'chasi"},{"Latitude":"39.7686540","Longitude":"64.3924517","Name":"Abdurahmon Mushfiqiy koʻchasi"},{"Latitude":"41.2680917","Longitude":"69.2921483","Name":"Abdurauf Fitrat 1-o'tish ko'chasi"},{"Latitude":"41.2692533","Longitude":"69.2906918","Name":"Abdurauf Fitrat 2-o'tish ko'chasi"},{"Latitude":"41.2708554","Longitude":"69.2897044","Name":"Abdurauf Fitrat 3-o'tish ko'chasi"},{"Latitude":"41.2693904","Longitude":"69.2995916","Name":"Abdurauf Fitrat 5-o'tish ko'chasi"},{"Latitude":"40.7743983","Longitude":"72.3521330","Name":"Abdurauf Fitrat ko'chasi"},{"Latitude":"39.6585900","Longitude":"66.9327617","Name":"Abdurauf Fitrat kuchasi"},{"Latitude":"39.6496304","Longitude":"66.9384606","Name":"Abduxalik G'ijduvoniy ko'chasi"},{"Latitude":"40.0878840","Longitude":"65.3787456","Name":"Abu Ali ibn Sino ko'chasi"},{"Latitude":"42.4081650","Longitude":"59.4664310","Name":"Abu Ali ibn Sino ko'shesi"},{"Latitude":"39.7807936","Longitude":"64.4293938","Name":"Abu Ali ibn Sino shox ko'chasi"},{"Latitude":"39.6598533","Longitude":"66.9137104","Name":"Abu Bakr Roziy ko'chasi"},{"Latitude":"39.7858056","Longitude":"64.4124550","Name":"Abu Hayz Kabir ko'chasi"},{"Latitude":"39.7440217","Longitude":"64.1811074","Name":"Abu Rayhon Beruniy koʻchasi"},{"Latitude":"41.2816772","Longitude":"69.2930254","Name":"Abu Sulaymon Banokatiy ko'chasi"},{"Latitude":"43.0529277","Longitude":"58.8450030","Name":"Abubakirov ko'shesi"},{"Latitude":"40.9103454","Longitude":"69.5983963","Name":"Achangaran road"},{"Latitude":"42.4530921","Longitude":"59.5680426","Name":"Adalat ko'shesi"},{"Latitude":"41.3413158","Longitude":"69.2645600","Name":"Adham Rahmat 1-o'tish ko'chasi"},{"Latitude":"41.2455108","Longitude":"69.2666093","Name":"Adolat 1-o'tish ko'chasi"},{"Latitude":"41.2455157","Longitude":"69.2674023","Name":"Adolat 2-o'tish ko'chasi"},{"Latitude":"41.2461981","Longitude":"69.2683317","Name":"Adolat 3-o'tish ko'chasi"},{"Latitude":"41.1266455","Longitude":"69.0684003","Name":"Adolat ko'chasi"},{"Latitude":"40.2564624","Longitude":"71.5774728","Name":"Aeroport"},{"Latitude":"41.2704957","Longitude":"69.2808971","Name":"Aeroport 1-o'tish ko'chasi"},{"Latitude":"41.2713273","Longitude":"69.2843603","Name":"Aeroport 2-o'tish ko'chasi"},{"Latitude":"41.2652319","Longitude":"69.2614003","Name":"Aeroport hududi ko'chasi"},{"Latitude":"41.2688597","Longitude":"69.2814569","Name":"Aeroport ko'chasi"},{"Latitude":"39.6663633","Longitude":"66.9822786","Name":"Afrasiab Street"},{"Latitude":"37.2392737","Longitude":"67.2793467","Name":"Afrasiob ko'chasi"},{"Latitude":"42.3890512","Longitude":"59.6314753","Name":"Afrasiyab ko'shesi"},{"Latitude":"39.7912114","Longitude":"64.4112205","Name":"Afrosiyob 2-o'tish ko'chasi"},{"Latitude":"41.2988773","Longitude":"69.2730098","Name":"Afrosiyob ko'chasi"},{"Latitude":"41.2728432","Longitude":"69.2159736","Name":"Afshona 1-o'tish ko'chasi"},{"Latitude":"41.2726740","Longitude":"69.2176052","Name":"Afshona ko'chasi"},{"Latitude":"41.3035580","Longitude":"69.2320058","Name":"Aftob 1-o'tish ko'chasi"},{"Latitude":"41.3041851","Longitude":"69.2341051","Name":"Aftob 3-o'tish ko'chasi"},{"Latitude":"41.3056108","Longitude":"69.2319817","Name":"Aftob ko'chasi"},{"Latitude":"41.3374617","Longitude":"69.1887966","Name":"Afzalov 4-to`pik ko'chasi"},{"Latitude":"41.3378240","Longitude":"69.1868124","Name":"Afzalov 5-to`pik ko'chasi"},{"Latitude":"41.3373424","Longitude":"69.1862949","Name":"Afzalov 6-to`pik ko'chasi"},{"Latitude":"41.3369031","Longitude":"69.1857653","Name":"Afzalov 7-o'tish ko'chasi"},{"Latitude":"41.3365200","Longitude":"69.1851069","Name":"Afzalov 8-o'tish ko'chasi"},{"Latitude":"42.4513765","Longitude":"59.6436420","Name":"Ag'abay ko'shesi"},{"Latitude":"42.4083992","Longitude":"59.4604969","Name":"Agahiy ko'shesi"},{"Latitude":"41.8311363","Longitude":"59.9935958","Name":"Agzybirlik köçesi"},{"Latitude":"41.8194132","Longitude":"59.9781110","Name":"Ahal köçesi"},{"Latitude":"41.3268267","Longitude":"69.2012461","Name":"Ahil 1-ko'chasi"},{"Latitude":"41.3275289","Longitude":"69.2007616","Name":"Ahil 2-o'tish ko'chasi"},{"Latitude":"41.3277564","Longitude":"69.1999445","Name":"Ahil 3-ko'chasi"},{"Latitude":"41.3283287","Longitude":"69.1988960","Name":"Ahil 4-ko'chasi"},{"Latitude":"41.3281288","Longitude":"69.1976239","Name":"Ahil 5-o'tish ko'chasi"},{"Latitude":"41.3533905","Longitude":"69.3858005","Name":"Ahillik ko`chasi"},{"Latitude":"39.7502345","Longitude":"64.4200468","Name":"Ahmad Boboqulov ko'chasi"},{"Latitude":"41.3717796","Longitude":"69.2938939","Name":"Ahmad Donish ko'chasi"},{"Latitude":"41.3061203","Longitude":"69.2275992","Name":"Ahmad Polvon 1-o'tish ko'chasi"},{"Latitude":"41.3055212","Longitude":"69.2258231","Name":"Ahmad Polvon 2-o'tish ko'chasi"},{"Latitude":"41.3069430","Longitude":"69.2261174","Name":"Ahmad Polvon 3-o'tish ko'chasi"},{"Latitude":"40.3790464","Longitude":"71.8067223","Name":"Ahmad Yassaviy"},{"Latitude":"39.7817070","Longitude":"64.4152666","Name":"Ahmad Yassaviy ko'chasi"},{"Latitude":"40.7685044","Longitude":"72.3858221","Name":"Ahmad Yassaviy ko`chasi"},{"Latitude":"41.3444768","Longitude":"69.3827937","Name":"Ahmad Yugnakiy ko'chasi"},{"Latitude":"39.6406689","Longitude":"66.9432836","Name":"Ahmad al-Fargoniy ko'chasi"},{"Latitude":"43.0345121","Longitude":"58.8632332","Name":"Ajiniyaz 4 ko'shesi"},{"Latitude":"43.0360993","Longitude":"58.8648883","Name":"Ajiniyaz 5 ko'shesi"},{"Latitude":"43.0382699","Longitude":"58.8650267","Name":"Ajiniyaz 6 ko'shesi"},{"Latitude":"43.0388047","Longitude":"58.8655685","Name":"Ajiniyaz 7 ko'shesi"},{"Latitude":"43.0393574","Longitude":"58.8661285","Name":"Ajiniyaz 8 ko'shesi"},{"Latitude":"43.0399164","Longitude":"58.8666949","Name":"Ajiniyaz 9 ko'shesi"},{"Latitude":"43.7658291","Longitude":"59.0272368","Name":"Ajiniyaz ko'shesi"},{"Latitude":"39.6482946","Longitude":"66.9703615","Name":"Ak Saray Street"},{"Latitude":"42.4475956","Longitude":"59.6195569","Name":"Akademik Izentaev ko'shesi"},{"Latitude":"39.6569859","Longitude":"66.9288401","Name":"Akademik Pavlov kuchasi"},{"Latitude":"42.4626948","Longitude":"59.6398076","Name":"Akademik Sharjaw Abdirov ko'shesi"},{"Latitude":"42.4569585","Longitude":"59.6379798","Name":"Akademik Tursinbay Eshanov ko'shesi"},{"Latitude":"42.3744923","Longitude":"59.6201469","Name":"Akademik ko'shesi"},{"Latitude":"40.5426309","Longitude":"70.9516833","Name":"Akbar Islomov ko'chasi"},{"Latitude":"40.7592144","Longitude":"72.3840062","Name":"Akbarshoh ko'chasi"},{"Latitude":"41.1137939","Longitude":"69.0445869","Name":"Akmal Ikromov ko'chasi"},{"Latitude":"41.3405334","Longitude":"69.2734495","Name":"Akmal Po'lat 1-o'tish ko'chasi"},{"Latitude":"37.9384623","Longitude":"66.5308543","Name":"Akmurat köçesi"},{"Latitude":"42.3342938","Longitude":"59.5776384","Name":"Al Farabi ko'shesi"},{"Latitude":"40.4073999","Longitude":"71.7439624","Name":"Al Fargoniy ko'chasi"},{"Latitude":"41.8372907","Longitude":"59.9637024","Name":"Al Horezmi köçesi"},{"Latitude":"41.6609559","Longitude":"60.2843312","Name":"Al Zamahshariy ko‘chasi"},{"Latitude":"41.8374425","Longitude":"60.9073050","Name":"Al-Beruniy ko'shesi"},{"Latitude":"41.5519609","Longitude":"60.6505329","Name":"Al-Beruniy ko’chasi"},{"Latitude":"40.7464690","Longitude":"71.7176778","Name":"Al-Bukhotiy"},{"Latitude":"40.3903267","Longitude":"71.7747838","Name":"Al-Fargoniy ko'chasi"},{"Latitude":"41.2610547","Longitude":"69.1876405","Name":"Al-Xorazmiy ko'chasi"},{"Latitude":"41.5588481","Longitude":"60.6312043","Name":"Al-Xorazmiy ko’chasi"},{"Latitude":"42.4617522","Longitude":"59.5722138","Name":"Al-Xorezmi ko'shesi"},{"Latitude":"41.3424360","Longitude":"69.1982013","Name":"Al-Xorezmiy 1-o'tish ko'chasi"},{"Latitude":"41.3417863","Longitude":"69.1970307","Name":"Al-Xorezmiy 2-tor ko'chasi"},{"Latitude":"41.3393642","Longitude":"69.3682008","Name":"Alanga ko'chasi"},{"Latitude":"42.3938401","Longitude":"59.6309472","Name":"Alataw ko'shesi"},{"Latitude":"42.4588578","Longitude":"59.5770926","Name":"Aldar ko'se ko'shesi"},{"Latitude":"42.4037980","Longitude":"59.4265264","Name":"Aleksandr Gercen ko'shesi"},{"Latitude":"42.4608000","Longitude":"59.5774236","Name":"Alg'a ko'shesi"},{"Latitude":"42.4373512","Longitude":"59.6088864","Name":"Alg'abas ko'shesi"},{"Latitude":"41.3069083","Longitude":"69.1856234","Name":"Ali Qushchi 1-o'tish ko'chasi"},{"Latitude":"41.3098594","Longitude":"69.1845964","Name":"Ali Qushchi 2-o'tish ko'chasi"},{"Latitude":"39.6505575","Longitude":"66.9288195","Name":"Ali Yozdi"},{"Latitude":"39.6552915","Longitude":"66.9135171","Name":"Ali qushchi ko'chasi"},{"Latitude":"41.3338293","Longitude":"69.2556759","Name":"Alihontura Sog'uniy ko'chasi"},{"Latitude":"43.7560321","Longitude":"59.0226483","Name":"Alimbetov ko'shesi"},{"Latitude":"42.4669325","Longitude":"59.5644374","Name":"Alimjan Xalimov ko'shesi"},{"Latitude":"41.2945466","Longitude":"69.3343389","Name":"Alimkent 1-o'tish ko'chasi"},{"Latitude":"41.2939528","Longitude":"69.3336802","Name":"Alimkent 2-o'tish ko'chasi"},{"Latitude":"41.2937725","Longitude":"69.3311727","Name":"Alimkent 3-o'tish ko'chasi"},{"Latitude":"41.2900256","Longitude":"69.3358156","Name":"Alimkent 4-o'tish ko'chasi"},{"Latitude":"41.2934543","Longitude":"69.3229495","Name":"Alimkent ko'chasi"},{"Latitude":"40.3662131","Longitude":"71.7816654","Name":"Alisher Navoiy"},{"Latitude":"40.4843288","Longitude":"71.7338887","Name":"Alisher Navoiy ko'chasi"},{"Latitude":"39.7436497","Longitude":"64.1783928","Name":"Alisher Navoiy koʻchasi"},{"Latitude":"41.0770180","Longitude":"71.8173251","Name":"Alisher Navoiy ko‘chasi"},{"Latitude":"37.2369713","Longitude":"67.2925998","Name":"Alisher Navoiy ko’chasi"},{"Latitude":"40.3659908","Longitude":"71.7809031","Name":"Alisher Navoiy nom. ko'cha"},{"Latitude":"39.6669016","Longitude":"66.9446875","Name":"Alisher Navoiy shoh ko'chasi"},{"Latitude":"42.4552405","Longitude":"59.6185317","Name":"Alisher Nawayi ko'shesi"},{"Latitude":"41.8335304","Longitude":"59.9892654","Name":"Alişer Nowaýy köçesi"},{"Latitude":"43.0133553","Longitude":"60.3021465","Name":"Aljanov ko'shesi"},{"Latitude":"42.9406891","Longitude":"59.7933359","Name":"Allambergen Turimbetov ko'shesi"},{"Latitude":"42.4704725","Longitude":"59.6183244","Name":"Allayar Dosnazarov ko'shesi"},{"Latitude":"41.3420553","Longitude":"69.2170961","Name":"Allon 2-o'tish ko'chasi"},{"Latitude":"41.3430974","Longitude":"69.2150574","Name":"Allon o'tish ko'chasi"},{"Latitude":"42.4726082","Longitude":"59.5773939","Name":"Alma bag' ko'shesi"},{"Latitude":"42.3988156","Longitude":"59.4565669","Name":"Alma-Ata ko'shesi"},{"Latitude":"42.3930262","Longitude":"59.6304872","Name":"Alma-ata ko'shesi"},{"Latitude":"42.4431208","Longitude":"59.6486538","Name":"Almazar ko'shesi"},{"Latitude":"41.3359974","Longitude":"69.2144918","Name":"Aloqa 1-o'tish ko'chasi"},{"Latitude":"41.3294770","Longitude":"69.1967210","Name":"Alp-Jamol 1-ko'chasi"},{"Latitude":"41.3305533","Longitude":"69.1829167","Name":"Alp-Jamol 3-ko'chasi"},{"Latitude":"42.8424957","Longitude":"59.0063109","Name":"Alpamis ko'shesi"},{"Latitude":"42.4490992","Longitude":"59.6172443","Name":"Alpisbay Toreev ko'shesi"},{"Latitude":"39.7450781","Longitude":"64.4490463","Name":"Alpomish ko'chasi"},{"Latitude":"42.3750908","Longitude":"59.6206553","Name":"Altay ko'shesi"},{"Latitude":"42.4780129","Longitude":"59.5999700","Name":"Altin a'sir ko'shesi"},{"Latitude":"42.4203614","Longitude":"59.6017556","Name":"Altin jag'is ko'shesi"},{"Latitude":"42.4253003","Longitude":"59.6203091","Name":"Altin qonis ko'shesi"},{"Latitude":"42.4183632","Longitude":"59.6022676","Name":"Altin suw ko'shesi"},{"Latitude":"42.4278779","Longitude":"59.6276820","Name":"Altin tan' ko'shesi"},{"Latitude":"42.4714182","Longitude":"59.6046848","Name":"Altin-saz ko'shesi"},{"Latitude":"42.8253912","Longitude":"59.0087012","Name":"Altinko'l guzari"},{"Latitude":"42.8362676","Longitude":"59.0017608","Name":"Altinko'l ko'shesi"},{"Latitude":"42.3684645","Longitude":"59.6219759","Name":"Altinko'l-1 ko'shesi"},{"Latitude":"42.3689679","Longitude":"59.6213399","Name":"Altinko'l-2 ko'shesi"},{"Latitude":"42.3686216","Longitude":"59.6192061","Name":"Altinko'l-3 ko'shesi"},{"Latitude":"42.3692022","Longitude":"59.6186531","Name":"Altinko'l-4 ko'shesi"},{"Latitude":"42.3688797","Longitude":"59.6169365","Name":"Altinko'l-5 ko'shesi"},{"Latitude":"41.8409569","Longitude":"59.9793104","Name":"Altyn Asyr köçesi"},{"Latitude":"41.3238686","Longitude":"69.1821710","Name":"Alvon 1-o'tish ko'chasi"},{"Latitude":"41.3248813","Longitude":"69.1823985","Name":"Alvon 2-o'tish ko'chasi"},{"Latitude":"42.8352309","Longitude":"59.0429191","Name":"Alwin jurt ko'shesi"},{"Latitude":"42.4471222","Longitude":"59.6083320","Name":"Amangeldi batir ko'shesi"},{"Latitude":"42.4681957","Longitude":"59.6295727","Name":"Amet baqsi ko'shesi"},{"Latitude":"42.5200083","Longitude":"59.6132229","Name":"Ametov ko'shesi"},{"Latitude":"39.6709038","Longitude":"66.9453133","Name":"Amir Kulol ko'chasi"},{"Latitude":"41.2058831","Longitude":"71.7355891","Name":"Amir Temur"},{"Latitude":"43.0583363","Longitude":"58.8508442","Name":"Amir Temur 1 ko'shesi"},{"Latitude":"41.3174537","Longitude":"69.2849210","Name":"Amir Temur 1-o'tish ko'chasi"},{"Latitude":"43.0586187","Longitude":"58.8515986","Name":"Amir Temur 2 ko'shesi"},{"Latitude":"41.3052407","Longitude":"69.2786331","Name":"Amir Temur 2-o'tish ko'chasi"},{"Latitude":"43.0589359","Longitude":"58.8524458","Name":"Amir Temur 3 ko'shesi"},{"Latitude":"43.0592492","Longitude":"58.8532828","Name":"Amir Temur 4 ko'shesi"},{"Latitude":"43.0575943","Longitude":"58.8554939","Name":"Amir Temur 5 ko'shesi"},{"Latitude":"41.3800986","Longitude":"60.3683959","Name":"Amir Temur Street"},{"Latitude":"40.9967798","Longitude":"71.6384601","Name":"Amir Temur ko'chasi"},{"Latitude":"42.4599414","Longitude":"59.6279120","Name":"Amir Temur ko'shesi"},{"Latitude":"41.0282982","Longitude":"71.8411879","Name":"Amir Temur ko`chasi"},{"Latitude":"41.4979275","Longitude":"69.5828773","Name":"Amir Temur ko‘chasi"},{"Latitude":"40.8335406","Longitude":"69.6182935","Name":"Amir Temur shoh ko'chasi"},{"Latitude":"39.9349731","Longitude":"64.3843528","Name":"Amir Timur ko‘chasi"},{"Latitude":"39.7097559","Longitude":"64.5703628","Name":"Amir Timurt ko'chasi"},{"Latitude":"40.7630554","Longitude":"72.3597117","Name":"Amir Umarxon ko'chasi"},{"Latitude":"41.5506841","Longitude":"61.0052197","Name":"Amirobad ko'shesi"},{"Latitude":"41.2777604","Longitude":"69.2787849","Name":"Amirobod 1-o'tish ko'chasi"},{"Latitude":"41.2762832","Longitude":"69.2766536","Name":"Amirobod 2-o'tish ko'chasi"},{"Latitude":"42.3488866","Longitude":"59.5964810","Name":"Amiwdariya ko'shesi"},{"Latitude":"43.0136937","Longitude":"60.2916423","Name":"Amiwdarya ko'shesi"},{"Latitude":"41.3431282","Longitude":"69.2277264","Name":"Amonat 2-o'tish ko'chasi"},{"Latitude":"42.0869761","Longitude":"60.2744212","Name":"Amudariya ko'shesi"},{"Latitude":"42.8397883","Longitude":"58.9936975","Name":"Amudarya ko'shesi"},{"Latitude":"41.3249917","Longitude":"69.3502763","Name":"Amudaryo ko'chasi"},{"Latitude":"39.6655080","Longitude":"66.9689880","Name":"Anakboy ko'chasi"},{"Latitude":"41.1086310","Longitude":"69.0581184","Name":"Anbar Otin ko'chasi"},{"Latitude":"41.8285152","Longitude":"59.9664088","Name":"Andalyp (Maýakowsky) köçesi"},{"Latitude":"42.3917170","Longitude":"59.6310403","Name":"Andijan ko'shesi"},{"Latitude":"41.2807956","Longitude":"69.2648943","Name":"Andijon 1-o'tish ko'chasi"},{"Latitude":"41.5550314","Longitude":"60.6075543","Name":"Andijon ko'chasi"},{"Latitude":"39.6734235","Longitude":"66.9463019","Name":"Angren ko'chasi"},{"Latitude":"42.4411524","Longitude":"59.5821522","Name":"Annaqul shayir ko'shesi"},{"Latitude":"41.4906816","Longitude":"69.8095721","Name":"Anor ko'cha"},{"Latitude":"41.3579283","Longitude":"69.2886951","Name":"Anorzor 2-o'tish ko'chasi"},{"Latitude":"41.3564423","Longitude":"69.2850060","Name":"Anorzor 3-o'tish ko'chasi"},{"Latitude":"41.3552479","Longitude":"69.2827342","Name":"Anorzor 4-o'tish ko'chasi"},{"Latitude":"41.3580338","Longitude":"69.2834642","Name":"Anorzor 5-o'tish ko'chasi"},{"Latitude":"41.3563370","Longitude":"69.2788222","Name":"Anorzor 6-o'tish ko'chasi"},{"Latitude":"41.0160255","Longitude":"71.5887674","Name":"Anorzor ko'chasi"},{"Latitude":"42.8385729","Longitude":"59.0012420","Name":"Aq altin ko'shesi"},{"Latitude":"42.3782216","Longitude":"59.6242809","Name":"Aq jayiq ko'shesi"},{"Latitude":"42.5243271","Longitude":"59.6059745","Name":"Aq jibek ko'shesi"},{"Latitude":"42.4496415","Longitude":"59.5830404","Name":"Aq jorg'a ko'shesi"},{"Latitude":"42.4581791","Longitude":"59.5752427","Name":"Aq nag'is ko'shesi"},{"Latitude":"42.4578924","Longitude":"59.5735915","Name":"Aq otaw ko'shesi"},{"Latitude":"42.5132003","Longitude":"59.6006645","Name":"Aq tal ko'shesi"},{"Latitude":"42.5149489","Longitude":"59.6002876","Name":"Aq terek ko'shesi"},{"Latitude":"42.4569815","Longitude":"59.6215099","Name":"Aq to'be ko'shesi"},{"Latitude":"42.4218637","Longitude":"59.6013445","Name":"Aqbasli ko'shesi"},{"Latitude":"42.4385725","Longitude":"59.5864110","Name":"Aqimbet baqsi ko'shesi"},{"Latitude":"42.5878388","Longitude":"59.5510562","Name":"Aqmang'it guzari"},{"Latitude":"42.5938298","Longitude":"59.5360824","Name":"Aqmang'it ko'shesi"},{"Latitude":"42.4684797","Longitude":"59.5740892","Name":"Aqmangit guzari"},{"Latitude":"42.4290571","Longitude":"59.6106368","Name":"Aqoba ko'shesi"},{"Latitude":"42.4600938","Longitude":"59.5792888","Name":"Aqotau ko'shesi"},{"Latitude":"42.4807295","Longitude":"59.5526389","Name":"Aqsha ko'l ko'shesi"},{"Latitude":"42.4467291","Longitude":"59.6228644","Name":"Aqshako'l ko'shesi"},{"Latitude":"41.5506942","Longitude":"60.9742161","Name":"Aqshuraev ko'shesi"},{"Latitude":"42.4504960","Longitude":"59.6416384","Name":"Aqtal ko'shesi"},{"Latitude":"42.3964478","Longitude":"59.6156227","Name":"Aqtaw ko'shesi"},{"Latitude":"42.5168166","Longitude":"59.6084435","Name":"Aqtuba ko'shesi"},{"Latitude":"39.4929675","Longitude":"64.7652386","Name":"Ar-Revgariy ko'chasi"},{"Latitude":"39.7659659","Longitude":"64.4186205","Name":"Arabon ko'chasi"},{"Latitude":"43.7616252","Longitude":"59.0248973","Name":"Aral baliqshisi ko'shesi"},{"Latitude":"42.8246031","Longitude":"59.0062430","Name":"Aral ko'shesi"},{"Latitude":"42.4195931","Longitude":"59.6198829","Name":"Arbashi ko'shesi"},{"Latitude":"41.3603970","Longitude":"69.4097831","Name":"Archazor ko‘chasi"},{"Latitude":"41.3997340","Longitude":"69.3776852","Name":"Arg'in ko'chasi"},{"Latitude":"41.3282870","Longitude":"69.2853126","Name":"Arifov ko‘chasi"},{"Latitude":"42.4769876","Longitude":"59.5877562","Name":"Aris ko'shesi"},{"Latitude":"42.8284211","Longitude":"59.0360862","Name":"Ariwlar ko'shesi"},{"Latitude":"42.4038724","Longitude":"59.6185647","Name":"Arna joli ko'shesi"},{"Latitude":"41.2833134","Longitude":"69.2308238","Name":"Arnasoy ko'chasi"},{"Latitude":"42.4490289","Longitude":"59.5988993","Name":"Arshali ko'shesi"},{"Latitude":"41.3246392","Longitude":"69.3147944","Name":"Arslanobod ko'chasi"},{"Latitude":"41.1147174","Longitude":"69.0645005","Name":"Artikov ko'chasi"},{"Latitude":"42.4442048","Longitude":"59.6083300","Name":"Aruhan ko'shesi"},{"Latitude":"39.6434433","Longitude":"66.9455595","Name":"Arutyunov ko'chasi"},{"Latitude":"42.4634815","Longitude":"59.6300287","Name":"Aruxan ko'shesi"},{"Latitude":"39.6280693","Longitude":"66.9450035","Name":"Arxitektorlar bulvari"},{"Latitude":"42.4168005","Longitude":"59.6208111","Name":"Arzibiy ko'shesi"},{"Latitude":"40.5293851","Longitude":"70.9103018","Name":"Arzik tepa ko'chasi"},{"Latitude":"42.4465468","Longitude":"59.6452901","Name":"Arziw ko'shesi"},{"Latitude":"42.4711171","Longitude":"59.6391099","Name":"Arziwlar ko'shesi"},{"Latitude":"42.4067363","Longitude":"59.4220811","Name":"Arzu ko'shesi"},{"Latitude":"41.8318963","Longitude":"59.9902294","Name":"Arzuw köçesi"},{"Latitude":"41.8263192","Longitude":"59.9765724","Name":"Arçabil köçesi"},{"Latitude":"41.3161388","Longitude":"69.2971816","Name":"Asaka 1-o'tish kochasi"},{"Latitude":"41.3174037","Longitude":"69.3028767","Name":"Asaka 2-tor kochasi"},{"Latitude":"41.3162367","Longitude":"69.3031008","Name":"Asaka ko'chasi"},{"Latitude":"41.2793250","Longitude":"69.3392247","Name":"Asalobod ko'chasi"},{"Latitude":"42.8371858","Longitude":"58.9954677","Name":"Asan Begimov ko'shesi"},{"Latitude":"42.4733761","Longitude":"59.5610563","Name":"Asanbiy ko'shesi"},{"Latitude":"42.4569590","Longitude":"59.5657212","Name":"Ashiq aydin ko'shesi"},{"Latitude":"42.3370862","Longitude":"59.5665849","Name":"Ashqabad ko'shesi"},{"Latitude":"42.5152480","Longitude":"59.6331594","Name":"Ashshi ko'l ko'shesi-1"},{"Latitude":"42.5149704","Longitude":"59.6340785","Name":"Ashshi ko'l ko'shesi-2"},{"Latitude":"40.3897989","Longitude":"71.8003020","Name":"Ashurova"},{"Latitude":"42.4467392","Longitude":"59.6055233","Name":"Ashxabad ko'shesi"},{"Latitude":"42.4467014","Longitude":"59.6027065","Name":"Ashxabad otkeli ko'shesi"},{"Latitude":"39.6563745","Longitude":"66.9284488","Name":"Ashxobod kuchasi"},{"Latitude":"41.3191300","Longitude":"69.1895390","Name":"Askad Muxtor 1-o'tish ko'chasi"},{"Latitude":"41.3215777","Longitude":"69.1899240","Name":"Askad Muxtor 2-o'tish ko'chasi"},{"Latitude":"41.2456769","Longitude":"69.1979967","Name":"Astrobod 1-berk ko'chasi"},{"Latitude":"41.2476411","Longitude":"69.2021526","Name":"Astrobod 1-o'tish ko'chasi"},{"Latitude":"38.2047480","Longitude":"67.2206460","Name":"At Termiziy"},{"Latitude":"37.4701924","Longitude":"67.1437727","Name":"At-Termiziy ko‘chasi"},{"Latitude":"42.4159590","Longitude":"59.6284305","Name":"Ata biy ko'shesi"},{"Latitude":"42.4430130","Longitude":"59.5895162","Name":"Ata eli ko'shesi"},{"Latitude":"42.4771512","Longitude":"59.6064442","Name":"Ata joli ko'shesi"},{"Latitude":"42.4772504","Longitude":"59.5565521","Name":"Ata makan guzari"},{"Latitude":"40.8098569","Longitude":"72.3380118","Name":"Atabekov ko'chasi"},{"Latitude":"42.4797327","Longitude":"59.5569802","Name":"Ataliq ko'shesi"},{"Latitude":"43.7618054","Longitude":"59.0271756","Name":"Atau ko'shesi"},{"Latitude":"41.3121988","Longitude":"69.1560946","Name":"Atoy 1-o'tish ko'chasi"},{"Latitude":"41.3106288","Longitude":"69.1565764","Name":"Atoy 3-o'tish ko'chasi"},{"Latitude":"41.3101753","Longitude":"69.1574628","Name":"Atoy 4-o'tish ko'chasi"},{"Latitude":"41.3095150","Longitude":"69.1573834","Name":"Atoy 5-o'tish ko'chasi"},{"Latitude":"41.3067733","Longitude":"69.1595255","Name":"Atoy 6-o'tish ko'chasi"},{"Latitude":"41.3026590","Longitude":"69.1608986","Name":"Atoy 8-o'tish ko'chasi"},{"Latitude":"41.8196745","Longitude":"59.9769667","Name":"Atçapar köçesi"},{"Latitude":"41.3234977","Longitude":"69.3575039","Name":"Avayhon ko'chasi"},{"Latitude":"41.3498869","Longitude":"69.2647383","Name":"Avaz O'tar 1-o'tish ko'chasi"},{"Latitude":"41.3492305","Longitude":"69.2668056","Name":"Avaz O'tar o'g'li ko'chasi"},{"Latitude":"42.4024372","Longitude":"59.6236773","Name":"Avesto ko'shesi"},{"Latitude":"39.6603580","Longitude":"66.9253104","Name":"Avesto kuchasi"},{"Latitude":"41.2931347","Longitude":"69.3354837","Name":"Aviasozlar 1-o'tish ko'chasi"},{"Latitude":"41.2861313","Longitude":"69.3432632","Name":"Aviasozlar 2-o'tish ko'chasi"},{"Latitude":"41.2930691","Longitude":"69.3442743","Name":"Aviasozlar 3-tor ko'chasi"},{"Latitude":"41.2941717","Longitude":"69.3455871","Name":"Aviasozlar 5-o'tish ko'chasi"},{"Latitude":"41.2960359","Longitude":"69.3465109","Name":"Aviasozlar 6-o'tish ko'chasi"},{"Latitude":"41.2921748","Longitude":"69.3398380","Name":"Aviasozlar ko'chasi"},{"Latitude":"41.5695738","Longitude":"60.9610224","Name":"Aviasozlar ko'shesi"},{"Latitude":"41.2916878","Longitude":"69.2758547","Name":"Avliyoota ko'chasi"},{"Latitude":"38.8117457","Longitude":"65.6442735","Name":"Avliyoqul Bo'ronov"},{"Latitude":"42.5165829","Longitude":"59.6093325","Name":"Awez qala ko'shesi"},{"Latitude":"42.4096005","Longitude":"59.6046448","Name":"Awmet ko'shesi"},{"Latitude":"41.3887165","Longitude":"69.2394520","Name":"Axrorobod 1-o'tish ko'chasi"},{"Latitude":"41.3880257","Longitude":"69.2391952","Name":"Axrorobod 2-o'tish ko'chasi"},{"Latitude":"41.3865479","Longitude":"69.2397424","Name":"Axrorobod 3-o'tish ko'chasi"},{"Latitude":"43.0140502","Longitude":"60.2872240","Name":"Axunbabaev ko'shesi"},{"Latitude":"37.6760434","Longitude":"67.0099183","Name":"Axunboboev ko'chasi"},{"Latitude":"42.4255310","Longitude":"59.6000347","Name":"Ay nuri ko'shesi"},{"Latitude":"42.5330771","Longitude":"59.6032580","Name":"Ay qulaq ko'shesi"},{"Latitude":"42.5299190","Longitude":"59.6061194","Name":"Ay tolqin ko'shesi"},{"Latitude":"42.4498985","Longitude":"59.6179973","Name":"Ayapbergen Musaev ko'shesi"},{"Latitude":"42.5318323","Longitude":"59.6026003","Name":"Ayaz qala ko'shesi"},{"Latitude":"41.6980276","Longitude":"60.7462125","Name":"Aybek ko'shesi"},{"Latitude":"43.0465741","Longitude":"58.8394270","Name":"Aybergenov ko'shesi"},{"Latitude":"42.4650538","Longitude":"59.5712507","Name":"Aybuyir ko'shesi"},{"Latitude":"42.4297176","Longitude":"59.6241673","Name":"Aydar jol ko'shesi"},{"Latitude":"42.4458938","Longitude":"59.5928015","Name":"Aydar ko'shesi"},{"Latitude":"42.3978679","Longitude":"59.6150562","Name":"Aydarko'l ko'shesi"},{"Latitude":"42.4001076","Longitude":"59.6140913","Name":"Aydarko'l o'tkeli"},{"Latitude":"42.5053475","Longitude":"59.5723716","Name":"Aydin jol ko'shesi"},{"Latitude":"42.4399309","Longitude":"59.5941639","Name":"Aydin ko'l ko'shesi"},{"Latitude":"42.8313511","Longitude":"59.0165973","Name":"Aydin ko'shesi"},{"Latitude":"42.8304696","Longitude":"59.0405463","Name":"Aydin kol ko'shesi"},{"Latitude":"42.4518294","Longitude":"59.6046116","Name":"Aydinlar ko'shesi"},{"Latitude":"42.4780676","Longitude":"59.5588641","Name":"Aydinli ko'shesi"},{"Latitude":"42.5098025","Longitude":"59.5758719","Name":"Aydos biy ko'shesi"},{"Latitude":"42.8432814","Longitude":"58.9942536","Name":"Aydos ko'shesi"},{"Latitude":"42.4287546","Longitude":"59.6276820","Name":"Aydos qala ko'shesi"},{"Latitude":"42.5147047","Longitude":"59.6167312","Name":"Aydosbiy ko'shesi"},{"Latitude":"42.4612237","Longitude":"59.6264127","Name":"Ayimxan Shamuratova ko'shesi"},{"Latitude":"42.4837794","Longitude":"59.4174864","Name":"Aylanba jol"},{"Latitude":"43.0373823","Longitude":"60.2664887","Name":"Aylanba joli"},{"Latitude":"42.4635042","Longitude":"59.5912927","Name":"Ayni o'tkeli"},{"Latitude":"42.4382337","Longitude":"59.5940324","Name":"Ayqulaq ko'shesi"},{"Latitude":"42.4457720","Longitude":"59.6106979","Name":"Ayqulash ko'shesi"},{"Latitude":"42.4756178","Longitude":"59.6022937","Name":"Ayteke Seytimbetov ko'shesi"},{"Latitude":"42.5158929","Longitude":"59.6310242","Name":"Ayteke batir ko'shesi"},{"Latitude":"42.4516560","Longitude":"59.5602357","Name":"Ayteke biy ko'shesi"},{"Latitude":"42.4674279","Longitude":"59.5806608","Name":"Azatliq ko'shesi"},{"Latitude":"42.3814373","Longitude":"59.6264358","Name":"Aziz ko'shesi"},{"Latitude":"43.7788751","Longitude":"59.0331924","Name":"Aziza Nurmuxanova ko'shesi"},{"Latitude":"40.0009703","Longitude":"64.6907148","Name":"Azizobod q - Vobkent sh - Aliyor q - Xo'ja Porso q - A380"},{"Latitude":"41.5452456","Longitude":"61.0022971","Name":"B. Aminov ko'shesi"},{"Latitude":"42.7685279","Longitude":"59.5988685","Name":"B. Aynazarov ko'shesi"},{"Latitude":"42.7772947","Longitude":"59.6061453","Name":"B. Baymensheev ko'shesi"},{"Latitude":"42.6735792","Longitude":"59.7324095","Name":"B. Eshmuratov ko'shesi"},{"Latitude":"40.9419288","Longitude":"68.7641830","Name":"B. Gafurov ko'chasi"},{"Latitude":"42.3735238","Longitude":"59.6183101","Name":"B. Iniyatov ko'shesi"},{"Latitude":"41.5593871","Longitude":"60.9694313","Name":"B. Jumaniyazov ko'shesi"},{"Latitude":"42.5163547","Longitude":"59.6102004","Name":"B. Karamatdinov ko'shesi"},{"Latitude":"40.3900028","Longitude":"71.7651478","Name":"B. Margiloniy"},{"Latitude":"41.8561119","Longitude":"60.3873242","Name":"B. Mashrab ko'chasi"},{"Latitude":"42.9202892","Longitude":"59.7979890","Name":"B. Nazarbekov ko'shesi"},{"Latitude":"42.6901682","Longitude":"59.7417741","Name":"B. Qazaqbaev ko'shesi"},{"Latitude":"42.4651712","Longitude":"59.5948330","Name":"B. Rametov ko'shesi"},{"Latitude":"42.7727675","Longitude":"59.6112527","Name":"B. Saparov ko'shesi"},{"Latitude":"38.8471124","Longitude":"65.7784375","Name":"B. Sherqulov ko'chasi"},{"Latitude":"43.0322871","Longitude":"60.0260669","Name":"B. Turdiyev ko'shesi"},{"Latitude":"40.4777021","Longitude":"71.7231929","Name":"B.Marg’iloniy ko’chasi"},{"Latitude":"42.5036407","Longitude":"59.6006923","Name":"Ba'rkamal a'wlad ko'shesi"},{"Latitude":"43.0497891","Longitude":"58.8388455","Name":"Babaniyazov ko‘shesi"},{"Latitude":"42.3337866","Longitude":"59.5730531","Name":"Babanov ko'shesi"},{"Latitude":"42.8379347","Longitude":"58.9995450","Name":"Babur ko'shesi"},{"Latitude":"37.2393856","Longitude":"67.2988359","Name":"Badamzar ko'chasi"},{"Latitude":"41.2448413","Longitude":"69.3209572","Name":"Badaxshon 1-o'tish ko'chasi"},{"Latitude":"41.3476029","Longitude":"69.1734187","Name":"Badaxshon 2-o'tish ko'chasi"},{"Latitude":"41.2711528","Longitude":"69.2262647","Name":"Badriddin Xiloli 1-o'tish ko'chasi"},{"Latitude":"41.2711528","Longitude":"69.2262647","Name":"Badriddin Xiloli 2-o'tish ko'chasi"},{"Latitude":"41.2711865","Longitude":"69.2245545","Name":"Badriddin Xiloli 3-o'tish ko'chasi"},{"Latitude":"42.4775114","Longitude":"59.5594933","Name":"Bag'li awi ko'shesi"},{"Latitude":"42.4322630","Longitude":"59.5976685","Name":"Bag'li el ko'shesi"},{"Latitude":"42.4312009","Longitude":"59.5988324","Name":"Bag'li el o'tkeli"},{"Latitude":"42.4806839","Longitude":"59.5699613","Name":"Bag'li qitay ko'shesi"},{"Latitude":"42.4477240","Longitude":"59.6055240","Name":"Bag'manlar ko'shesi"},{"Latitude":"42.4080283","Longitude":"59.6234524","Name":"Bag'manli ko'shesi"},{"Latitude":"42.4570914","Longitude":"59.6442743","Name":"Bag'shiliq ko'sehsi"},{"Latitude":"42.4687996","Longitude":"59.5726782","Name":"Bagdad ko'shesi"},{"Latitude":"42.4601272","Longitude":"59.5732866","Name":"Bagdad o'tkeli"},{"Latitude":"42.3996178","Longitude":"59.6336955","Name":"Bahadir dastani ko'shesi"},{"Latitude":"42.4569645","Longitude":"59.6406318","Name":"Bahar ko'shesi"},{"Latitude":"41.8173779","Longitude":"59.9877405","Name":"Bahar köçesi"},{"Latitude":"37.6627483","Longitude":"67.0130023","Name":"Bahor ko'chasi"},{"Latitude":"41.0464375","Longitude":"69.3587366","Name":"Bahor ko‘chasi"},{"Latitude":"39.9376230","Longitude":"64.3830557","Name":"Bahoriston ko‘chasi"},{"Latitude":"37.2500750","Longitude":"67.2826460","Name":"Bahouddin Naqshband ko'chasi"},{"Latitude":"39.7727405","Longitude":"64.4147092","Name":"Bahovaddin Naqshband ko'chasi"},{"Latitude":"39.6721155","Longitude":"66.9470444","Name":"Baku ko'chasi"},{"Latitude":"42.4588005","Longitude":"59.6397939","Name":"Baliqshi ko'shesi"},{"Latitude":"39.6560119","Longitude":"66.9882916","Name":"Balkh Street"},{"Latitude":"42.4470484","Longitude":"59.5702027","Name":"Balmagambetov ko'shesi"},{"Latitude":"42.4731806","Longitude":"59.5645578","Name":"Baltabaev ko'shesi"},{"Latitude":"42.4535430","Longitude":"59.5908171","Name":"Baltabay Ametov ko'shesi"},{"Latitude":"37.2268222","Longitude":"67.4348813","Name":"Bandar Hyratan to Joq Joq"},{"Latitude":"42.4745953","Longitude":"59.6436021","Name":"Baqiy Sarapov ko'shesi"},{"Latitude":"42.4040234","Longitude":"59.6145167","Name":"Baqshali ko'shesi"},{"Latitude":"42.4302593","Longitude":"59.4660062","Name":"Barak ko'shesi"},{"Latitude":"41.3826051","Longitude":"69.2666354","Name":"Baraka ko'chasi"},{"Latitude":"43.0624509","Longitude":"59.8614662","Name":"Barax batir ko'shesi"},{"Latitude":"41.4193157","Longitude":"69.4266940","Name":"Bardavom 2-tor"},{"Latitude":"41.3337438","Longitude":"69.1335395","Name":"Bardavon"},{"Latitude":"42.3756076","Longitude":"59.6212886","Name":"Barkamalko'shesi"},{"Latitude":"41.2237650","Longitude":"69.3198466","Name":"Barkamol ko'chasi"},{"Latitude":"42.4874789","Longitude":"59.5989248","Name":"Bashkurtostan ko'shesi"},{"Latitude":"42.4460903","Longitude":"59.5715275","Name":"Baxit ko'shesi"},{"Latitude":"42.4579711","Longitude":"59.5908242","Name":"Baxit qusi ko'shesi"},{"Latitude":"42.5129606","Longitude":"59.6018670","Name":"Baxitli el ko'shesi"},{"Latitude":"40.1236702","Longitude":"67.8666052","Name":"Baxmal ko'chasi"},{"Latitude":"40.1211371","Longitude":"67.8673752","Name":"Baxmalsoy 1-ko'chasi"},{"Latitude":"41.3629389","Longitude":"69.3181026","Name":"Baxor 1-berk ko'chasi"},{"Latitude":"42.4925227","Longitude":"59.6060707","Name":"Baxor ko'shesi"},{"Latitude":"41.3704900","Longitude":"69.3513759","Name":"Baxt ko'chasi"},{"Latitude":"39.7670000","Longitude":"64.3844923","Name":"Baxt koʻchasi"},{"Latitude":"41.0413376","Longitude":"69.3471504","Name":"Baxt ko‘chasi"},{"Latitude":"42.4678635","Longitude":"59.6229844","Name":"Baxtiyar Aknazarov ko'shesi"},{"Latitude":"42.4564513","Longitude":"59.6095140","Name":"Baylanisshi (S. Beknazar) ko'shesi"},{"Latitude":"42.4187376","Longitude":"59.6107238","Name":"Baylanisshi ko'shesi"},{"Latitude":"42.4953087","Longitude":"59.5921244","Name":"Baymaqli awil ko'shesi"},{"Latitude":"42.4038724","Longitude":"59.6185647","Name":"Baymaqli ko'shesi"},{"Latitude":"37.5001517","Longitude":"67.4254912","Name":"Baymurodov ko'chasi"},{"Latitude":"40.7941448","Longitude":"72.3533230","Name":"Baynalminal ko'chasi"},{"Latitude":"40.1356254","Longitude":"67.8133536","Name":"Baynalminalchilar ko’chasi"},{"Latitude":"41.2761068","Longitude":"69.1310299","Name":"Bayot 1-o'tish ko'chasi"},{"Latitude":"41.3172396","Longitude":"69.1731133","Name":"Bayroq 2-o'tish ko'chasi"},{"Latitude":"41.3182978","Longitude":"69.1758840","Name":"Bayroq 3-o'tish ko'chasi"},{"Latitude":"41.3722083","Longitude":"69.3280431","Name":"Bayroq tepa ko'chasi"},{"Latitude":"42.5194333","Longitude":"59.6144975","Name":"Bayshubar ko'shesi"},{"Latitude":"42.3910695","Longitude":"59.6313234","Name":"Baysun ko'shesi"},{"Latitude":"42.5095593","Longitude":"59.5688071","Name":"Bayterek ko'shesi"},{"Latitude":"39.6611762","Longitude":"66.9790699","Name":"Bazaar Street"},{"Latitude":"40.7599209","Longitude":"72.3818947","Name":"Bedil ko'chasi"},{"Latitude":"40.8577122","Longitude":"68.9256779","Name":"Begimqulov ko'chasi"},{"Latitude":"42.4694012","Longitude":"59.5833254","Name":"Begis ko'shesi"},{"Latitude":"41.5483369","Longitude":"61.0072601","Name":"Begjap ko'shesi"},{"Latitude":"39.6331381","Longitude":"66.9417954","Name":"Behzod ko'chasi"},{"Latitude":"42.4297206","Longitude":"59.6204738","Name":"Bek keldi ko'shesi"},{"Latitude":"42.9321192","Longitude":"59.7514427","Name":"Bekimbetov ko'shesi"},{"Latitude":"40.5484734","Longitude":"70.9742498","Name":"Beklarbegim ko'chasi"},{"Latitude":"42.4710981","Longitude":"59.6379148","Name":"Bekler begi ko'shesi"},{"Latitude":"42.6845111","Longitude":"59.7297995","Name":"Bekmuratov ko'shesi"},{"Latitude":"42.6848382","Longitude":"59.7262768","Name":"Beknazarov ko'shesi"},{"Latitude":"41.3239448","Longitude":"69.1729070","Name":"Bekobod 1-o'tish ko'chasi"},{"Latitude":"41.3243138","Longitude":"69.1720988","Name":"Bekobod 2-o'tish ko'chasi"},{"Latitude":"41.3245953","Longitude":"69.1718030","Name":"Bekobod 3-o'tish ko'chasi"},{"Latitude":"42.4296119","Longitude":"59.6258639","Name":"Bekpolatov ko'shesi"},{"Latitude":"42.4726764","Longitude":"59.6407926","Name":"Beleuli ko'shesi"},{"Latitude":"42.4121270","Longitude":"59.4482193","Name":"Belinskiy ko'shesi"},{"Latitude":"41.3460822","Longitude":"69.1698059","Name":"Beltepa 1-o'tish ko'chasi"},{"Latitude":"41.3468050","Longitude":"69.1734830","Name":"Beltepa 3-o'tish ko'chasi"},{"Latitude":"41.3461026","Longitude":"69.1728458","Name":"Beltepa 4-o'tish ko'chasi"},{"Latitude":"41.3452787","Longitude":"69.1729364","Name":"Beltepa 5-o'tish ko'chasi"},{"Latitude":"41.3443922","Longitude":"69.1729375","Name":"Beltepa 6-o'tish ko'chasi"},{"Latitude":"41.3438119","Longitude":"69.1729457","Name":"Beltepa 7-o'tish ko'chasi"},{"Latitude":"41.3431032","Longitude":"69.1684714","Name":"Beltepa 8-o'tish ko'chasi"},{"Latitude":"41.3346443","Longitude":"69.1639204","Name":"Beltepa ko'chasi"},{"Latitude":"41.2728432","Longitude":"69.2159736","Name":"Berdak ko'chasi"},{"Latitude":"43.0012837","Longitude":"59.3481997","Name":"Berdaq guzari"},{"Latitude":"42.1182285","Longitude":"60.0583418","Name":"Berdaq ko'shesi"},{"Latitude":"42.4610342","Longitude":"59.6353388","Name":"Berdaq o'tkeli"},{"Latitude":"42.4450861","Longitude":"59.5797546","Name":"Berdi Kerbabaev ko'shesi"},{"Latitude":"42.4379773","Longitude":"59.6237566","Name":"Berdibaev ko'shesi"},{"Latitude":"42.4466791","Longitude":"59.6480304","Name":"Berdimurat Panaev ko'shesi"},{"Latitude":"39.6557009","Longitude":"66.9249544","Name":"Berdox kuchasi"},{"Latitude":"41.8369954","Longitude":"59.9877598","Name":"Bereket köçesi"},{"Latitude":"42.4020494","Longitude":"59.6136340","Name":"Bereketli to'be ko'shesi"},{"Latitude":"43.0256628","Longitude":"60.2794573","Name":"Berumiy ko'shesi"},{"Latitude":"43.0467597","Longitude":"58.8435960","Name":"Beruniy (R. Abdullaev) ko'shesi"},{"Latitude":"40.9207455","Longitude":"72.1187412","Name":"Beruniy ko'chasi"},{"Latitude":"42.4412691","Longitude":"59.6240104","Name":"Beruniy ko'shesi"},{"Latitude":"40.4958537","Longitude":"68.7619367","Name":"Beruniy ko`chasi"},{"Latitude":"41.3452655","Longitude":"69.2068523","Name":"Beruniy shoh ko'chasi"},{"Latitude":"42.4784516","Longitude":"59.5511576","Name":"Bes qala ko'shesi"},{"Latitude":"42.4812240","Longitude":"59.5480220","Name":"Bes sag'a ko'shesi"},{"Latitude":"42.4297338","Longitude":"59.6193272","Name":"Besbolis ko'shesi"},{"Latitude":"41.2897362","Longitude":"69.3525322","Name":"Beshariq 1-o'tish ko'chasi"},{"Latitude":"41.2896994","Longitude":"69.3535478","Name":"Beshariq 3-o'tish ko'chasi"},{"Latitude":"41.2844412","Longitude":"69.3428488","Name":"Beshariq ko'chasi"},{"Latitude":"41.3215131","Longitude":"69.2006584","Name":"Beshkayrogoch ko'chasi"},{"Latitude":"38.8169206","Longitude":"65.6672632","Name":"Beshkent ariq ko‘chasi"},{"Latitude":"38.8252331","Longitude":"65.6980109","Name":"Beshkent yoʻli"},{"Latitude":"41.3289951","Longitude":"69.3117054","Name":"Beshog'aynilar ko'chasi"},{"Latitude":"40.8862954","Longitude":"69.0182036","Name":"Beshovil ko'chasi"},{"Latitude":"41.3101766","Longitude":"69.1617422","Name":"Beshqayrag'och 1-o'tish ko'chasi"},{"Latitude":"41.3106544","Longitude":"69.1614589","Name":"Beshqayrag'och 2-o'tish ko'chasi"},{"Latitude":"41.3093787","Longitude":"69.1682400","Name":"Beshqayrag'och 3-o'tish ko'chasi"},{"Latitude":"41.3692372","Longitude":"69.1989158","Name":"Beshqo'rg'on 1-berk ko'chasi"},{"Latitude":"41.2333397","Longitude":"69.1739254","Name":"Beshqo'rg'on 2-berk ko'chasi"},{"Latitude":"41.2278197","Longitude":"69.1752779","Name":"Beshqo'rg'on 3-o'tish ko'chasi"},{"Latitude":"41.2370108","Longitude":"69.1706697","Name":"Beshqo'rg'on 4-o'tish ko'chasi"},{"Latitude":"41.2387712","Longitude":"69.1690749","Name":"Beshqo'rg'on 5-o'tish ko'chasi"},{"Latitude":"41.2365185","Longitude":"69.1700822","Name":"Beshqo'rg'on 6-o'tish ko'chasi"},{"Latitude":"41.2391728","Longitude":"69.1732666","Name":"Beshqo'rg'on berk ko'chasi"},{"Latitude":"41.2343402","Longitude":"69.1748839","Name":"Beshqo'rg'on ko'chasi"},{"Latitude":"41.3709535","Longitude":"69.1935948","Name":"Beshqo'rg'on o'tish ko'chasi"},{"Latitude":"40.1281998","Longitude":"64.7851056","Name":"Beshtuvo ko'chasi"},{"Latitude":"41.3136436","Longitude":"69.2369994","Name":"Beshyog'och ko'chasi"},{"Latitude":"42.4390158","Longitude":"59.5870956","Name":"Besperde ko'shesi"},{"Latitude":"42.3387583","Longitude":"59.7494373","Name":"Besto'be №1 ko'shesi"},{"Latitude":"42.3372360","Longitude":"59.7481286","Name":"Besto'be №11 ko'shesi"},{"Latitude":"42.3372374","Longitude":"59.7457583","Name":"Besto'be №12 ko'shesi"},{"Latitude":"42.3416377","Longitude":"59.7503443","Name":"Besto'be №2 ko'shesi"},{"Latitude":"42.3397978","Longitude":"59.7473224","Name":"Besto'be №3 ko'shesi"},{"Latitude":"42.3417993","Longitude":"59.7476653","Name":"Besto'be №4 ko'shesi"},{"Latitude":"42.3431105","Longitude":"59.7472738","Name":"Besto'be №5 ko'shesi"},{"Latitude":"42.3421159","Longitude":"59.7450715","Name":"Besto'be №6 ko'shesi"},{"Latitude":"42.3440499","Longitude":"59.7452416","Name":"Besto'be №7 ko'shesi"},{"Latitude":"42.3445173","Longitude":"59.7442305","Name":"Besto'be №8 ko'shesi"},{"Latitude":"42.3402384","Longitude":"59.7463291","Name":"Besto'be №9 ko'shesi"},{"Latitude":"42.3928621","Longitude":"59.4305574","Name":"Beynew ko'shesi"},{"Latitude":"39.6585955","Longitude":"66.9782328","Name":"Bibi Xonim ko'chasi"},{"Latitude":"40.3632177","Longitude":"71.8332071","Name":"Bibi-Khanum ko'chasi"},{"Latitude":"38.2662856","Longitude":"67.9173081","Name":"Bibixonim ko'chasi"},{"Latitude":"42.4113986","Longitude":"59.6280706","Name":"Bidayli ko'shesi"},{"Latitude":"42.4562987","Longitude":"59.5673443","Name":"Bilim bulag'i ko'shesi"},{"Latitude":"42.5264011","Longitude":"59.5942742","Name":"Bilim ko'shesi"},{"Latitude":"42.4408083","Longitude":"59.5942464","Name":"Bilim nuri ko'shesi"},{"Latitude":"42.4560241","Longitude":"59.6368465","Name":"Bilimdanlar ko'shesi"},{"Latitude":"41.2541871","Longitude":"69.3170352","Name":"Bilimdon ko'chasi"},{"Latitude":"42.4707698","Longitude":"59.5873844","Name":"Bilimliler guzari"},{"Latitude":"41.2348265","Longitude":"69.3441607","Name":"Biliol Nozim ko'chasi"},{"Latitude":"41.2287217","Longitude":"69.3393867","Name":"Billur 3-o'tish ko'chasi"},{"Latitude":"41.3389237","Longitude":"69.3588438","Name":"Binokor 4-berk ko'chasi"},{"Latitude":"41.5568686","Longitude":"60.6649123","Name":"Binokor ko'cha"},{"Latitude":"41.3408388","Longitude":"69.3575527","Name":"Binokor ko'chasi"},{"Latitude":"40.8521448","Longitude":"69.5937094","Name":"Birdamlik ko'chasi"},{"Latitude":"41.2919935","Longitude":"69.3474989","Name":"Birlashgan 2-berk ko'chasi"},{"Latitude":"41.2926950","Longitude":"69.3506609","Name":"Birlashgan 4-o'tish ko'chasi"},{"Latitude":"41.2926950","Longitude":"69.3506609","Name":"Birlashgan 5-o'tish ko'chasi"},{"Latitude":"41.2814790","Longitude":"69.3522558","Name":"Birlashgan 6-o'tish ko'chasi"},{"Latitude":"41.2874550","Longitude":"69.3434658","Name":"Birlashgan ko'chasi"},{"Latitude":"40.5043323","Longitude":"68.7710899","Name":"Birlashgan ko’chasi"},{"Latitude":"42.8366377","Longitude":"59.0156982","Name":"Birlik 1 ko'shesi"},{"Latitude":"39.6621721","Longitude":"66.9592517","Name":"Birlik ko'chasi"},{"Latitude":"42.9430563","Longitude":"59.7694221","Name":"Birlik ko'shesi"},{"Latitude":"41.1904108","Longitude":"69.2133233","Name":"Birodarlik ko'chasi"},{"Latitude":"42.4530921","Longitude":"59.5680426","Name":"Bishkek ko'shesi"},{"Latitude":"39.4920197","Longitude":"63.8584734","Name":"Bo'gi shamol ko'chasi"},{"Latitude":"42.4726785","Longitude":"59.5554846","Name":"Bo'rshi taw ko'shesi"},{"Latitude":"41.3433843","Longitude":"69.1937989","Name":"Bo'ston 1-berk ko'chasi"},{"Latitude":"41.3834190","Longitude":"69.2169434","Name":"Bo'ston 1-ko'chasi"},{"Latitude":"41.3461943","Longitude":"69.1950406","Name":"Bo'ston 1-o'tish ko'chasi"},{"Latitude":"41.3834190","Longitude":"69.2169434","Name":"Bo'ston 2-ko'chasi"},{"Latitude":"41.3840082","Longitude":"69.2162078","Name":"Bo'ston 3-ko'chasi"},{"Latitude":"41.3845800","Longitude":"69.2155757","Name":"Bo'ston 4-ko'chasi"},{"Latitude":"41.3852602","Longitude":"69.2164182","Name":"Bo'ston 5-ko'chasi"},{"Latitude":"41.3409301","Longitude":"69.1833199","Name":"Bo'ston 6-o'tish ko'chasi"},{"Latitude":"41.1172743","Longitude":"69.0686436","Name":"Bo'ston ko'chasi"},{"Latitude":"40.1499407","Longitude":"67.8406009","Name":"Bo'stonlik ko'chasi"},{"Latitude":"41.5632978","Longitude":"69.7749734","Name":"Bo'stonliq ko'chasi"},{"Latitude":"39.6525468","Longitude":"66.9620416","Name":"Bo'stonsaroy ko'chasi"},{"Latitude":"41.3232946","Longitude":"69.3262132","Name":"Bo'zbozor 1-o'tish ko'chasi"},{"Latitude":"41.3195922","Longitude":"69.3246958","Name":"Bo'zbozor 2-o'tish ko'chasi"},{"Latitude":"41.3198460","Longitude":"69.3235895","Name":"Bo'zbozor 3-o'tish ko'chasi"},{"Latitude":"41.3210900","Longitude":"69.3236472","Name":"Bo'zbozor 4-o'tish ko'chasi"},{"Latitude":"41.3217872","Longitude":"69.3246344","Name":"Bo'zbozor 5-o'tish ko'chasi"},{"Latitude":"41.3218896","Longitude":"69.3254887","Name":"Bo'zbozor 6-o'tish ko'chasi"},{"Latitude":"41.3169393","Longitude":"69.3250059","Name":"Bo'zbozor 7-o'tish ko'chasi"},{"Latitude":"41.3190136","Longitude":"69.3256493","Name":"Bo'zbozor 8-o'tish ko'chasi"},{"Latitude":"41.3191373","Longitude":"69.3265318","Name":"Bo'zbozor 9-o'tish ko'chasi"},{"Latitude":"41.8366098","Longitude":"60.9045296","Name":"Bo`stan ko'shesi"},{"Latitude":"41.3827888","Longitude":"69.3102132","Name":"Bobodexqon 1-o'tish ko'chasi"},{"Latitude":"40.7519369","Longitude":"72.3379207","Name":"Boborahim Mashrab ko'chasi"},{"Latitude":"40.3853694","Longitude":"71.7780569","Name":"Bobur"},{"Latitude":"39.6421338","Longitude":"66.9499981","Name":"Bobur Mirzo ko'chasi"},{"Latitude":"40.7152775","Longitude":"72.6484622","Name":"Bobur Street"},{"Latitude":"40.1215564","Longitude":"67.8319041","Name":"Bobur berk ko'chasi"},{"Latitude":"41.2986877","Longitude":"69.2494525","Name":"Bobur ko'chasi"},{"Latitude":"41.2950068","Longitude":"69.2491996","Name":"Bobur ko'chasi 1-berk ko'chasi"},{"Latitude":"42.4222355","Longitude":"59.4560092","Name":"Bobur ko'shesi"},{"Latitude":"41.0403615","Longitude":"69.3438662","Name":"Bobur ko‘chasi"},{"Latitude":"40.7872803","Longitude":"72.3320471","Name":"Bobur shoh ko'chasi"},{"Latitude":"40.7273876","Longitude":"72.8855773","Name":"Boburshax ko'chasi"},{"Latitude":"40.5002150","Longitude":"72.3374457","Name":"Boburshoh ko`chasi"},{"Latitude":"41.3429512","Longitude":"69.2880899","Name":"Bodomzor 1-o'tish ko'chasi"},{"Latitude":"41.3428585","Longitude":"69.2889900","Name":"Bodomzor 10-o'tish ko'chasi"},{"Latitude":"41.3426480","Longitude":"69.2909511","Name":"Bodomzor 3-o'tish ko'chasi"},{"Latitude":"41.3424488","Longitude":"69.2928115","Name":"Bodomzor 5-o'tish ko'chasi"},{"Latitude":"41.3421321","Longitude":"69.2956548","Name":"Bodomzor 6-o'tish ko'chasi"},{"Latitude":"41.3422544","Longitude":"69.2947130","Name":"Bodomzor 7-o'tish ko'chasi"},{"Latitude":"41.3435779","Longitude":"69.2920782","Name":"Bodomzor 8-o'tish ko'chasi"},{"Latitude":"41.3415959","Longitude":"69.2907563","Name":"Bodomzor ko'chasi"},{"Latitude":"41.3291890","Longitude":"69.2952816","Name":"Bodomzor yo'l 1-o'tish ko'chasi"},{"Latitude":"41.3321140","Longitude":"69.2129898","Name":"Bog' 1-o'tish ko'chasi"},{"Latitude":"40.9045235","Longitude":"71.4643264","Name":"Bog' ko'chasi"},{"Latitude":"41.5584194","Longitude":"60.9814961","Name":"Bog' ko'shesi"},{"Latitude":"41.2812423","Longitude":"69.2715530","Name":"Bog'baland ko'chasi"},{"Latitude":"41.3512912","Longitude":"69.2686918","Name":"Bog'cha ko'chasi"},{"Latitude":"39.6763690","Longitude":"66.9331239","Name":"Bog'dod ko'chasi"},{"Latitude":"40.4215298","Longitude":"67.1821666","Name":"Bog'don ko'chasi"},{"Latitude":"39.6830440","Longitude":"66.9944774","Name":"Bog'i baland"},{"Latitude":"39.6848769","Longitude":"66.9917578","Name":"Bog'i baland ko'chasi"},{"Latitude":"41.2800890","Longitude":"69.2712092","Name":"Bog'ibaland 1-o'tish ko'chasi"},{"Latitude":"41.2695108","Longitude":"69.2294741","Name":"Bog'ibuston 2-o'tish ko'chasi"},{"Latitude":"41.2722292","Longitude":"69.2309833","Name":"Bog'ibuston 3-o'tish ko'chasi"},{"Latitude":"41.3455027","Longitude":"69.2959483","Name":"Bog'ieram 1-o'tish ko'chasi"},{"Latitude":"41.3459491","Longitude":"69.2957244","Name":"Bog'ieram 2-o'tish ko'chasi"},{"Latitude":"41.3460751","Longitude":"69.2943610","Name":"Bog'ieram 3-o'tish ko'chasi"},{"Latitude":"41.3451634","Longitude":"69.2948305","Name":"Bog'ieram ko'chasi"},{"Latitude":"39.7801011","Longitude":"64.4512036","Name":"Bog'ishamol ko'chasi"},{"Latitude":"41.2986476","Longitude":"69.2522256","Name":"Bog'tepa 1-o'tish ko'chasi"},{"Latitude":"41.2982829","Longitude":"69.2539344","Name":"Bog'tepa 2-o'tish ko'chasi"},{"Latitude":"41.2974826","Longitude":"69.2545157","Name":"Bog'tepa 3-o'tish ko'chasi"},{"Latitude":"41.2971402","Longitude":"69.2533564","Name":"Bog'tepa 4-o'tish ko'chasi"},{"Latitude":"41.2971042","Longitude":"69.2508986","Name":"Bog'tepa 5-o'tish ko'chasi"},{"Latitude":"41.2977950","Longitude":"69.2542553","Name":"Bog'tepa ko'chasi"},{"Latitude":"40.4218349","Longitude":"67.1788984","Name":"Bog'u-bo'ston ko'chasi"},{"Latitude":"41.2644959","Longitude":"69.2228398","Name":"Bogibuston 4-o'tish ko'chasi"},{"Latitude":"41.3258181","Longitude":"69.1822682","Name":"Bogichinor 1-o'tish ko'chasi"},{"Latitude":"41.3266092","Longitude":"69.1811546","Name":"Bogichinor 2-o'tish ko'chasi"},{"Latitude":"41.3262569","Longitude":"69.1809218","Name":"Bogichinor ko'chasi"},{"Latitude":"41.3505885","Longitude":"69.2677256","Name":"Bogiravon 2-o'tish ko'chasi"},{"Latitude":"41.3524242","Longitude":"69.3323503","Name":"Bogishamol 3-o'tish ko'chasi"},{"Latitude":"41.3397406","Longitude":"69.2857170","Name":"Bogishamol ko'chasi"},{"Latitude":"41.3356766","Longitude":"69.3141664","Name":"Bogishamol o'tish ko'chasi"},{"Latitude":"41.3574755","Longitude":"69.3262893","Name":"Bogiston 1-o'tish ko'chasi"},{"Latitude":"41.3577447","Longitude":"69.3254659","Name":"Bogiston 2-o'tish ko'chasi"},{"Latitude":"41.3580646","Longitude":"69.3243724","Name":"Bogiston 3-o'tish ko'chasi"},{"Latitude":"41.2624106","Longitude":"69.1950759","Name":"Bogobod 1-o'tish ko'chasi"},{"Latitude":"41.2615128","Longitude":"69.1941652","Name":"Bogodob ko'chasi"},{"Latitude":"41.2921469","Longitude":"69.3184184","Name":"Boku 1-berk ko'chasi"},{"Latitude":"41.2888675","Longitude":"69.3095926","Name":"Boku 1-o'tish ko'chasi"},{"Latitude":"41.2926746","Longitude":"69.3165914","Name":"Boku 3-o'tish ko'chasi"},{"Latitude":"41.2895153","Longitude":"69.3091401","Name":"Boku ko'chasi"},{"Latitude":"41.1900309","Longitude":"71.7312518","Name":"Bolnitsa yoni ko'chasi"},{"Latitude":"42.4013439","Longitude":"59.4222227","Name":"Bolshevik ko'shesi"},{"Latitude":"41.3260984","Longitude":"69.1831622","Name":"Boltayev 1-o'tish ko'chasi"},{"Latitude":"41.3254020","Longitude":"69.1843003","Name":"Boltayev 2-o'tish ko'chasi"},{"Latitude":"41.2416378","Longitude":"69.3903216","Name":"Bordonko'l ko'chasi"},{"Latitude":"41.1261719","Longitude":"69.4346398","Name":"Borsa kelmas"},{"Latitude":"41.3442920","Longitude":"69.1990058","Name":"Bos`ton 5"},{"Latitude":"41.2881786","Longitude":"69.1449290","Name":"Bositxon 1-o'tish ko'chasi"},{"Latitude":"41.2865445","Longitude":"69.1446542","Name":"Bositxon 2-o'tish ko'chasi"},{"Latitude":"41.2849809","Longitude":"69.1453982","Name":"Bositxon 3-o'tish ko'chasi"},{"Latitude":"41.2849452","Longitude":"69.1440513","Name":"Bositxon 4-o'tish ko'chasi"},{"Latitude":"41.2792386","Longitude":"69.1420226","Name":"Bositxon 5-o'tish ko'chasi"},{"Latitude":"41.2788952","Longitude":"69.1407605","Name":"Bositxon 6-o'tish ko'chasi"},{"Latitude":"41.2792483","Longitude":"69.1400149","Name":"Bositxon 7-o'tish ko'chasi"},{"Latitude":"41.2795979","Longitude":"69.1392141","Name":"Bositxon 8-o'tish ko'chasi"},{"Latitude":"42.9417976","Longitude":"59.7660482","Name":"Bostan ko'shesi"},{"Latitude":"42.9422620","Longitude":"59.7647831","Name":"Bostan o'tkeli"},{"Latitude":"42.9405629","Longitude":"59.7664881","Name":"Bostan tupik"},{"Latitude":"42.4087735","Longitude":"59.6243288","Name":"Bota ko'z ko'shesi"},{"Latitude":"41.4454265","Longitude":"69.5522638","Name":"Botanika ko'chasi"},{"Latitude":"42.4818145","Longitude":"59.5997712","Name":"Botanika ko'shesi"},{"Latitude":"39.7203628","Longitude":"64.5320297","Name":"Botir Zokirov ko'chasi"},{"Latitude":"41.2728089","Longitude":"69.1982110","Name":"Botirma ko'chasi"},{"Latitude":"41.3068749","Longitude":"69.3090292","Name":"Botkin ko'chasi"},{"Latitude":"41.3099131","Longitude":"69.3205396","Name":"Botkin tor ko'chasi"},{"Latitude":"41.3611887","Longitude":"69.3767706","Name":"Boychechak ko`chasi"},{"Latitude":"40.7792998","Longitude":"71.7151866","Name":"Boylik"},{"Latitude":"38.8186344","Longitude":"65.6609092","Name":"Boymurod Ergashev"},{"Latitude":"41.3141538","Longitude":"69.3144923","Name":"Boyqo'rg'on 1-tor ko'chasi"},{"Latitude":"40.1018816","Longitude":"67.8598745","Name":"Boyqo'zi Alimov ko'chasi"},{"Latitude":"41.2844492","Longitude":"69.3201750","Name":"Boysun 1-o'tish ko'chasi"},{"Latitude":"41.2828816","Longitude":"69.3204556","Name":"Boysun ko'chasi"},{"Latitude":"38.1120189","Longitude":"67.0402081","Name":"Boysun road"},{"Latitude":"41.3972933","Longitude":"69.2002979","Name":"Boytepa 1 o'tish ko'chasi"},{"Latitude":"41.3969513","Longitude":"69.1994047","Name":"Boytepa 2 o'tish ko'chasi"},{"Latitude":"41.3970835","Longitude":"69.1978989","Name":"Boytepa 3 o'tish ko'chasi"},{"Latitude":"41.3950104","Longitude":"69.1989849","Name":"Boytepa 4 o'tish ko'chasi"},{"Latitude":"41.3961906","Longitude":"69.1962665","Name":"Boytepa 5 o'tish ko'chasi"},{"Latitude":"41.3956393","Longitude":"69.1954727","Name":"Boytepa 6 o'tish ko'chasi"},{"Latitude":"41.3950861","Longitude":"69.1946596","Name":"Boytepa 7 o'tish ko'chasi"},{"Latitude":"41.3949609","Longitude":"69.1991221","Name":"Boytepa ko'chasi"},{"Latitude":"42.4431822","Longitude":"59.5940513","Name":"Boz awil ko'shesi"},{"Latitude":"42.5154696","Longitude":"59.6220101","Name":"Bozataw ko'shesi"},{"Latitude":"42.4176524","Longitude":"59.6024599","Name":"Bozli ko'shesi"},{"Latitude":"39.6455997","Longitude":"66.9355250","Name":"Bozorova"},{"Latitude":"41.2906828","Longitude":"69.2556203","Name":"Bratislava ko'chasi"},{"Latitude":"42.4119819","Longitude":"59.6206542","Name":"Bu'rkitli ko'shesi"},{"Latitude":"42.4320664","Longitude":"59.4727342","Name":"Budyonniy ko'shesi"},{"Latitude":"39.6561570","Longitude":"66.9834482","Name":"Bukhara ko'chasi"},{"Latitude":"42.5328752","Longitude":"59.6065225","Name":"Bulaq ko'shesi"},{"Latitude":"42.4584910","Longitude":"59.5885120","Name":"Bulatov ko'shesi"},{"Latitude":"39.6431919","Longitude":"66.9431595","Name":"Buloq ko'chasi"},{"Latitude":"41.4030357","Longitude":"69.4496213","Name":"Buloqsoy 1-o'tish ko'chasi"},{"Latitude":"41.4090846","Longitude":"69.4640432","Name":"Buloqsoy 2-o'tish ko'chasi"},{"Latitude":"41.4087989","Longitude":"69.4635819","Name":"Buloqsoy 3-o'tish ko'chasi"},{"Latitude":"41.4028316","Longitude":"69.4564826","Name":"Buloqsoy ko'chasi"},{"Latitude":"41.2678052","Longitude":"69.3582955","Name":"Bunyodkor 1-o'tish ko'chasi"},{"Latitude":"41.2683832","Longitude":"69.3578096","Name":"Bunyodkor 2-o'tish ko'chasi"},{"Latitude":"41.2683832","Longitude":"69.3578096","Name":"Bunyodkor 3-o'tish ko'chasi"},{"Latitude":"39.7497017","Longitude":"64.1758848","Name":"Bunyodkor ko'chasi"},{"Latitude":"42.5039943","Longitude":"59.5918963","Name":"Bunyodkor ko'shesi"},{"Latitude":"41.2464444","Longitude":"69.1765791","Name":"Bunyodkor shoh ko'chasi"},{"Latitude":"42.4297265","Longitude":"59.6217197","Name":"Burkitli qala ko'shesi"},{"Latitude":"40.3889658","Longitude":"71.7730901","Name":"Bursa ko'chasi"},{"Latitude":"41.1163245","Longitude":"69.0675290","Name":"Buston 2-o'tish ko'chasi"},{"Latitude":"41.3438587","Longitude":"69.1943147","Name":"Buston Street"},{"Latitude":"40.5021310","Longitude":"68.7797850","Name":"Buston k`ochasi"},{"Latitude":"41.5421947","Longitude":"61.0122022","Name":"Buston ko'shesi"},{"Latitude":"40.7840952","Longitude":"72.3589036","Name":"Buvasadin ko'chasi"},{"Latitude":"41.4006298","Longitude":"69.3700047","Name":"Buvra ota ko'chasi"},{"Latitude":"42.4577806","Longitude":"59.5652166","Name":"Buxara ko'shesi"},{"Latitude":"41.3100937","Longitude":"69.2709801","Name":"Buxoro ko'chasi"},{"Latitude":"39.7233650","Longitude":"64.5472135","Name":"Buxoro shoh ko'chasi"},{"Latitude":"41.3321011","Longitude":"69.3499009","Name":"Buyuk Ipak Yo'li ko'chasi"},{"Latitude":"40.2173804","Longitude":"69.2660863","Name":"Buyuk Ipak yo'li"},{"Latitude":"41.3135419","Longitude":"69.2710583","Name":"Buyuk Turon ko'chasi"},{"Latitude":"40.7598319","Longitude":"72.3503874","Name":"Buyuk Turon tor ko'chasi"},{"Latitude":"40.8413077","Longitude":"68.6545691","Name":"Buyuk Zamin ko'chasi"},{"Latitude":"41.3192929","Longitude":"69.3276423","Name":"Buzbozor kochasi"},{"Latitude":"41.3022301","Longitude":"69.1701630","Name":"Chagminiy 1-o'tish ko'chasi"},{"Latitude":"41.3008790","Longitude":"69.1701588","Name":"Chagminiy 2-o'tish ko'chasi"},{"Latitude":"41.2995329","Longitude":"69.1706429","Name":"Chagminiy 3-o'tish ko'chasi"},{"Latitude":"41.2987229","Longitude":"69.1712239","Name":"Chagminiy 4-o'tish ko'chasi"},{"Latitude":"41.2978930","Longitude":"69.1705320","Name":"Chagminiy 5-o'tish ko'chasi"},{"Latitude":"41.2829946","Longitude":"69.2805446","Name":"Chambil 1-berk ko'chasi"},{"Latitude":"41.2829749","Longitude":"69.2813958","Name":"Chambil 2-berk ko'chasi"},{"Latitude":"41.2825049","Longitude":"69.2811571","Name":"Chambil 3-berk ko'chasi"},{"Latitude":"41.2817612","Longitude":"69.2833109","Name":"Chambil 4-berk ko'chasi"},{"Latitude":"41.2833277","Longitude":"69.2819123","Name":"Chambil ko'chasi"},{"Latitude":"41.0735197","Longitude":"69.5862658","Name":"Chargos ko'chasi"},{"Latitude":"41.1165516","Longitude":"69.0627185","Name":"Charikov ko'chasi"},{"Latitude":"39.7674401","Longitude":"64.4001820","Name":"Charmgaron ko'chasi"},{"Latitude":"41.6332500","Longitude":"69.9429191","Name":"Charog`on"},{"Latitude":"41.3302287","Longitude":"69.3370396","Name":"Charog‘on 1-tor ko‘chasi"},{"Latitude":"40.9990030","Longitude":"71.2329383","Name":"Charog‘on ko‘chasi"},{"Latitude":"42.4999313","Longitude":"59.5988749","Name":"Charsu (D. Seytekov) ko'shesi"},{"Latitude":"41.2580709","Longitude":"69.3271585","Name":"Chashma 1-o'tish ko'chasi"},{"Latitude":"41.2517195","Longitude":"69.3323200","Name":"Chashma 2-o'tish ko'chasi"},{"Latitude":"41.2526223","Longitude":"69.3361515","Name":"Chashma 3-o'tish ko'chasi"},{"Latitude":"41.2512911","Longitude":"69.3351826","Name":"Chashma 4-o'tish ko'chasi"},{"Latitude":"41.2533460","Longitude":"69.3335964","Name":"Chashma ko'chasi"},{"Latitude":"41.2822254","Longitude":"69.2829409","Name":"Chavandoz ko'chasi"},{"Latitude":"40.5729490","Longitude":"71.0887634","Name":"Chek yoʻli"},{"Latitude":"41.3075193","Longitude":"69.1552884","Name":"Chevar 1-o'tish ko'chasi"},{"Latitude":"41.3075534","Longitude":"69.1548477","Name":"Chevar 2-o'tish ko'chasi"},{"Latitude":"41.3067521","Longitude":"69.1579499","Name":"Chevar 3-o'tish ko'chasi"},{"Latitude":"41.3078464","Longitude":"69.1593429","Name":"Chevar 4-o'tish ko'chasi"},{"Latitude":"41.3067521","Longitude":"69.1579499","Name":"Chevar 5-o'tish ko'chasi"},{"Latitude":"41.3026322","Longitude":"69.1555915","Name":"Chevar Kocha"},{"Latitude":"39.6406210","Longitude":"66.9501589","Name":"Chexov ko'chasi"},{"Latitude":"42.4097458","Longitude":"59.4638443","Name":"Chexov ko'shesi"},{"Latitude":"41.3523430","Longitude":"69.1862964","Name":"Chigatoy Oqtepa 1-o'tish ko'chasi"},{"Latitude":"41.3552036","Longitude":"69.1919502","Name":"Chigatoy Oqtepa 10-o'tish ko'chasi"},{"Latitude":"41.3545257","Longitude":"69.1892459","Name":"Chigatoy Oqtepa 11-o'tish ko'chasi"},{"Latitude":"41.3558571","Longitude":"69.1886068","Name":"Chigatoy Oqtepa 12-o'tish ko'chasi"},{"Latitude":"41.3552470","Longitude":"69.1876779","Name":"Chigatoy Oqtepa 13-o'tish ko'chasi"},{"Latitude":"41.3500487","Longitude":"69.1869566","Name":"Chigatoy Oqtepa 3-o'tish ko'chasi"},{"Latitude":"41.3564882","Longitude":"69.1887058","Name":"Chigatoy Oqtepa 4-o'tish ko'chasi"},{"Latitude":"41.3540807","Longitude":"69.1888125","Name":"Chigatoy Oqtepa 5-o'tish ko'chasi"},{"Latitude":"41.3553484","Longitude":"69.1799753","Name":"Chigatoy Oqtepa 6-o'tish ko'chasi"},{"Latitude":"41.3540850","Longitude":"69.1944570","Name":"Chigatoy Oqtepa 9-o'tish ko'chasi"},{"Latitude":"41.3515382","Longitude":"69.1894643","Name":"Chigatoy Oqtepa ko'chasi"},{"Latitude":"41.0017854","Longitude":"70.0555669","Name":"Chikrizov ko'chasi"},{"Latitude":"37.2387790","Longitude":"67.2994617","Name":"Chilanzar ko'chasi"},{"Latitude":"42.4530045","Longitude":"59.5960935","Name":"Chilanzar ko'shesi"},{"Latitude":"41.3115769","Longitude":"69.3416156","Name":"Chilituron 1-o'tish ko'chasi"},{"Latitude":"41.3125034","Longitude":"69.3410033","Name":"Chilituron ko'chasi"},{"Latitude":"41.2701345","Longitude":"69.3492714","Name":"Chilonota 1-o'tish ko'chasi"},{"Latitude":"41.2688337","Longitude":"69.3489002","Name":"Chilonota 3-o'tish ko'chasi"},{"Latitude":"41.2695972","Longitude":"69.3474888","Name":"Chilonota ko'chasi"},{"Latitude":"41.2915316","Longitude":"69.2310321","Name":"Chilonzor 1-o'tish ko'chasi"},{"Latitude":"41.2892543","Longitude":"69.2293014","Name":"Chilonzor 2-o'tish ko'chasi"},{"Latitude":"41.2891127","Longitude":"69.1801558","Name":"Chilonzor 23 mavzesi"},{"Latitude":"41.2930100","Longitude":"69.2315062","Name":"Chilonzor 4-berk ko'chasi"},{"Latitude":"41.2919512","Longitude":"69.2319668","Name":"Chilonzor 5-berk ko'chasi"},{"Latitude":"41.2972801","Longitude":"69.2394565","Name":"Chilonzor berk ko'chasi"},{"Latitude":"41.2876969","Longitude":"69.2287206","Name":"Chilonzor ko'chasi"},{"Latitude":"41.3451388","Longitude":"69.2243206","Name":"Chimboy 1-ko'chasi"},{"Latitude":"41.3478387","Longitude":"69.2223709","Name":"Chimboy 1-o'tish ko'chasi"},{"Latitude":"41.3433905","Longitude":"69.2187644","Name":"Chimboy ko'chasi"},{"Latitude":"41.3060505","Longitude":"69.2687950","Name":"Chimkent ko'chasi"},{"Latitude":"41.3350335","Longitude":"69.2884682","Name":"Chimrobod 1-o'tish ko'chasi"},{"Latitude":"41.3378558","Longitude":"69.2896083","Name":"Chimrobod 2-o'tish ko'chasi"},{"Latitude":"41.3378402","Longitude":"69.2957764","Name":"Chimrobod 3-o'tish ko'chasi"},{"Latitude":"41.2474728","Longitude":"69.2235180","Name":"Chimzor ko'chasi"},{"Latitude":"41.3154040","Longitude":"69.2393559","Name":"Chinar berk ko\"chasi"},{"Latitude":"41.3260549","Longitude":"69.2910600","Name":"Chingiz Aytmatov ko'chasi"},{"Latitude":"41.3521309","Longitude":"69.2913998","Name":"Chinobod 1-o'tish ko'chasi"},{"Latitude":"41.3549624","Longitude":"69.3112122","Name":"Chinobod 3-o'tish ko'chasi"},{"Latitude":"41.3588042","Longitude":"69.3144500","Name":"Chinobod 8-o'tish ko'chasi"},{"Latitude":"40.7529634","Longitude":"72.3099666","Name":"Chinobod ko'chasi"},{"Latitude":"41.2576706","Longitude":"69.3702850","Name":"Chirchiq bo'yi ko'chasi"},{"Latitude":"41.0645208","Longitude":"69.0280310","Name":"Chirchiq ko'chasi"},{"Latitude":"39.6612165","Longitude":"66.9893469","Name":"Chiroqchi ko'chasi"},{"Latitude":"41.2958951","Longitude":"69.3577215","Name":"Cho'lpon 1-o'tish ko'chasi"},{"Latitude":"41.2951989","Longitude":"69.3575979","Name":"Cho'lpon 2-o'tish ko'chasi"},{"Latitude":"39.9835395","Longitude":"66.8524071","Name":"Cho'lpon ko'chasi"},{"Latitude":"40.7902601","Longitude":"72.3491618","Name":"Cho'lpon shoh ko'chasi"},{"Latitude":"39.6588823","Longitude":"66.9973920","Name":"Cho'pon ota ko'chasi"},{"Latitude":"41.2938373","Longitude":"69.1976769","Name":"Cho'ponota Ko'chasi"},{"Latitude":"41.2900624","Longitude":"69.2007870","Name":"Cho'ponota ko'chasi"},{"Latitude":"41.8481124","Longitude":"60.9281873","Name":"Cho`lquvar ko'shesi"},{"Latitude":"41.3576989","Longitude":"69.3792638","Name":"Choldarakhat kichik ko`chasi"},{"Latitude":"41.3559615","Longitude":"69.3754870","Name":"Choldaraxt ko'chasi"},{"Latitude":"39.7840570","Longitude":"64.4022464","Name":"Chorbakr ko'chasi"},{"Latitude":"41.2406974","Longitude":"69.1827415","Name":"Chorbog' 1-o'tish ko'chasi"},{"Latitude":"41.2298823","Longitude":"69.1710762","Name":"Chorbog' 2-o'tish ko'chasi"},{"Latitude":"41.2257052","Longitude":"69.1766371","Name":"Chorbog' 3-o'tish ko'chasi"},{"Latitude":"40.7783224","Longitude":"72.3520299","Name":"Chorguzar ko'chasi"},{"Latitude":"39.6622927","Longitude":"66.9736753","Name":"Chorraha Street"},{"Latitude":"39.6609245","Longitude":"66.9771463","Name":"Chorraxa ko'chasi"},{"Latitude":"41.1822904","Longitude":"71.7278383","Name":"Chortoq ko'chasi"},{"Latitude":"41.0360734","Longitude":"71.6764455","Name":"Chortoq street"},{"Latitude":"41.2423250","Longitude":"69.2049770","Name":"Choshtepa 1-o'tish ko'chasi"},{"Latitude":"41.2242160","Longitude":"69.1771225","Name":"Choshtepa 10-o'tish ko'chasi"},{"Latitude":"41.2389544","Longitude":"69.1953628","Name":"Choshtepa 11-berk ko'chasi"},{"Latitude":"41.2369076","Longitude":"69.1920204","Name":"Choshtepa 13-berk ko'chasi"},{"Latitude":"41.2407681","Longitude":"69.1958555","Name":"Choshtepa 2-o'tish ko'chasi"},{"Latitude":"41.2315617","Longitude":"69.1860479","Name":"Choshtepa 3-o'tish ko'chasi"},{"Latitude":"41.2276767","Longitude":"69.1803360","Name":"Choshtepa 4-berk ko'chasi"},{"Latitude":"41.2343802","Longitude":"69.1864935","Name":"Choshtepa 4-o'tish ko'chasi"},{"Latitude":"41.2310141","Longitude":"69.1833234","Name":"Choshtepa 6-o'tish ko'chasi"},{"Latitude":"41.2292578","Longitude":"69.1818443","Name":"Choshtepa 8-o'tish ko'chasi"},{"Latitude":"41.2483264","Longitude":"69.2090841","Name":"Choshtepa ko'chasi"},{"Latitude":"40.7955884","Longitude":"72.3408015","Name":"Chuama ko'chasi"},{"Latitude":"41.3045117","Longitude":"69.2010405","Name":"Chukurko'prik 1-o'tish ko'chasi"},{"Latitude":"41.3020616","Longitude":"69.2009390","Name":"Chukurko'prik 3-o'tish ko'chasi"},{"Latitude":"41.3025397","Longitude":"69.1997187","Name":"Chukurko'prik 4-o'tish ko'chasi"},{"Latitude":"41.3736908","Longitude":"69.2388908","Name":"Chukursoy 1-berk ko'chasi"},{"Latitude":"41.3717768","Longitude":"69.2388289","Name":"Chukursoy 1-o'tish ko'chasi"},{"Latitude":"41.3701735","Longitude":"69.2421001","Name":"Chukursoy 2-o'tish ko'chasi"},{"Latitude":"41.3694582","Longitude":"69.2388349","Name":"Chukursoy 3-o'tish ko'chasi"},{"Latitude":"41.3696093","Longitude":"69.2376383","Name":"Chukursoy 4-o'tish ko'chasi"},{"Latitude":"41.3720072","Longitude":"69.2369598","Name":"Chukursoy 5-o'tish ko'chasi"},{"Latitude":"41.3738152","Longitude":"69.2408826","Name":"Chukursoy ko'chasi"},{"Latitude":"41.5578806","Longitude":"60.9677878","Name":"Chulquvar ko'shesi"},{"Latitude":"39.6687297","Longitude":"66.9537852","Name":"Chuqur yo‘l ko‘chasi"},{"Latitude":"41.1203022","Longitude":"69.0464400","Name":"Chustiy ko'chasi"},{"Latitude":"41.5607352","Longitude":"60.9976056","Name":"D, Matekubov ko'shesi"},{"Latitude":"42.9297747","Longitude":"59.7789442","Name":"D. Akimov ko'shesi"},{"Latitude":"43.7553489","Longitude":"59.0212709","Name":"D. Bekbergenov ko'shesi"},{"Latitude":"43.0213036","Longitude":"60.2812014","Name":"D. Kasimov ko'shesi"},{"Latitude":"42.4641773","Longitude":"59.5773659","Name":"D. Nazarbergenova ko'shesi"},{"Latitude":"42.8288982","Longitude":"59.0333374","Name":"D. Nazbergenov ko'shesi"},{"Latitude":"42.7810092","Longitude":"59.6112828","Name":"D. Ojraev ko'shesi"},{"Latitude":"43.0255684","Longitude":"60.2853335","Name":"D. Qasimov ko'shesi"},{"Latitude":"42.5243050","Longitude":"59.6196516","Name":"D. Qayipov ko'shesi"},{"Latitude":"42.7808087","Longitude":"59.6190316","Name":"D. Qirqabaqova ko'shesi"},{"Latitude":"43.7614744","Longitude":"59.0314543","Name":"D. Saparniyazov ko'shesi"},{"Latitude":"43.0349916","Longitude":"60.0071664","Name":"D. Seytekov ko'shesi"},{"Latitude":"42.5080749","Longitude":"59.6241043","Name":"D. Sharipov ko'shesi"},{"Latitude":"42.6932713","Longitude":"59.7378156","Name":"D. Turganbaev ko'shesi"},{"Latitude":"40.5278876","Longitude":"71.9451206","Name":"DANGABULOQ"},{"Latitude":"41.2291714","Longitude":"69.2697323","Name":"Dadaxo'jayev ko'chasi"},{"Latitude":"41.3209929","Longitude":"69.1791502","Name":"Dadil 1-o'tish ko'chasi"},{"Latitude":"41.3204755","Longitude":"69.1794954","Name":"Dadil 2-o'tish ko'chasi"},{"Latitude":"41.3197171","Longitude":"69.1800016","Name":"Dadil 3-o'tish ko'chasi"},{"Latitude":"41.3191865","Longitude":"69.1803556","Name":"Dadil 4-o'tish ko'chasi"},{"Latitude":"41.3183856","Longitude":"69.1808901","Name":"Dadil 5-berk ko'chasi"},{"Latitude":"41.3182555","Longitude":"69.1821169","Name":"Dadil 6-o'tish ko'chasi"},{"Latitude":"41.3154098","Longitude":"69.1789440","Name":"Dadil 7-o'tish ko'chasi"},{"Latitude":"41.3162002","Longitude":"69.1889612","Name":"Dadil 8-o'tish ko'chasi"},{"Latitude":"41.3148014","Longitude":"69.1833918","Name":"Dadil 9-o'tish ko'chasi"},{"Latitude":"41.3242817","Longitude":"69.1808413","Name":"Dadil ko'chasi"},{"Latitude":"39.6381500","Longitude":"66.9846907","Name":"Dagestanskaya ulica"},{"Latitude":"39.6625755","Longitude":"66.9163693","Name":"Damariq 1 o'tish ko'chasi"},{"Latitude":"41.2836735","Longitude":"69.2599370","Name":"Damariq 2-o'tish ko'chasi"},{"Latitude":"39.6596412","Longitude":"66.9151363","Name":"Damariq ko'chasi"},{"Latitude":"42.4297432","Longitude":"59.6168315","Name":"Danalar ko'shesi"},{"Latitude":"41.2706315","Longitude":"69.2684768","Name":"Dang'ara 1-berk ko'chasi"},{"Latitude":"41.2709288","Longitude":"69.2694580","Name":"Dang'ara 2-berk ko'chasi"},{"Latitude":"41.2686746","Longitude":"69.2668944","Name":"Dang'ara ko'chasi"},{"Latitude":"42.4517783","Longitude":"59.5909017","Name":"Danil Yakubova ko'shesi"},{"Latitude":"42.4946198","Longitude":"59.5970597","Name":"Danishpan ko'shesi"},{"Latitude":"42.4745986","Longitude":"59.5944196","Name":"Darbent ko'shesi"},{"Latitude":"42.6008130","Longitude":"59.5451445","Name":"Darsan ko'shesi"},{"Latitude":"39.6319418","Longitude":"66.9611782","Name":"Darvin ko'chasi"},{"Latitude":"39.7687491","Longitude":"64.4212960","Name":"Darvozai Sallohhona ko'chasi"},{"Latitude":"41.3517532","Longitude":"69.2949814","Name":"Darvozakent 1-o'tish ko'chasi"},{"Latitude":"41.3500091","Longitude":"69.2961023","Name":"Darvozakent 2-o'tish ko'chasi"},{"Latitude":"41.3498828","Longitude":"69.2985757","Name":"Darvozakent 3-o'tish ko'chasi"},{"Latitude":"41.3525902","Longitude":"69.2975051","Name":"Darvozakent 4-o'tish ko'chasi"},{"Latitude":"42.5145028","Longitude":"59.6139235","Name":"Darwaza qum ko'shesi"},{"Latitude":"40.7233688","Longitude":"72.3502121","Name":"Darxon ko'chasi"},{"Latitude":"42.4392030","Longitude":"59.5733146","Name":"Darya boyi ko'shesi"},{"Latitude":"41.1989054","Longitude":"69.2465231","Name":"Daryo bo'yi 2-berk ko'chasi"},{"Latitude":"41.1940333","Longitude":"69.2527753","Name":"Daryo bo'yi 3-o'tish ko'chasi"},{"Latitude":"41.1973913","Longitude":"69.2461537","Name":"Daryo bo'yi 4-o'tish ko'chasi"},{"Latitude":"41.2743905","Longitude":"69.2755789","Name":"Dashnobod 1-berk ko'chasi"},{"Latitude":"41.2739474","Longitude":"69.2748298","Name":"Dashnobod 1-o'tish ko'chasi"},{"Latitude":"41.2718682","Longitude":"69.2755632","Name":"Dashnobod 2-berk ko'chasi"},{"Latitude":"41.2727152","Longitude":"69.2750258","Name":"Dashnobod 2-tor ko'chasi"},{"Latitude":"41.2719805","Longitude":"69.2763095","Name":"Dashnobod ko'chasi"},{"Latitude":"41.2730780","Longitude":"69.2755952","Name":"Dashnobod o'tish ko'chasi"},{"Latitude":"41.2731724","Longitude":"69.2736341","Name":"Dashnobod tor ko'chasi"},{"Latitude":"39.9660051","Longitude":"68.4012538","Name":"Dashtobod-Zomin road"},{"Latitude":"42.4789778","Longitude":"59.5505625","Name":"Dauitko'l ko'shesi"},{"Latitude":"42.4511211","Longitude":"59.5819480","Name":"Dauqara ko'shesi"},{"Latitude":"41.2045577","Longitude":"69.2234415","Name":"Davlatobod ko'chasi"},{"Latitude":"42.5166936","Longitude":"59.6177152","Name":"Dawit ata ko'shesi"},{"Latitude":"42.3489981","Longitude":"59.7506613","Name":"Dawletli ko'shesi"},{"Latitude":"42.4796636","Longitude":"59.5538511","Name":"Dawqara ko'shesi"},{"Latitude":"42.3314548","Longitude":"59.5634739","Name":"Dawqaraev ko'shesi"},{"Latitude":"42.5296367","Longitude":"59.5987733","Name":"Dawran ko'shesi"},{"Latitude":"39.6708463","Longitude":"66.9696521","Name":"Daxbet Yo'li"},{"Latitude":"41.3203759","Longitude":"69.1852784","Name":"Degrez 3-o'tish ko'chasi"},{"Latitude":"41.3218370","Longitude":"69.1842614","Name":"Degrez 5-o'tish ko'chasi"},{"Latitude":"41.3758427","Longitude":"69.3081636","Name":"Dehqonobod 1-o'tish ko'chasi"},{"Latitude":"41.3776447","Longitude":"69.3087480","Name":"Dehqonobod 2-o'tish ko'chasi"},{"Latitude":"41.3791157","Longitude":"69.3101289","Name":"Dehqonobod 3-o'tish ko'chasi"},{"Latitude":"41.3793786","Longitude":"69.3144327","Name":"Dehqonobod 4-o'tish ko'chasi"},{"Latitude":"40.1193397","Longitude":"67.8099688","Name":"Dehqonobod ko’chasi"},{"Latitude":"41.8306382","Longitude":"59.9931511","Name":"Demirgazyk köçesi"},{"Latitude":"39.6415608","Longitude":"66.9351353","Name":"Deputatlar"},{"Latitude":"41.1060217","Longitude":"69.0447491","Name":"Dexqon ko'chasi"},{"Latitude":"39.0503984","Longitude":"65.5966238","Name":"Dilkash"},{"Latitude":"41.3141167","Longitude":"69.1798379","Name":"Dilkash 1-berk ko'chasi"},{"Latitude":"41.3192878","Longitude":"69.1774007","Name":"Dilkash 3-berk ko'chasi"},{"Latitude":"40.5260589","Longitude":"71.7149567","Name":"Dilkash ko'chasi"},{"Latitude":"39.7871821","Longitude":"64.4399837","Name":"Dilkusho ko'chasi"},{"Latitude":"39.7830940","Longitude":"64.4365495","Name":"Dilkusho ko'chasi 1-muyulish"},{"Latitude":"39.7835879","Longitude":"64.4368951","Name":"Dilkusho ko'chasi 2-muyulish"},{"Latitude":"40.7721114","Longitude":"72.3642831","Name":"Dilkushod ko'chasi"},{"Latitude":"41.2836974","Longitude":"69.1409931","Name":"Dilnavo 1-o'tish ko'chasi"},{"Latitude":"41.2840054","Longitude":"69.1440629","Name":"Dilnavo 2-o'tish ko'chasi"},{"Latitude":"41.2835266","Longitude":"69.1425161","Name":"Dilnavo 3-o'tish ko'chasi"},{"Latitude":"41.2836930","Longitude":"69.1422761","Name":"Dilnavo 4-o'tish ko'chasi"},{"Latitude":"41.2882089","Longitude":"69.1363689","Name":"Dilnavo 5-o'tish ko'chasi"},{"Latitude":"41.2854854","Longitude":"69.1374868","Name":"Dilnavo ko'chasi"},{"Latitude":"41.3083885","Longitude":"69.1785012","Name":"Dilnoz 3-o'tish ko'chasi"},{"Latitude":"41.2646722","Longitude":"69.2102439","Name":"Dilqush 1-o'tish ko'chasi"},{"Latitude":"41.2644278","Longitude":"69.2160411","Name":"Dilqush 2-o'tish ko'chasi"},{"Latitude":"41.2632222","Longitude":"69.2158640","Name":"Dilqush 3-o'tish ko'chasi"},{"Latitude":"41.2651406","Longitude":"69.2113624","Name":"Dilqush 4-o'tish ko'chasi"},{"Latitude":"41.2610063","Longitude":"69.2153785","Name":"Dilqush ko'chasi"},{"Latitude":"41.2689605","Longitude":"69.2107639","Name":"Dilqush o'tish ko'chasi"},{"Latitude":"41.2622969","Longitude":"69.1705334","Name":"Diydor 1-o'tish ko'chasi"},{"Latitude":"41.2617197","Longitude":"69.1734689","Name":"Diydor 2-o'tish ko'chasi"},{"Latitude":"41.2611123","Longitude":"69.1734063","Name":"Diydor 3-o'tish ko'chasi"},{"Latitude":"41.2621677","Longitude":"69.1757477","Name":"Diydor 4-o'tish ko'chasi"},{"Latitude":"41.2605363","Longitude":"69.1800661","Name":"Diydor 5-o'tish ko'chasi"},{"Latitude":"41.2622874","Longitude":"69.1735315","Name":"Diydor 7-o'tish ko'chasi"},{"Latitude":"42.4584621","Longitude":"59.6144990","Name":"Dizelnaya ko'shesi"},{"Latitude":"42.4475423","Longitude":"59.5694903","Name":"Do'ldilatlag'an ko'shesi"},{"Latitude":"41.2400540","Longitude":"69.2052351","Name":"Do'stlik 1 tor ko'chasi"},{"Latitude":"41.1153393","Longitude":"72.0811863","Name":"Do'stlik ko'chasi"},{"Latitude":"41.3558869","Longitude":"69.2901713","Name":"Do'stmuxamedov 1-o'tish ko'chasi"},{"Latitude":"41.3565479","Longitude":"69.2919593","Name":"Do'stmuxamedov 2-o'tish ko'chasi"},{"Latitude":"41.3562121","Longitude":"69.2944920","Name":"Do'stmuxamedov 3-o'tish ko'chasi"},{"Latitude":"41.3570659","Longitude":"69.2961223","Name":"Do'stmuxamedov 4-o'tish ko'chasi"},{"Latitude":"40.3875871","Longitude":"71.8036411","Name":"Dodhoh street"},{"Latitude":"40.3878894","Longitude":"71.7975276","Name":"Dodkhoh ko'chasi"},{"Latitude":"41.2651885","Longitude":"69.2069369","Name":"Dombrobod 1-o'tish ko'chasi"},{"Latitude":"41.2614245","Longitude":"69.2069874","Name":"Dombrobod 2-o'tish ko'chasi"},{"Latitude":"41.2616249","Longitude":"69.2050042","Name":"Dombrobod 3-o'tish ko'chasi"},{"Latitude":"41.2678818","Longitude":"69.2021177","Name":"Dombrobod 4-o'tish ko'chasi"},{"Latitude":"41.2765483","Longitude":"69.3561157","Name":"Donishmand ko'chasi"},{"Latitude":"40.4918641","Longitude":"68.7580735","Name":"Doniyorov ko'chasi"},{"Latitude":"41.3316167","Longitude":"69.3049759","Name":"Dorhantepa 1-o'tish ko'chasi"},{"Latitude":"41.3321711","Longitude":"69.3047524","Name":"Dorhantepa 2-o'tish ko'chasi"},{"Latitude":"41.3320525","Longitude":"69.3031074","Name":"Dorhantepa 3-o'tish ko'chasi"},{"Latitude":"41.3332361","Longitude":"69.3046690","Name":"Dorhantepa 4-o'tish ko'chasi"},{"Latitude":"43.0288438","Longitude":"60.2732583","Name":"Doslik guzari"},{"Latitude":"42.4953087","Longitude":"59.5921244","Name":"Dosliq Bag'lari ko'shesi"},{"Latitude":"42.5202100","Longitude":"59.6203733","Name":"Dosliq bayrag'i ko'shesi"},{"Latitude":"42.7666229","Longitude":"59.5990862","Name":"Dosliq guzari"},{"Latitude":"42.4223075","Longitude":"59.6001224","Name":"Dosliq jag'asi ko'shesi"},{"Latitude":"42.0909399","Longitude":"60.2783929","Name":"Dosliq ko'shesi"},{"Latitude":"41.8202742","Longitude":"59.9767598","Name":"Dostluk köçesi"},{"Latitude":"39.7365301","Longitude":"64.1790550","Name":"Doʻstlik koʻchasi"},{"Latitude":"41.3382440","Longitude":"69.3395642","Name":"Do‘rmon yo‘li ko‘chasi"},{"Latitude":"39.7339277","Longitude":"64.5394574","Name":"Do‘stlik ko‘chasi"},{"Latitude":"40.5249157","Longitude":"68.0343389","Name":"Do’stlik ko’chasi"},{"Latitude":"42.4017056","Longitude":"59.6219579","Name":"Dramaturg (Ken'esbay Raxmanov) ko'shesi"},{"Latitude":"40.7587642","Longitude":"72.3721708","Name":"Dukchi Eshon ko'chasi"},{"Latitude":"41.3169913","Longitude":"69.1750580","Name":"Durbek 1-o'tish ko'chasi"},{"Latitude":"41.3156827","Longitude":"69.1759634","Name":"Durbek 2-o'tish ko'chasi"},{"Latitude":"41.3155599","Longitude":"69.1777183","Name":"Durbek 3-o'tish ko'chasi"},{"Latitude":"41.3124280","Longitude":"69.1799095","Name":"Durbek 4-o'tish ko'chasi"},{"Latitude":"41.3125533","Longitude":"69.1771230","Name":"Durbek 5-o'tish ko'chasi"},{"Latitude":"42.4981773","Longitude":"59.5936582","Name":"Durdana ko'shesi"},{"Latitude":"41.5445513","Longitude":"60.9988668","Name":"Durdiev ko'shesi"},{"Latitude":"41.3248814","Longitude":"69.3617219","Name":"Durmon yo'li"},{"Latitude":"41.3281019","Longitude":"69.3558167","Name":"Durmon yo'li berk ko'chasi"},{"Latitude":"43.7558751","Longitude":"59.0215654","Name":"E. Aldashev ko'shesi"},{"Latitude":"41.5588458","Longitude":"69.7757123","Name":"E. Asanov ko'chasi"},{"Latitude":"42.7721039","Longitude":"59.6099554","Name":"E. Daliev ko'shesi"},{"Latitude":"39.8999788","Longitude":"66.2772220","Name":"E. Miraliev ko'chasi"},{"Latitude":"40.4190900","Longitude":"67.1828930","Name":"E. Niyazov ko‘chasi"},{"Latitude":"42.7692262","Longitude":"59.5979024","Name":"E. Panaev ko'shesi"},{"Latitude":"42.4955134","Longitude":"59.6053832","Name":"E. Qospolatov ko'shesi"},{"Latitude":"42.7794203","Longitude":"59.6175437","Name":"E. Xojanov ko'shesi"},{"Latitude":"42.7655169","Longitude":"59.6088569","Name":"E/ Berdimbetov ko'shesi"},{"Latitude":"42.8439007","Longitude":"58.9979564","Name":"Edige ko'shesi"},{"Latitude":"42.5213416","Longitude":"59.6076844","Name":"Edil ko'shesi"},{"Latitude":"41.2794297","Longitude":"69.2391791","Name":"Ehtirom 1-o'tish ko'chasi"},{"Latitude":"41.2802529","Longitude":"69.2400464","Name":"Ehtirom 2-o'tish ko'chasi"},{"Latitude":"41.2794297","Longitude":"69.2391791","Name":"Ehtirom 3-o'tish ko'chasi"},{"Latitude":"41.2777857","Longitude":"69.2386346","Name":"Ehtirom 4-o'tish ko'chasi"},{"Latitude":"43.0236920","Longitude":"60.0307661","Name":"Eki Esim ortasi ko'shesi"},{"Latitude":"42.4143326","Longitude":"59.6034536","Name":"Eki darya ko'shesi"},{"Latitude":"39.6690623","Longitude":"66.9493263","Name":"Ekskavator ko'chasi"},{"Latitude":"42.3887573","Longitude":"59.6207843","Name":"El azat ko'shesi"},{"Latitude":"42.5187915","Longitude":"59.6200219","Name":"Elabat ko'shesi"},{"Latitude":"41.2935192","Longitude":"69.3233234","Name":"Elbek ko'chasi"},{"Latitude":"40.1441960","Longitude":"67.8059833","Name":"Elchiboyev ko'chasi"},{"Latitude":"42.4046066","Longitude":"59.6286257","Name":"Ellikqala ko'shesi"},{"Latitude":"41.3582935","Longitude":"69.2928893","Name":"Elnur 1-o'tish ko'chasi"},{"Latitude":"41.3592412","Longitude":"69.2944525","Name":"Elnur 4-o'tish ko'chasi"},{"Latitude":"39.7235460","Longitude":"64.5593216","Name":"Elobod ko'chasi"},{"Latitude":"41.2730689","Longitude":"69.2723830","Name":"Eltuzar 1-berk ko'chasi"},{"Latitude":"41.2711800","Longitude":"69.2750659","Name":"Eltuzar ko'chasi"},{"Latitude":"42.4206501","Longitude":"59.4684719","Name":"Energetik ko'shesi"},{"Latitude":"42.3311274","Longitude":"59.5704175","Name":"Energtikler ko'shesi"},{"Latitude":"42.4929544","Longitude":"59.5991417","Name":"Er ju'rek ko'shesi"},{"Latitude":"42.9221283","Longitude":"59.7934220","Name":"Erejep Baba ko'shesi"},{"Latitude":"42.4724681","Longitude":"59.6420060","Name":"Erejep Tentek ko'shesi"},{"Latitude":"40.7561530","Longitude":"72.3651702","Name":"Ergash Ashurov ko'chasi"},{"Latitude":"39.6692478","Longitude":"66.9484814","Name":"Ergash Juman bulbul ko'chasi"},{"Latitude":"42.4752691","Longitude":"59.6395417","Name":"Erjan ataw ko'shesi"},{"Latitude":"42.4409359","Longitude":"59.5835889","Name":"Erjan shayir ko'shesi"},{"Latitude":"40.7761632","Longitude":"71.7136850","Name":"Erk"},{"Latitude":"42.8332846","Longitude":"59.0191656","Name":"Erkin Qaraqalpaqstan ko'shesi"},{"Latitude":"42.4622001","Longitude":"59.6296763","Name":"Erkin zaman ko'shesi"},{"Latitude":"41.2445044","Longitude":"69.2218211","Name":"Erkinlik ko'chasi"},{"Latitude":"42.8343071","Longitude":"59.0033281","Name":"Erkinlik ko'shesi"},{"Latitude":"41.0348545","Longitude":"69.3569127","Name":"Erkinlik ko‘chasi"},{"Latitude":"38.2668965","Longitude":"67.8961164","Name":"Erkli yurt ko`chasi"},{"Latitude":"42.4901613","Longitude":"59.5938663","Name":"Erli ko'shesi"},{"Latitude":"42.4674617","Longitude":"59.5818008","Name":"Ermanov ko'shesi"},{"Latitude":"43.0202089","Longitude":"60.2834026","Name":"Ernazar Alako'z ko'shesi"},{"Latitude":"42.4484452","Longitude":"59.6209942","Name":"Ernazar biy palwan ko'shesi"},{"Latitude":"42.9238426","Longitude":"59.7740845","Name":"Erniyazov ko'shesi"},{"Latitude":"42.3452419","Longitude":"59.7525957","Name":"Erqosay ko'shesi"},{"Latitude":"41.5452984","Longitude":"61.0286991","Name":"Eshmanov ko'shesi"},{"Latitude":"41.3437581","Longitude":"69.1912723","Name":"Eshon Boboxonov 1-o'tish ko'chasi"},{"Latitude":"41.3425957","Longitude":"69.1926424","Name":"Eshon Boboxonov 2-o'tish ko'chasi"},{"Latitude":"41.3419486","Longitude":"69.1923670","Name":"Eshon Boboxonov 3-o'tish ko'chasi"},{"Latitude":"41.3430689","Longitude":"69.1962593","Name":"Eshon Boboxonova ko'chasi"},{"Latitude":"41.2780743","Longitude":"69.2762187","Name":"Eshon Odilxo'jaev 1-berk ko'chasi"},{"Latitude":"41.2778171","Longitude":"69.2767663","Name":"Eshon Odilxo'jaev 2-berk ko'chasi"},{"Latitude":"41.2776642","Longitude":"69.2772192","Name":"Eshon Odilxo'jaev 3-berk ko'chasi"},{"Latitude":"41.2774499","Longitude":"69.2782949","Name":"Eshon Odilxo'jaev ko'chasi"},{"Latitude":"39.7711359","Longitude":"64.4210124","Name":"Eshoni pir ko'chasi"},{"Latitude":"41.2914367","Longitude":"69.1566826","Name":"Eshonxon Toshkandiy 1-o'tish ko'chasi"},{"Latitude":"41.2909263","Longitude":"69.1546490","Name":"Eshonxon Toshkandiy 2-o'tish ko'chasi"},{"Latitude":"41.2900363","Longitude":"69.1573966","Name":"Eshonxon Toshkandiy 3-o'tish ko'chasi"},{"Latitude":"41.2894685","Longitude":"69.1564384","Name":"Eshonxon Toshqandi 4-o'tish ko'chasi"},{"Latitude":"41.2888258","Longitude":"69.1563153","Name":"Eshonxon Toshqandi 5-o'tish ko'chasi"},{"Latitude":"41.2881603","Longitude":"69.1562353","Name":"Eshonxon Toshqandi 6-o'tish ko'chasi"},{"Latitude":"41.2878854","Longitude":"69.1555660","Name":"Eshonxon Toshqandi 7-o'tish ko'chasi"},{"Latitude":"43.0291885","Longitude":"60.0341631","Name":"Esim ko'shesi"},{"Latitude":"42.4742761","Longitude":"59.6453884","Name":"Esjan ataw ko'shesi"},{"Latitude":"42.4210319","Longitude":"59.6069325","Name":"Eskekshiler ko'shesi"},{"Latitude":"41.2912818","Longitude":"69.2342730","Name":"Eski Chilonzor 1-o'tish ko'chasi"},{"Latitude":"41.2895803","Longitude":"69.2287919","Name":"Eski Chilonzor 3-o'tish ko'chasi"},{"Latitude":"41.2899840","Longitude":"69.2281611","Name":"Eski Chilonzor 4-o'tish ko'chasi"},