[{"Latitude":"14.9787669","Longitude":"145.6481449","Name":"2nd Avenue"},{"Latitude":"15.0034170","Longitude":"145.6473068","Name":"72nd Street"},{"Latitude":"15.0167089","Longitude":"145.6121778","Name":"86th Street"},{"Latitude":"15.0330739","Longitude":"145.6118736","Name":"8th Avenue"},{"Latitude":"15.1976554","Longitude":"145.7531398","Name":"Aacacia Place"},{"Latitude":"15.1927134","Longitude":"145.7183520","Name":"Aar Loop"},{"Latitude":"15.1776243","Longitude":"145.7751972","Name":"Abas Drive"},{"Latitude":"15.1768384","Longitude":"145.7786030","Name":"Abuchuelas Place"},{"Latitude":"15.1981651","Longitude":"145.7533645","Name":"Acacia Circle"},{"Latitude":"15.1449672","Longitude":"145.7198143","Name":"Achieve Lane"},{"Latitude":"15.2235012","Longitude":"145.7434498","Name":"Acho Tasi Place"},{"Latitude":"15.1593571","Longitude":"145.7428319","Name":"Achon Lane"},{"Latitude":"15.1775118","Longitude":"145.7725527","Name":"Achoti Avenue"},{"Latitude":"15.2085604","Longitude":"145.7242797","Name":"Adilanto Lane"},{"Latitude":"15.1445736","Longitude":"145.7344480","Name":"Adios Place"},{"Latitude":"15.1248317","Longitude":"145.7030896","Name":"Adobu Drive"},{"Latitude":"15.2071237","Longitude":"145.7363514","Name":"Afal Street"},{"Latitude":"15.1298299","Longitude":"145.7007667","Name":"Afetna Road"},{"Latitude":"15.1507455","Longitude":"145.7437835","Name":"Afok Drive"},{"Latitude":"15.1544008","Longitude":"145.7260147","Name":"Aga Place"},{"Latitude":"15.1691312","Longitude":"145.7818312","Name":"Agalondi Street"},{"Latitude":"15.1710315","Longitude":"145.7812603","Name":"Agatelang Avenue"},{"Latitude":"15.1511781","Longitude":"145.7255697","Name":"Agi Street"},{"Latitude":"15.1202603","Longitude":"145.6928528","Name":"Agingan Lane"},{"Latitude":"15.1303176","Longitude":"145.6950755","Name":"Aguas Street"},{"Latitude":"15.1714237","Longitude":"145.7820258","Name":"Ahgao Street"},{"Latitude":"15.1239964","Longitude":"145.6999644","Name":"Ahu Drive"},{"Latitude":"14.1709467","Longitude":"145.2434144","Name":"Airport Road"},{"Latitude":"15.1494774","Longitude":"145.7427071","Name":"Ala Lane"},{"Latitude":"15.1522017","Longitude":"145.7350012","Name":"Aladu Place"},{"Latitude":"15.1785994","Longitude":"145.7743920","Name":"Alageta Road"},{"Latitude":"15.1211492","Longitude":"145.6985732","Name":"Alaguan Street"},{"Latitude":"15.2100191","Longitude":"145.7185779","Name":"Alaihai Avenue"},{"Latitude":"15.1989663","Longitude":"145.7180235","Name":"Alaihai Street"},{"Latitude":"15.1452184","Longitude":"145.7020784","Name":"Alamwar Avenue"},{"Latitude":"15.1980742","Longitude":"145.7572947","Name":"Almond Place"},{"Latitude":"15.1304939","Longitude":"145.7366112","Name":"Alof Avenue"},{"Latitude":"15.1350056","Longitude":"145.6997865","Name":"Alu Drive"},{"Latitude":"15.1980411","Longitude":"145.7180149","Name":"Alus Street"},{"Latitude":"15.2025940","Longitude":"145.7526531","Name":"Aluw Place"},{"Latitude":"15.1532377","Longitude":"145.7361213","Name":"Amaka Place"},{"Latitude":"15.1726925","Longitude":"145.7174812","Name":"Amara Place"},{"Latitude":"15.2403411","Longitude":"145.7622456","Name":"Ammurh Drive"},{"Latitude":"15.1690216","Longitude":"145.7109923","Name":"Amorsch Way"},{"Latitude":"15.1517401","Longitude":"145.7391015","Name":"Anaguan Place"},{"Latitude":"15.2197422","Longitude":"145.7526096","Name":"Anathan Drive"},{"Latitude":"15.2017955","Longitude":"145.7180155","Name":"Angaha Street"},{"Latitude":"15.1467553","Longitude":"145.7043334","Name":"Anita Avenue"},{"Latitude":"15.1820932","Longitude":"145.7740909","Name":"Anonas Drive"},{"Latitude":"15.1675281","Longitude":"145.7109866","Name":"Apengagh Avenue"},{"Latitude":"15.1627171","Longitude":"145.7826144","Name":"Apilas Avenue"},{"Latitude":"15.1341869","Longitude":"145.7117753","Name":"Aplok Drive"},{"Latitude":"15.1598556","Longitude":"145.7210944","Name":"Apu Drive"},{"Latitude":"15.1187508","Longitude":"145.7034560","Name":"As Gonno Road"},{"Latitude":"15.1393594","Longitude":"145.7187819","Name":"As Lito Drive"},{"Latitude":"15.1208722","Longitude":"145.7207293","Name":"As Perdido Road"},{"Latitude":"15.1920664","Longitude":"145.7634372","Name":"As Teo Drive"},{"Latitude":"15.2203459","Longitude":"145.7543539","Name":"Ascencion Street"},{"Latitude":"15.2506905","Longitude":"145.7844091","Name":"Asga Drive"},{"Latitude":"15.1222596","Longitude":"145.6984914","Name":"Asnentukon Street"},{"Latitude":"15.1257364","Longitude":"145.6944460","Name":"Asuli Place"},{"Latitude":"15.2054784","Longitude":"145.7193867","Name":"Asusena Avenue"},{"Latitude":"15.2032630","Longitude":"145.7531974","Name":"Atbut Drive"},{"Latitude":"15.1371047","Longitude":"145.7352753","Name":"Atdao Street"},{"Latitude":"15.1769191","Longitude":"145.7743604","Name":"Ates Drive"},{"Latitude":"15.1519485","Longitude":"145.7398665","Name":"Atkiya Drive"},{"Latitude":"15.1225254","Longitude":"145.6989518","Name":"Atmayas Street"},{"Latitude":"15.1276311","Longitude":"145.7082409","Name":"Atmondegas Street"},{"Latitude":"15.1389649","Longitude":"145.7032612","Name":"Atot Drive"},{"Latitude":"15.1623668","Longitude":"145.7211333","Name":"Attillong Place"},{"Latitude":"15.1421998","Longitude":"145.6996419","Name":"Atuhong Place"},{"Latitude":"15.1379673","Longitude":"145.7355635","Name":"Ayuda Court"},{"Latitude":"15.1378876","Longitude":"145.7354975","Name":"Ayuda Street"},{"Latitude":"15.2684329","Longitude":"145.7985528","Name":"Ayuyu Drive"},{"Latitude":"15.1350207","Longitude":"145.7228011","Name":"Bagasu Lane"},{"Latitude":"15.2500930","Longitude":"145.7855534","Name":"Baina Drive"},{"Latitude":"15.1550082","Longitude":"145.7027166","Name":"Bakke Street"},{"Latitude":"15.1687516","Longitude":"145.7783416","Name":"Banalu Loop"},{"Latitude":"15.1684676","Longitude":"145.7747871","Name":"Banalu Street"},{"Latitude":"15.2861396","Longitude":"145.8108462","Name":"Banzai Cliff Road"},{"Latitude":"15.2479867","Longitude":"145.7732391","Name":"Bapot Lane"},{"Latitude":"15.2236256","Longitude":"145.7394192","Name":"Baranka Lane"},{"Latitude":"15.1484671","Longitude":"145.7020593","Name":"Barbara Avenue"},{"Latitude":"15.2202369","Longitude":"145.7332269","Name":"Bastos Street"},{"Latitude":"15.1286140","Longitude":"145.6971073","Name":"Batto Place"},{"Latitude":"15.1460382","Longitude":"145.7412110","Name":"Batu Place"},{"Latitude":"15.1355090","Longitude":"145.7108491","Name":"Bayak Drive"},{"Latitude":"15.2509350","Longitude":"145.7865929","Name":"Bayineta Drive"},{"Latitude":"15.1870314","Longitude":"145.7183436","Name":"Bayogi Lane"},{"Latitude":"15.1304413","Longitude":"145.7405037","Name":"Beach Avenue"},{"Latitude":"15.1361878","Longitude":"145.6985141","Name":"Beach Road"},{"Latitude":"15.1545870","Longitude":"145.7379021","Name":"Bentana Drive"},{"Latitude":"15.1478848","Longitude":"145.7020107","Name":"Bernando Street"},{"Latitude":"15.1900759","Longitude":"145.7535634","Name":"Betbena Drive"},{"Latitude":"15.1914233","Longitude":"145.7505808","Name":"Betbena Place"},{"Latitude":"15.1520610","Longitude":"145.7317534","Name":"Bibenda Lane"},{"Latitude":"15.1225756","Longitude":"145.7088132","Name":"Bibinka Avenue"},{"Latitude":"15.1767661","Longitude":"145.7762849","Name":"Bilembines Street"},{"Latitude":"15.2587568","Longitude":"145.7901536","Name":"Binadu Drive"},{"Latitude":"15.1322296","Longitude":"145.7230469","Name":"Binakle Place"},{"Latitude":"15.1354805","Longitude":"145.7361227","Name":"Birada Street"},{"Latitude":"15.2623447","Longitude":"145.8147935","Name":"Bird Island Lane"},{"Latitude":"15.1486531","Longitude":"145.7220870","Name":"Bobolong Loop"},{"Latitude":"15.1341882","Longitude":"145.7333393","Name":"Bonita Street"},{"Latitude":"15.2484415","Longitude":"145.7738053","Name":"Boti Street"},{"Latitude":"15.2129731","Longitude":"145.7222243","Name":"Botones Avenue"},{"Latitude":"15.2047597","Longitude":"145.7165088","Name":"Bougainvilla Avenue"},{"Latitude":"15.1466956","Longitude":"145.7014783","Name":"Brigida Street"},{"Latitude":"14.9655414","Longitude":"145.6310071","Name":"Broadway"},{"Latitude":"15.2517865","Longitude":"145.7881151","Name":"Bronse Drive"},{"Latitude":"15.1186501","Longitude":"145.7019721","Name":"Buchibuchi Drive"},{"Latitude":"15.1294638","Longitude":"145.7363579","Name":"Buenas Dias Street"},{"Latitude":"15.1321581","Longitude":"145.7361302","Name":"Buenas Noches Street"},{"Latitude":"15.1312577","Longitude":"145.7354962","Name":"Buenas Tardes Street"},{"Latitude":"15.2078044","Longitude":"145.7204905","Name":"Bukiki Avenue"},{"Latitude":"15.1325406","Longitude":"145.7001179","Name":"Buninas Loop"},{"Latitude":"15.2404263","Longitude":"145.7555601","Name":"Bwalano Avenue"},{"Latitude":"15.1676345","Longitude":"145.7213063","Name":"Bwerh Place"},{"Latitude":"15.1617387","Longitude":"145.7084391","Name":"Bwoghous Street"},{"Latitude":"15.2125168","Longitude":"145.7214918","Name":"Cactus Street"},{"Latitude":"14.9738099","Longitude":"145.6371675","Name":"Canal Street"},{"Latitude":"15.2192853","Longitude":"145.7576400","Name":"Capitol Hill Road"},{"Latitude":"15.1944995","Longitude":"145.7417162","Name":"Captive Way"},{"Latitude":"15.1480820","Longitude":"145.7024818","Name":"Carmen Avenue"},{"Latitude":"15.1977371","Longitude":"145.7196024","Name":"Carter Place"},{"Latitude":"15.1462531","Longitude":"145.7033463","Name":"Casilda Street"},{"Latitude":"15.2050081","Longitude":"145.7528671","Name":"Cator Place"},{"Latitude":"15.1770939","Longitude":"145.7710521","Name":"Chacha Road"},{"Latitude":"15.1451518","Longitude":"145.7127620","Name":"Chachak Lane"},{"Latitude":"15.1515269","Longitude":"145.7007224","Name":"Chalan Hagoi"},{"Latitude":"15.2655855","Longitude":"145.8130291","Name":"Chalan Kalabera"},{"Latitude":"15.1468946","Longitude":"145.7029907","Name":"Chalan Kanoa Drive"},{"Latitude":"15.1647913","Longitude":"145.7196981","Name":"Chalan Kiya Drive"},{"Latitude":"15.2463648","Longitude":"145.7904845","Name":"Chalan Matuis"},{"Latitude":"15.1683997","Longitude":"145.7124229","Name":"Chalan Monsignor Guerrero"},{"Latitude":"15.1310576","Longitude":"145.7134365","Name":"Chalan Monsignor Martinez"},{"Latitude":"15.2223951","Longitude":"145.7357683","Name":"Chalan Pale Arnold"},{"Latitude":"15.1910362","Longitude":"145.7729953","Name":"Chalan Santa Lourdes"},{"Latitude":"15.2278460","Longitude":"145.7633121","Name":"Chalan Savana"},{"Latitude":"15.2339514","Longitude":"145.7482325","Name":"Chalan Sisonyan"},{"Latitude":"15.1500571","Longitude":"145.7210767","Name":"Chalan Tun Antonio Apa"},{"Latitude":"15.1265526","Longitude":"145.7241142","Name":"Chalan Tun Herman Pan"},{"Latitude":"15.2033160","Longitude":"145.7222233","Name":"Chamber Court"},{"Latitude":"15.2414188","Longitude":"145.7562059","Name":"Chamolinian Drive"},{"Latitude":"15.1820763","Longitude":"145.7727508","Name":"Chandia Lane"},{"Latitude":"15.1231761","Longitude":"145.7008581","Name":"Charakiles Court"},{"Latitude":"15.1870314","Longitude":"145.7183436","Name":"Cheribiyan"},{"Latitude":"15.1265010","Longitude":"145.7105085","Name":"Chichikika Street"},{"Latitude":"15.2054869","Longitude":"145.7186949","Name":"Chichirica Avenue"},{"Latitude":"15.1972073","Longitude":"145.7184852","Name":"Chichirica Street"},{"Latitude":"15.1432605","Longitude":"145.7016632","Name":"Chief Ngushull Street"},{"Latitude":"15.2099124","Longitude":"145.7250367","Name":"Chief Radahao Lane"},{"Latitude":"15.1524951","Longitude":"145.7048734","Name":"Chinchulu Avenue"},{"Latitude":"15.1717617","Longitude":"145.7771409","Name":"Chiute Court"},{"Latitude":"15.1652944","Longitude":"145.7859060","Name":"Chopak Drive"},{"Latitude":"15.1543029","Longitude":"145.7270001","Name":"Chotda Place"},{"Latitude":"15.2179249","Longitude":"145.7458011","Name":"Coastal Drive"},{"Latitude":"15.2130078","Longitude":"145.7181331","Name":"Coconut Street"},{"Latitude":"15.1318232","Longitude":"145.7236437","Name":"Cocos Place"},{"Latitude":"15.2146687","Longitude":"145.7192531","Name":"Coffee Tree Mall"},{"Latitude":"15.1491818","Longitude":"145.7306218","Name":"Commerce Place"},{"Latitude":"15.2258948","Longitude":"145.7366901","Name":"Commercial Port Avenue"},{"Latitude":"15.2015729","Longitude":"145.7188094","Name":"Commonwealth Drive"},{"Latitude":"15.1281248","Longitude":"145.7293540","Name":"Continental Drive"},{"Latitude":"15.2038687","Longitude":"145.7296843","Name":"Convention Place"},{"Latitude":"15.2145101","Longitude":"145.7176044","Name":"Coral Tree Avenue"},{"Latitude":"15.1458467","Longitude":"145.7040458","Name":"Crispina Street"},{"Latitude":"15.1820251","Longitude":"145.7733941","Name":"Dagu Lane"},{"Latitude":"15.1495207","Longitude":"145.7279160","Name":"Dahon Drive"},{"Latitude":"15.2043815","Longitude":"145.7180106","Name":"Dama Di Noche Street"},{"Latitude":"15.1524329","Longitude":"145.7310315","Name":"Dama Drive"},{"Latitude":"15.1425348","Longitude":"145.7331229","Name":"Dancing Place"},{"Latitude":"15.1514085","Longitude":"145.7372446","Name":"Dandan Road"},{"Latitude":"15.2141037","Longitude":"145.7173852","Name":"Date Street"},{"Latitude":"15.2104579","Longitude":"145.7339900","Name":"Delegado Drive"},{"Latitude":"15.1493699","Longitude":"145.7042143","Name":"Delgadina Street"},{"Latitude":"15.1363582","Longitude":"145.7332875","Name":"Deskansa Street"},{"Latitude":"15.2460778","Longitude":"145.7742890","Name":"Diablo Drive"},{"Latitude":"15.2090940","Longitude":"145.7293557","Name":"Diboto Lane"},{"Latitude":"15.2133036","Longitude":"145.7343366","Name":"Dinana Lane"},{"Latitude":"15.1487135","Longitude":"145.7041639","Name":"Dionisio Avenue"},{"Latitude":"15.1381094","Longitude":"145.7309724","Name":"Diving Lane"},{"Latitude":"15.1435596","Longitude":"145.7032822","Name":"Doctor Torres Drive"},{"Latitude":"15.1793065","Longitude":"145.7763671","Name":"Dokdok Drive"},{"Latitude":"15.1490234","Longitude":"145.7028642","Name":"Dolores Street"},{"Latitude":"15.1896036","Longitude":"145.7163794","Name":"Dotse Place"},{"Latitude":"15.2047524","Longitude":"145.7171761","Name":"Dracaena Street"},{"Latitude":"15.1907802","Longitude":"145.7186953","Name":"Dress Place"},{"Latitude":"15.2533019","Longitude":"145.7901139","Name":"Dunat Court"},{"Latitude":"15.1599314","Longitude":"145.7073104","Name":"Dwaay Lane"},{"Latitude":"15.1653037","Longitude":"145.7848821","Name":"Dyers Fig Street"},{"Latitude":"15.1881142","Longitude":"145.7256774","Name":"Earhart Drive"},{"Latitude":"15.1491119","Longitude":"145.7329853","Name":"Easter Loop"},{"Latitude":"15.2030194","Longitude":"145.7589533","Name":"Egigi Drive"},{"Latitude":"15.1667237","Longitude":"145.7120938","Name":"Ellegh Avenue"},{"Latitude":"15.1480926","Longitude":"145.7042384","Name":"Elphidia Street"},{"Latitude":"15.1473595","Longitude":"145.7045709","Name":"Emilia Avenue"},{"Latitude":"15.1477342","Longitude":"145.7066606","Name":"Enrique Street"},{"Latitude":"15.1270907","Longitude":"145.7050094","Name":"Eskabeche Street"},{"Latitude":"15.1540854","Longitude":"145.7374241","Name":"Eskalera Lane"},{"Latitude":"15.2465399","Longitude":"145.7709402","Name":"Esmeralda Lane"},{"Latitude":"15.1898849","Longitude":"145.7202059","Name":"Espana Street"},{"Latitude":"15.1216369","Longitude":"145.7043635","Name":"Essok Avenue"},{"Latitude":"15.1213618","Longitude":"145.7036753","Name":"Estufao Court"},{"Latitude":"15.2059410","Longitude":"145.7213331","Name":"Executive Court"},{"Latitude":"15.1387996","Longitude":"145.7311540","Name":"Exploring Drive"},{"Latitude":"15.2151205","Longitude":"145.7337018","Name":"Fabot Way"},{"Latitude":"15.1716340","Longitude":"145.7165799","Name":"Fafa Place"},{"Latitude":"15.1524208","Longitude":"145.7304955","Name":"Fafalu Place"},{"Latitude":"15.1863635","Longitude":"145.7598564","Name":"Fahang Drive"},{"Latitude":"15.2602134","Longitude":"145.7912362","Name":"Fanihi Way"},{"Latitude":"15.1697361","Longitude":"145.7824665","Name":"Faniok Avenue"},{"Latitude":"15.1527840","Longitude":"145.7309136","Name":"Fanot Dayan Place"},{"Latitude":"15.2213005","Longitude":"145.7577803","Name":"Farallon Place"},{"Latitude":"15.1521402","Longitude":"145.7373129","Name":"Fatiguan Lane"},{"Latitude":"15.1296743","Longitude":"145.7103597","Name":"Faya Lane"},{"Latitude":"15.1445852","Longitude":"145.7220983","Name":"Feddos Lane"},{"Latitude":"15.1287369","Longitude":"145.7412287","Name":"Fiesta Street"},{"Latitude":"15.1304836","Longitude":"145.7113764","Name":"Figan Lane"},{"Latitude":"15.2119021","Longitude":"145.7210490","Name":"Filooris Avenue"},{"Latitude":"15.1525297","Longitude":"145.7212664","Name":"Finasisu Lane"},{"Latitude":"15.1751874","Longitude":"145.7788210","Name":"Fioles Place"},{"Latitude":"15.2390305","Longitude":"145.7539265","Name":"Firth Loop"},{"Latitude":"15.2025560","Longitude":"145.7186263","Name":"Fishing Base Street"},{"Latitude":"15.2109151","Longitude":"145.7349680","Name":"Fitme Place"},{"Latitude":"15.1227665","Longitude":"145.7206295","Name":"Flame Tree Road"},{"Latitude":"15.1265010","Longitude":"145.7105085","Name":"Flores Asusena Street"},{"Latitude":"15.1272574","Longitude":"145.7102868","Name":"Flores Mayo"},{"Latitude":"15.2066295","Longitude":"145.7187119","Name":"Flores Rosa Street"},{"Latitude":"15.1338647","Longitude":"145.7368786","Name":"Flores Street"},{"Latitude":"15.1668427","Longitude":"145.7806899","Name":"Forbidden Island Road"},{"Latitude":"15.1472115","Longitude":"145.7035372","Name":"Fransisco Street"},{"Latitude":"15.2037448","Longitude":"145.7284972","Name":"Freedom Drive"},{"Latitude":"15.1729547","Longitude":"145.7492413","Name":"Fresko Place"},{"Latitude":"15.1475335","Longitude":"145.7215425","Name":"Frond Place"},{"Latitude":"15.2121760","Longitude":"145.7324517","Name":"Fuetsa Lane"},{"Latitude":"15.1673696","Longitude":"145.7661413","Name":"Gabgab Drive"},{"Latitude":"15.1283183","Longitude":"145.7213507","Name":"Gable Drive"},{"Latitude":"15.1280819","Longitude":"145.7003332","Name":"Gadao Lane"},{"Latitude":"15.1589572","Longitude":"145.7381075","Name":"Gadde Drive"},{"Latitude":"15.1824871","Longitude":"145.7741433","Name":"Gaddo Place"},{"Latitude":"15.2020782","Longitude":"145.7602218","Name":"Gaga Khristy Drive"},{"Latitude":"15.1694611","Longitude":"145.7742667","Name":"Gagu Loop"},{"Latitude":"15.1694596","Longitude":"145.7733233","Name":"Gagu Street"},{"Latitude":"15.1655782","Longitude":"145.7453827","Name":"Galak Drive"},{"Latitude":"15.1409689","Longitude":"145.7274735","Name":"Ganggoche Drive"},{"Latitude":"15.1686295","Longitude":"145.7702246","Name":"Gaogao Court"},{"Latitude":"15.1678118","Longitude":"145.7752157","Name":"Gaogao Drive"},{"Latitude":"15.1728456","Longitude":"145.7843410","Name":"Gaosali Lane"},{"Latitude":"15.2077511","Longitude":"145.7191292","Name":"Garapan Street"},{"Latitude":"15.1312149","Longitude":"145.7391530","Name":"Gatbo Avenue"},{"Latitude":"15.1353481","Longitude":"145.6964754","Name":"Gatdas Avenue"},{"Latitude":"15.1673025","Longitude":"145.7102902","Name":"Ghili Street"},{"Latitude":"15.1681561","Longitude":"145.7107795","Name":"Ghiyeghi Street"},{"Latitude":"15.1418097","Longitude":"145.7159896","Name":"Ghoot Lane"},{"Latitude":"15.1524026","Longitude":"145.7019146","Name":"Gigao Lane"},{"Latitude":"14.1624799","Longitude":"145.2230207","Name":"Ginalangan"},{"Latitude":"15.2124402","Longitude":"145.7172471","Name":"Ginger Avenue"},{"Latitude":"15.2087704","Longitude":"145.7263816","Name":"Gloria Drive"},{"Latitude":"15.2075825","Longitude":"145.7228901","Name":"Gobietno Drive"},{"Latitude":"15.1256698","Longitude":"145.7072810","Name":"Golai Appan Court"},{"Latitude":"15.2052388","Longitude":"145.7228299","Name":"Governor Place"},{"Latitude":"15.1748456","Longitude":"145.7761831","Name":"Granada Drive"},{"Latitude":"15.1472115","Longitude":"145.7035372","Name":"Gregorio Avenue"},{"Latitude":"15.2623471","Longitude":"145.8192051","Name":"Grotto Drive"},{"Latitude":"15.1928598","Longitude":"145.7222884","Name":"Gualo Rai Road"},{"Latitude":"15.2069075","Longitude":"145.7362861","Name":"Guela Avenue"},{"Latitude":"15.2170637","Longitude":"145.7528740","Name":"Guguan Drive"},{"Latitude":"15.1353481","Longitude":"145.6964754","Name":"Guihan Street"},{"Latitude":"15.1443108","Longitude":"145.7042545","Name":"Guilermo Avenue"},{"Latitude":"15.1363920","Longitude":"145.6978787","Name":"Guili Street"},{"Latitude":"15.1547716","Longitude":"145.7361643","Name":"Gulek Lane"},{"Latitude":"15.1415454","Longitude":"145.7174757","Name":"Gunot Way"},{"Latitude":"15.2039744","Longitude":"145.7503995","Name":"Gurugur Lane"},{"Latitude":"15.2128837","Longitude":"145.7339447","Name":"Gurupu Drive"},{"Latitude":"15.1330991","Longitude":"145.7374801","Name":"Hafa Adai Avenue"},{"Latitude":"15.1810124","Longitude":"145.7613394","Name":"Hafey Lane"},{"Latitude":"15.2159894","Longitude":"145.7497480","Name":"Hafno Street"},{"Latitude":"15.1524298","Longitude":"145.7100623","Name":"Hagoi Road"},{"Latitude":"15.1512372","Longitude":"145.7214647","Name":"Hagon Place"},{"Latitude":"15.1422663","Longitude":"145.7141688","Name":"Haigue Place"},{"Latitude":"15.1339736","Longitude":"145.6951051","Name":"Hakmang Avenue"},{"Latitude":"15.1667817","Longitude":"145.7839752","Name":"Half Flower Street"},{"Latitude":"15.1332771","Longitude":"145.7199448","Name":"Halle Place"},{"Latitude":"15.1599940","Longitude":"145.7842565","Name":"Hamlag Avenue"},{"Latitude":"15.2383453","Longitude":"145.7538622","Name":"Haran Street"},{"Latitude":"15.1780592","Longitude":"145.7794145","Name":"Hasngot Drive"},{"Latitude":"15.1703076","Longitude":"145.7885715","Name":"Hayu Avenue"},{"Latitude":"15.1403327","Longitude":"145.7036939","Name":"Henaro Place"},{"Latitude":"15.1422550","Longitude":"145.7040518","Name":"Herman Drive"},{"Latitude":"15.2103851","Longitude":"145.7183993","Name":"Hibiscus Street"},{"Latitude":"15.1820695","Longitude":"145.7689627","Name":"Hikamas Way"},{"Latitude":"15.2691145","Longitude":"145.8006098","Name":"Hilitai Drive"},{"Latitude":"15.1919432","Longitude":"145.7250368","Name":"Historia Place"},{"Latitude":"15.1339736","Longitude":"145.6951051","Name":"Hiteng Street"},{"Latitude":"15.1344587","Longitude":"145.6963352","Name":"Hiyok Street"},{"Latitude":"15.1337428","Longitude":"145.7308840","Name":"Holiday Drive"},{"Latitude":"15.1548028","Longitude":"145.7274122","Name":"Honggo Place"},{"Latitude":"15.1445634","Longitude":"145.7389492","Name":"Hook Lane"},{"Latitude":"15.1809423","Longitude":"145.7638307","Name":"Hooni Place"},{"Latitude":"15.2104901","Longitude":"145.7247079","Name":"Hospital Drive"},{"Latitude":"15.2374153","Longitude":"145.7536927","Name":"Houhafey Court"},{"Latitude":"15.2038934","Longitude":"145.7216190","Name":"Husga Avenue"},{"Latitude":"15.1513788","Longitude":"145.7196467","Name":"Husk Lane"},{"Latitude":"15.1801418","Longitude":"145.7815038","Name":"Ibba Street"},{"Latitude":"15.1219614","Longitude":"145.7132580","Name":"Ice Keki Street"},{"Latitude":"15.2009729","Longitude":"145.7554357","Name":"Ifet Drive"},{"Latitude":"15.1246975","Longitude":"145.7073189","Name":"Ilotes Way"},{"Latitude":"15.1326408","Longitude":"145.7311460","Name":"Independence Loop"},{"Latitude":"15.1615112","Longitude":"145.7846473","Name":"Indian Beech Court"},{"Latitude":"15.2232884","Longitude":"145.7354320","Name":"Industrial Drive"},{"Latitude":"15.1385488","Longitude":"145.7026790","Name":"Iniko Drive"},{"Latitude":"15.1912426","Longitude":"145.7492951","Name":"Ink Berry Lane"},{"Latitude":"15.1572080","Longitude":"145.7047551","Name":"Insatio Street"},{"Latitude":"15.1687571","Longitude":"145.7872796","Name":"Ironwood Street"},{"Latitude":"15.1533909","Longitude":"145.7384829","Name":"Isa Drive"},{"Latitude":"15.2140601","Longitude":"145.7500166","Name":"Iseta Court"},{"Latitude":"15.2145554","Longitude":"145.7345458","Name":"Isla Drive"},{"Latitude":"15.1869677","Longitude":"145.7245892","Name":"Isley Place"},{"Latitude":"15.1492555","Longitude":"145.7052828","Name":"Jacinto Avenue"},{"Latitude":"15.1250891","Longitude":"145.7312585","Name":"Japan Airlines Lane"},{"Latitude":"15.1436122","Longitude":"145.7027500","Name":"Joaquin Kiyu Avenue"},{"Latitude":"15.1445174","Longitude":"145.7004127","Name":"Juan Nong Street"},{"Latitude":"15.1436716","Longitude":"145.7022816","Name":"Juan Tagabuel Street"},{"Latitude":"15.2029791","Longitude":"145.7232750","Name":"Judge Drive"},{"Latitude":"15.2020354","Longitude":"145.7236465","Name":"Judge Way"},{"Latitude":"15.2026321","Longitude":"145.7288599","Name":"Justice Place"},{"Latitude":"15.1338256","Longitude":"145.6954543","Name":"Kacho Avenue"},{"Latitude":"15.2054869","Longitude":"145.7186949","Name":"Kadena Di Amor Street"},{"Latitude":"15.1820937","Longitude":"145.7806457","Name":"Kafe Street"},{"Latitude":"15.1714799","Longitude":"145.7789984","Name":"Kafo Court"},{"Latitude":"15.1756551","Longitude":"145.7657031","Name":"Kagman Road"},{"Latitude":"15.1778957","Longitude":"145.7799925","Name":"Kahet Avenue"},{"Latitude":"15.1800221","Longitude":"145.7815294","Name":"Kakaguates Avenue"},{"Latitude":"15.1803610","Longitude":"145.7754503","Name":"Kalabasa Loop"},{"Latitude":"15.2082719","Longitude":"145.7206878","Name":"Kalachucha Avenue"},{"Latitude":"15.1814984","Longitude":"145.7759088","Name":"Kalamasa Loop"},{"Latitude":"15.1822405","Longitude":"145.7764653","Name":"Kalamenook Lane"},{"Latitude":"15.2026039","Longitude":"145.7534655","Name":"Kalaskas Drive"},{"Latitude":"15.1433593","Longitude":"145.7293833","Name":"Kaling Drive"},{"Latitude":"15.1755306","Longitude":"145.7786986","Name":"Kamachili Avenue"},{"Latitude":"15.1812727","Longitude":"145.7800968","Name":"Kamas Street"},{"Latitude":"15.2116822","Longitude":"145.7213626","Name":"Kamia Avenue"},{"Latitude":"15.1460275","Longitude":"145.7382032","Name":"Kamma Place"},{"Latitude":"15.1507814","Longitude":"145.7262855","Name":"Kanastra Avenue"},{"Latitude":"15.1591579","Longitude":"145.7321455","Name":"Kannat Tabla Drive"},{"Latitude":"15.2519935","Longitude":"145.7866763","Name":"Kanon Court"},{"Latitude":"15.2529799","Longitude":"145.7882977","Name":"Kanon Drive"},{"Latitude":"15.2066567","Longitude":"145.7356175","Name":"Kapitan Avenue"},{"Latitude":"15.2528926","Longitude":"145.7858534","Name":"Kara Court"},{"Latitude":"15.2350354","Longitude":"145.7467783","Name":"Karanja Lane"},{"Latitude":"15.1578916","Longitude":"145.7366237","Name":"Katbon Road"},{"Latitude":"15.1220837","Longitude":"145.7055118","Name":"Katdo Court"},{"Latitude":"15.1467374","Longitude":"145.7407041","Name":"Kattan Hudda Drive"},{"Latitude":"15.1518912","Longitude":"145.7357257","Name":"Katupat Drive"},{"Latitude":"15.2072951","Longitude":"145.7523201","Name":"Kawayalein Avenue"},{"Latitude":"15.1229683","Longitude":"145.7077031","Name":"Kelaguen Street"},{"Latitude":"15.1309789","Longitude":"145.6951905","Name":"Kichu Avenue"},{"Latitude":"15.1224627","Longitude":"145.7040128","Name":"Koblerville Road"},{"Latitude":"15.2020206","Longitude":"145.7253325","Name":"Komiti Avenue"},{"Latitude":"15.1558814","Longitude":"145.7435672","Name":"Kommat Way"},{"Latitude":"15.1813854","Longitude":"145.7719010","Name":"Kondot Lane"},{"Latitude":"15.1468664","Longitude":"145.7027606","Name":"Konsolacion Street"},{"Latitude":"15.1401143","Longitude":"145.7230810","Name":"Kostat Drive"},{"Latitude":"15.1531887","Longitude":"145.7008796","Name":"Kotdet Place"},{"Latitude":"15.1617067","Longitude":"145.7203553","Name":"Kulot Di Rosa Drive"},{"Latitude":"15.1612148","Longitude":"145.7189278","Name":"Kulot Kahet Place"},{"Latitude":"15.1874919","Longitude":"145.7499592","Name":"La La Place"},{"Latitude":"15.1680710","Longitude":"145.7866830","Name":"Ladda Street"},{"Latitude":"15.1109639","Longitude":"145.7163531","Name":"Ladder Beach Drive"},{"Latitude":"15.2196200","Longitude":"145.7453690","Name":"Laguna Drive"},{"Latitude":"15.1359771","Longitude":"145.6977410","Name":"Laiguan Avenue"},{"Latitude":"15.1740383","Longitude":"145.7820919","Name":"Lalangha Avenue"},{"Latitude":"15.1667654","Longitude":"145.7837829","Name":"Lalanghita Road"},{"Latitude":"15.1540110","Longitude":"145.7438489","Name":"Lamasa Place"},{"Latitude":"15.1317202","Longitude":"145.7185241","Name":"Lana Drive"},{"Latitude":"15.1366298","Longitude":"145.7281561","Name":"Lancet Place"},{"Latitude":"15.2481765","Longitude":"145.7752369","Name":"Lancho Avenue"},{"Latitude":"15.1705482","Longitude":"145.7798228","Name":"Langiti Avenue"},{"Latitude":"15.1528344","Longitude":"145.7019534","Name":"Langse Street"},{"Latitude":"15.1511101","Longitude":"145.7441745","Name":"Lansa Place"},{"Latitude":"15.1698325","Longitude":"145.7417936","Name":"Lantana Place"},{"Latitude":"15.1627823","Longitude":"145.7565094","Name":"Lau Lau Bay Drive"},{"Latitude":"15.1388231","Longitude":"145.7230974","Name":"Leche Lane"},{"Latitude":"15.2345586","Longitude":"145.7492289","Name":"Leenwoong Way"},{"Latitude":"15.1793067","Longitude":"145.7780432","Name":"Lemmai Way"},{"Latitude":"15.0841860","Longitude":"145.6348512","Name":"Lenox Avenue"},{"Latitude":"15.2060790","Longitude":"145.7198644","Name":"Leston Street"},{"Latitude":"15.1937919","Longitude":"145.7228903","Name":"Liberation Lane"},{"Latitude":"15.2401338","Longitude":"145.7538524","Name":"Libwotmerha Place"},{"Latitude":"15.2382652","Longitude":"145.7530977","Name":"Liger Court"},{"Latitude":"15.1617760","Longitude":"145.7175007","Name":"Lila Place"},{"Latitude":"15.1963524","Longitude":"145.7180284","Name":"Llat Street"},{"Latitude":"15.1613884","Longitude":"145.7398137","Name":"Lommok Place"},{"Latitude":"15.2308999","Longitude":"145.7451531","Name":"Lower Base Drive"},{"Latitude":"15.1981943","Longitude":"145.7741250","Name":"Luao Drive"},{"Latitude":"15.1479951","Longitude":"145.7057996","Name":"Lucia Street"},{"Latitude":"15.1485249","Longitude":"145.7053545","Name":"Luis Street"},{"Latitude":"15.1524839","Longitude":"145.7043669","Name":"Lulai Way"},{"Latitude":"15.1534881","Longitude":"145.7408610","Name":"Lupok Way"},{"Latitude":"15.1892837","Longitude":"145.7254841","Name":"Macarthur Drive"},{"Latitude":"15.1317665","Longitude":"145.6955548","Name":"Mafute Street"},{"Latitude":"15.2084167","Longitude":"145.7283423","Name":"Magas Loop"},{"Latitude":"15.2500577","Longitude":"145.7801680","Name":"Magazine Drive"},{"Latitude":"15.1338663","Longitude":"145.7383261","Name":"Magicienne Bay Avenue"},{"Latitude":"15.1333023","Longitude":"145.7059397","Name":"Maguro Drive"},{"Latitude":"15.2087923","Longitude":"145.7524909","Name":"Majuro Lane"},{"Latitude":"15.1600056","Longitude":"145.7315627","Name":"Makao Way"},{"Latitude":"15.1748925","Longitude":"145.7661355","Name":"Makupa Road"},{"Latitude":"15.2476439","Longitude":"145.7742929","Name":"Malakes Street"},{"Latitude":"15.1928696","Longitude":"145.7213073","Name":"Malta Lane"},{"Latitude":"15.2493771","Longitude":"145.7723016","Name":"Mamate Loop"},{"Latitude":"15.2228615","Longitude":"145.7609275","Name":"Managaha Place"},{"Latitude":"15.2087020","Longitude":"145.7334966","Name":"Manamko Place"},{"Latitude":"15.1745844","Longitude":"145.7819520","Name":"Mangga Street"},{"Latitude":"15.2288760","Longitude":"145.7432121","Name":"Manglen Way"},{"Latitude":"15.1580720","Longitude":"145.7305422","Name":"Manila Lane"},{"Latitude":"15.1783340","Longitude":"145.7809885","Name":"Mansanita Street"},{"Latitude":"15.1380641","Longitude":"145.7387934","Name":"Mapagahes Lane"},{"Latitude":"15.2049913","Longitude":"145.7180138","Name":"Mapola Street"},{"Latitude":"15.1467184","Longitude":"145.7060075","Name":"Margarita Avenue"},{"Latitude":"15.2186499","Longitude":"145.7396597","Name":"Marinu Place"},{"Latitude":"15.2690846","Longitude":"145.8073471","Name":"Marpi Parkway"},{"Latitude":"15.2468795","Longitude":"145.7759788","Name":"Marpi Street"},{"Latitude":"15.2082075","Longitude":"145.7517354","Name":"Marshall"},{"Latitude":"15.1469956","Longitude":"145.7249202","Name":"Mason Place"},{"Latitude":"15.1618439","Longitude":"145.7825459","Name":"Mastwood Street"},{"Latitude":"15.2536443","Longitude":"145.7861079","Name":"Matansa Drive"},{"Latitude":"15.1705576","Longitude":"145.7849869","Name":"Matbas Drive"},{"Latitude":"15.2172964","Longitude":"145.7486083","Name":"Mate (Hafno) Drive"},{"Latitude":"15.2029616","Longitude":"145.7240081","Name":"Matsue Steet"},{"Latitude":"15.2142536","Longitude":"145.7535314","Name":"Maug Place"},{"Latitude":"15.2107120","Longitude":"145.7319178","Name":"Mayoria Avenue"},{"Latitude":"15.2069434","Longitude":"145.7234373","Name":"Mayot Avenue"},{"Latitude":"15.1767292","Longitude":"145.7642596","Name":"Medicine Place"},{"Latitude":"15.1713384","Longitude":"145.7710171","Name":"Melon Drive"},{"Latitude":"15.1340486","Longitude":"145.7325159","Name":"Mestisa Avenue"},{"Latitude":"15.2149382","Longitude":"145.7207156","Name":"Micro Beach Road"},{"Latitude":"15.1635520","Longitude":"145.7246105","Name":"Mikulot Drive"},{"Latitude":"15.2491837","Longitude":"145.7869436","Name":"Mina Drive"},{"Latitude":"15.1745245","Longitude":"145.7789427","Name":"Monggos Place"},{"Latitude":"15.1964436","Longitude":"145.7528974","Name":"Monkey Pod Place"},{"Latitude":"14.1662691","Longitude":"145.2621746","Name":"Monsignor Louis Antonelli Road"},{"Latitude":"15.1986069","Longitude":"145.7722088","Name":"Morhen Place"},{"Latitude":"15.1759765","Longitude":"145.7786186","Name":"Mostasa Place"},{"Latitude":"15.1325374","Longitude":"145.7335910","Name":"Mwaremwar Avenue"},{"Latitude":"15.1178349","Longitude":"145.7502763","Name":"Naftan Road"},{"Latitude":"15.1541266","Longitude":"145.7204799","Name":"Nagao Place"},{"Latitude":"15.1452017","Longitude":"145.7153636","Name":"Nan Iching Lane"},{"Latitude":"15.2033827","Longitude":"145.7549189","Name":"Nanka Lane"},{"Latitude":"15.1710295","Longitude":"145.7730913","Name":"Nappa Lane"},{"Latitude":"15.1539075","Longitude":"145.7062102","Name":"Nasa Place"},{"Latitude":"15.1335379","Longitude":"145.7302822","Name":"Natibu Place"},{"Latitude":"15.1549739","Longitude":"145.7420559","Name":"Nativo Drive"},{"Latitude":"15.1557534","Longitude":"145.7061662","Name":"Nauru Loop"},{"Latitude":"15.2056460","Longitude":"145.7358014","Name":"Navy Hill Road"},{"Latitude":"15.1752212","Longitude":"145.7749489","Name":"Neri Place"},{"Latitude":"15.1738010","Longitude":"145.7193515","Name":"Nguus Drive"},{"Latitude":"15.1472984","Longitude":"145.7067081","Name":"Nicolasa Avenue"},{"Latitude":"15.1699034","Longitude":"145.7879490","Name":"Nigas Avenue"},{"Latitude":"15.1829288","Longitude":"145.7733404","Name":"Nika Place"},{"Latitude":"15.1985901","Longitude":"145.7295603","Name":"Nimitz Lane"},{"Latitude":"15.1727632","Longitude":"145.7847191","Name":"Niyoron Street"},{"Latitude":"15.2169309","Longitude":"145.7441312","Name":"Nonak Drive"},{"Latitude":"15.1688216","Longitude":"145.7736093","Name":"Nonnak Avenue"},{"Latitude":"15.1221625","Longitude":"145.7234880","Name":"Northwest Loop"},{"Latitude":"15.1328213","Longitude":"145.7068722","Name":"Nufo Place"},{"Latitude":"15.2129466","Longitude":"145.7323132","Name":"Ocean View Drive"},{"Latitude":"15.1648324","Longitude":"145.7120577","Name":"Oleai Street"},{"Latitude":"15.1501483","Longitude":"145.7266948","Name":"Olofa Place"},{"Latitude":"15.1474425","Longitude":"145.7073946","Name":"Olympio Avenue"},{"Latitude":"15.2113047","Longitude":"145.7194426","Name":"Orchid Street"},{"Latitude":"15.2282880","Longitude":"145.7504197","Name":"Orthopay Place"},{"Latitude":"15.1523853","Longitude":"145.7036694","Name":"Pachinko Avenue"},{"Latitude":"15.1635239","Longitude":"145.7447646","Name":"Pacific Heights Lane"},{"Latitude":"15.2116041","Longitude":"145.7542417","Name":"Pagan Loop"},{"Latitude":"15.2283114","Longitude":"145.7458344","Name":"Pagu Avenue"},{"Latitude":"15.1760932","Longitude":"145.7824597","Name":"Pagua Avenue"},{"Latitude":"15.1704866","Longitude":"145.7787948","Name":"Pahong Street"},{"Latitude":"15.2188784","Longitude":"145.7585437","Name":"Pajalon"},{"Latitude":"15.1228557","Longitude":"145.6997705","Name":"Paksiu Court"},{"Latitude":"15.1544041","Longitude":"145.7292147","Name":"Paladan Place"},{"Latitude":"15.1688519","Longitude":"145.7440495","Name":"Palai Way"},{"Latitude":"15.1628873","Longitude":"145.7831352","Name":"Palambra Court"},{"Latitude":"15.1697321","Longitude":"145.7767309","Name":"Palaoa Hilitai Court"},{"Latitude":"14.1388366","Longitude":"145.1498307","Name":"Pali'E Road"},{"Latitude":"15.2146687","Longitude":"145.7192531","Name":"Palm Street"},{"Latitude":"15.1571958","Longitude":"145.7403988","Name":"Palu Lane"},{"Latitude":"15.1947754","Longitude":"145.7604667","Name":"Paluman Apo Loop"},{"Latitude":"15.2133641","Longitude":"145.7275640","Name":"Paluw Lane"},{"Latitude":"15.2034284","Longitude":"145.7527757","Name":"Panao Place"},{"Latitude":"15.2166113","Longitude":"145.7320702","Name":"Pantalan Circle"},{"Latitude":"15.1956952","Longitude":"145.7527613","Name":"Papago Drive"},{"Latitude":"15.1755391","Longitude":"145.7833767","Name":"Papaya Drive"},{"Latitude":"15.1683232","Longitude":"145.7211216","Name":"Parapar Place"},{"Latitude":"15.1446392","Longitude":"145.7407174","Name":"Parasail Place"},{"Latitude":"14.9478172","Longitude":"145.6357369","Name":"Park Row Road"},{"Latitude":"15.1346412","Longitude":"145.7365669","Name":"Pasehu Court"},{"Latitude":"15.1330806","Longitude":"145.7370583","Name":"Pasgua Court"},{"Latitude":"15.2126130","Longitude":"145.7267436","Name":"Patt Ida Drive"},{"Latitude":"14.1603310","Longitude":"145.1645798","Name":"Patten Gogue Road"},{"Latitude":"15.1488353","Longitude":"145.7095425","Name":"Pedro Lane"},{"Latitude":"15.1312590","Longitude":"145.7218751","Name":"Peilu Place"},{"Latitude":"15.1192905","Longitude":"145.7124771","Name":"Pendan Street"},{"Latitude":"15.1768596","Longitude":"145.7503803","Name":"Pengua Place"},{"Latitude":"15.1713573","Longitude":"145.7838733","Name":"Pepega Avenue"},{"Latitude":"15.2472766","Longitude":"145.7745483","Name":"Peskadot Street"},{"Latitude":"15.1468440","Longitude":"145.7085516","Name":"Petra Avenue"},{"Latitude":"15.1438283","Longitude":"145.7014070","Name":"Petro Yobbo Avenue"},{"Latitude":"15.2246336","Longitude":"145.7412395","Name":"Pila Drive"},{"Latitude":"15.2473784","Longitude":"145.7718995","Name":"Piligro Lane"},{"Latitude":"15.1633278","Longitude":"145.7839199","Name":"Pine Drive"},{"Latitude":"15.1306093","Longitude":"145.7028186","Name":"Pios Drive"},{"Latitude":"15.1830184","Longitude":"145.7806106","Name":"Pipinu Court"},{"Latitude":"15.1425323","Longitude":"145.7013892","Name":"Pitu Street"},{"Latitude":"15.1674717","Longitude":"145.7245411","Name":"Plata Drive"},{"Latitude":"15.2126437","Longitude":"145.7168761","Name":"Plumeria Avenue"},{"Latitude":"15.1694245","Longitude":"145.7890210","Name":"Poinciana Street"},{"Latitude":"15.1287502","Longitude":"145.7207196","Name":"Pontan Drive"},{"Latitude":"15.1208826","Longitude":"145.7023975","Name":"Potu Court"},{"Latitude":"15.1519140","Longitude":"145.7370806","Name":"Proas Lane"},{"Latitude":"15.2135965","Longitude":"145.7283165","Name":"Publiko Drive"},{"Latitude":"15.2208780","Longitude":"145.7373269","Name":"Puerto Rico Drive"},{"Latitude":"15.2221482","Longitude":"145.7338938","Name":"Puetto Street"},{"Latitude":"15.1799427","Longitude":"145.7807844","Name":"Pugua Avenue"},{"Latitude":"15.1372427","Longitude":"145.7388795","Name":"Pulan Lane"},{"Latitude":"15.1844957","Longitude":"145.7164813","Name":"Pumpkin Street"},{"Latitude":"15.1930029","Longitude":"145.7171241","Name":"Pupulu Drive"},{"Latitude":"15.1698948","Longitude":"145.7812995","Name":"Puteng Drive"},{"Latitude":"15.2081025","Longitude":"145.7185287","Name":"Puti Tainobui Avenue"},{"Latitude":"15.1368702","Longitude":"145.7371490","Name":"Pution Lane"},{"Latitude":"15.1808758","Longitude":"145.7163978","Name":"Quarter Master Road"},{"Latitude":"15.1813501","Longitude":"145.7817212","Name":"Radis Avenue"},{"Latitude":"15.1980299","Longitude":"145.7230843","Name":"Raghisch Street"},{"Latitude":"15.1898399","Longitude":"145.7239709","Name":"Rai Drive"},{"Latitude":"15.1632057","Longitude":"145.7488493","Name":"Railroad Drive"},{"Latitude":"15.1596081","Longitude":"145.7184498","Name":"Rayao Loop"},{"Latitude":"15.2457254","Longitude":"145.7735011","Name":"Reef Place"},{"Latitude":"15.2421535","Longitude":"145.7576165","Name":"Rhapfanu Court"},{"Latitude":"15.1689676","Longitude":"145.7177254","Name":"Rhoo Loop"},{"Latitude":"15.2438890","Longitude":"145.7624476","Name":"Rhoobut Lane"},{"Latitude":"15.0161241","Longitude":"145.5885678","Name":"Riverside Drive"},{"Latitude":"15.1827416","Longitude":"145.7235381","Name":"Robat Drive"},{"Latitude":"15.2030219","Longitude":"145.7180072","Name":"Rosa Street"},{"Latitude":"15.1264570","Longitude":"145.7098883","Name":"Rosat Court"},{"Latitude":"15.2070684","Longitude":"145.7167130","Name":"Rose Street"},{"Latitude":"15.1707471","Longitude":"145.7875150","Name":"Rosewood Street"},{"Latitude":"15.2131967","Longitude":"145.7537972","Name":"Rota Place"},{"Latitude":"15.2135891","Longitude":"145.7190904","Name":"Royal Palm Avenue"},{"Latitude":"15.1333111","Longitude":"145.7274437","Name":"Saagh Place"},{"Latitude":"14.1659794","Longitude":"145.2177458","Name":"Sabana Road"},{"Latitude":"15.2223650","Longitude":"145.7424361","Name":"Sadog Tasi Drive"},{"Latitude":"15.1309789","Longitude":"145.6951905","Name":"Sagamilon Street"},{"Latitude":"15.1386895","Longitude":"145.7368844","Name":"Sailing Drive"},{"Latitude":"15.2057060","Longitude":"145.7292366","Name":"Saina Place"},{"Latitude":"15.2162077","Longitude":"145.7541183","Name":"Saipan Place"},{"Latitude":"15.1613047","Longitude":"145.7325242","Name":"Sakkat Lane"},{"Latitude":"15.2140023","Longitude":"145.7279304","Name":"Saluda Street"},{"Latitude":"15.2425139","Longitude":"145.7546948","Name":"Samoa Avenue"},{"Latitude":"15.1337441","Longitude":"145.6962254","Name":"San Antonio Street"},{"Latitude":"14.1721880","Longitude":"145.1894479","Name":"San Francisco de Borja Highway"},{"Latitude":"15.1461457","Longitude":"145.7006730","Name":"San Isidro Avenue"},{"Latitude":"15.2476439","Longitude":"145.7742929","Name":"San Roque Drive"},{"Latitude":"15.1505347","Longitude":"145.7386698","Name":"San Vicente Loop"},{"Latitude":"15.1272413","Longitude":"145.7427624","Name":"Sand Street"},{"Latitude":"15.1939106","Longitude":"145.7554991","Name":"Santa Lourdes Road"},{"Latitude":"15.2345965","Longitude":"145.7472259","Name":"Santa Remedios Road"},{"Latitude":"15.1606596","Longitude":"145.7059985","Name":"Sarawi Boulevard"},{"Latitude":"15.2420734","Longitude":"145.7539308","Name":"Satoni Drive"},{"Latitude":"15.1478832","Longitude":"145.7286268","Name":"Schoofar Lane"},{"Latitude":"15.1673162","Longitude":"145.7860537","Name":"Screw Pine Court"},{"Latitude":"15.2443619","Longitude":"145.7673299","Name":"Sea Coast Lane"},{"Latitude":"15.1224793","Longitude":"145.6977132","Name":"Sentada Court"},{"Latitude":"15.1743427","Longitude":"145.7749500","Name":"Sereguidillas Place"},{"Latitude":"15.1555992","Longitude":"145.7377960","Name":"Shoko Drive"},{"Latitude":"15.2073225","Longitude":"145.7541514","Name":"Siher Drive"},{"Latitude":"15.1611103","Longitude":"145.7841405","Name":"Silver Bush Avenue"},{"Latitude":"15.1625129","Longitude":"145.7819884","Name":"Silver Pipturus Avenue"},{"Latitude":"15.1445319","Longitude":"145.7018718","Name":"Simion Olopai Avenue"},{"Latitude":"15.1430261","Longitude":"145.7239665","Name":"Simiya Place"},{"Latitude":"15.1639942","Longitude":"145.7472236","Name":"Sinagu Lane"},{"Latitude":"14.1652182","Longitude":"145.2263861","Name":"Sinapalo II"},{"Latitude":"14.1627602","Longitude":"145.2305079","Name":"Sinapalo Road"},{"Latitude":"15.1321480","Longitude":"145.7258875","Name":"Sineso Lane"},{"Latitude":"15.1304034","Longitude":"145.7356998","Name":"Sirena Avenue"},{"Latitude":"15.1482037","Longitude":"145.7320404","Name":"Sky Dive Place"},{"Latitude":"15.2173407","Longitude":"145.7290575","Name":"Smiling Cove Road"},{"Latitude":"15.1461784","Longitude":"145.7073906","Name":"Soledad Loop"},{"Latitude":"15.1802742","Longitude":"145.7484724","Name":"Sosugi Drive"},{"Latitude":"15.1661199","Longitude":"145.7854383","Name":"Sour Plum Street"},{"Latitude":"15.2010921","Longitude":"145.7235562","Name":"Speaker Lane"},{"Latitude":"15.2413832","Longitude":"145.7571891","Name":"Ssg Wilgene Leito"},{"Latitude":"15.2061366","Longitude":"145.7231695","Name":"Sugar King Road"},{"Latitude":"15.2514989","Longitude":"145.7847471","Name":"Suito Drive"},{"Latitude":"15.1539521","Longitude":"145.7022067","Name":"Sulo Street"},{"Latitude":"15.1442081","Longitude":"145.7231785","Name":"Sulon Place"},{"Latitude":"15.1420620","Longitude":"145.7380875","Name":"Sun Rise Place"},{"Latitude":"15.1770067","Longitude":"145.7751433","Name":"Suni Lane"},{"Latitude":"15.1563714","Longitude":"145.7034747","Name":"Susupe Street"},{"Latitude":"15.2008288","Longitude":"145.7180208","Name":"Suyur Street"},{"Latitude":"15.1374662","Longitude":"145.7317931","Name":"Swimming Lane"},{"Latitude":"15.1610875","Longitude":"145.7384621","Name":"Taga Drive"},{"Latitude":"15.1747861","Longitude":"145.7465519","Name":"Tagan Tagan Drive"},{"Latitude":"15.1345827","Longitude":"145.7199669","Name":"Tahu Lane"},{"Latitude":"15.1989663","Longitude":"145.7180235","Name":"Taibwo Street"},{"Latitude":"14.1473917","Longitude":"145.1456304","Name":"Taimama Road"},{"Latitude":"15.2426446","Longitude":"145.7591566","Name":"Talaabwogh Avenue"},{"Latitude":"15.1262116","Longitude":"145.7027892","Name":"Talapia Lane"},{"Latitude":"15.1538000","Longitude":"145.7025934","Name":"Talaya Avenue"},{"Latitude":"15.2084596","Longitude":"145.7657148","Name":"Talofofo Road"},{"Latitude":"15.1233151","Longitude":"145.7085034","Name":"Tamales Court"},{"Latitude":"15.2119021","Longitude":"145.7210490","Name":"Tamantigi Street"},{"Latitude":"15.1672270","Longitude":"145.7115832","Name":"Tammwoora Avenue"},{"Latitude":"15.1444319","Longitude":"145.7297871","Name":"Tan Marikitan Pan Lane"},{"Latitude":"15.2401223","Longitude":"145.7550284","Name":"Tanapag Avenue"},{"Latitude":"15.1539616","Longitude":"145.7295746","Name":"Tanduki Road"},{"Latitude":"15.1734772","Longitude":"145.7831399","Name":"Tank Beach Place"},{"Latitude":"15.2493542","Longitude":"145.7856004","Name":"Tanko Drive"},{"Latitude":"15.2083214","Longitude":"145.7509764","Name":"Tapochau Road"},{"Latitude":"15.1326757","Longitude":"145.6949648","Name":"Tarakitu Street"},{"Latitude":"15.1309933","Longitude":"145.7410970","Name":"Tasi Lanen"},{"Latitude":"15.1331937","Longitude":"145.6959973","Name":"Tataga Street"},{"Latitude":"15.1648859","Longitude":"145.7093930","Name":"Teer Drive"},{"Latitude":"15.1588340","Longitude":"145.7065743","Name":"Tekken Street"},{"Latitude":"15.1369482","Longitude":"145.7361870","Name":"Tenda Avenue"},{"Latitude":"15.1598624","Longitude":"145.7118679","Name":"Texas Road"},{"Latitude":"15.1281592","Longitude":"145.7020069","Name":"Tiao Lane"},{"Latitude":"15.1374782","Longitude":"145.7228859","Name":"Tika Lane"},{"Latitude":"15.1212001","Longitude":"145.7053646","Name":"Tinaktak Drive"},{"Latitude":"15.1219298","Longitude":"145.7050787","Name":"Tinala Avenue"},{"Latitude":"15.1439474","Longitude":"145.7245535","Name":"Tinanom Place"},{"Latitude":"15.2096114","Longitude":"145.7587602","Name":"Tinian Lane"},{"Latitude":"15.1653666","Longitude":"145.7218474","Name":"Tinta Loop"},{"Latitude":"15.1695327","Longitude":"145.7630220","Name":"Titimu Avenue"},{"Latitude":"15.1540335","Longitude":"145.7032553","Name":"Tokcha Avenue"},{"Latitude":"15.1280448","Longitude":"145.7010539","Name":"Toson Drive"},{"Latitude":"15.1374796","Longitude":"145.7309150","Name":"Tourist Loop"},{"Latitude":"15.1928330","Longitude":"145.7243009","Name":"Towers Lane"},{"Latitude":"15.1532286","Longitude":"145.7044193","Name":"Tramoha Avenue"},{"Latitude":"15.1414780","Longitude":"145.7365047","Name":"Trolling Place"},{"Latitude":"15.1725373","Longitude":"145.7820775","Name":"Tuba Tuba Street"},{"Latitude":"15.1764009","Longitude":"145.7648495","Name":"Tumaga Place"},{"Latitude":"15.1637691","Longitude":"145.7235493","Name":"Tumu Lane"},{"Latitude":"15.1456713","Longitude":"145.7019961","Name":"Tun Segundo Street"},{"Latitude":"15.1449318","Longitude":"145.7125319","Name":"Tundoe Road"},{"Latitude":"15.1538956","Longitude":"145.7045268","Name":"Tupak Street"},{"Latitude":"15.1788813","Longitude":"145.7756974","Name":"Tupu Lane"},{"Latitude":"15.2086010","Longitude":"145.7566562","Name":"Turtle Drive"},{"Latitude":"15.1505912","Longitude":"145.7408758","Name":"Tuturam Drive"},{"Latitude":"15.1773542","Longitude":"145.7821572","Name":"Ubas Street"},{"Latitude":"15.2287376","Longitude":"145.7452965","Name":"Ufa Street"},{"Latitude":"15.1316591","Longitude":"145.6957800","Name":"Uhang Avenue"},{"Latitude":"15.2618823","Longitude":"145.7907660","Name":"Umang Drive"},{"Latitude":"15.1485210","Longitude":"145.7008139","Name":"Un East Road"},{"Latitude":"15.1451519","Longitude":"145.7000633","Name":"Un Pr Road B"},{"Latitude":"15.1915266","Longitude":"145.7163338","Name":"Un Road A"},{"Latitude":"15.1937848","Longitude":"145.7167756","Name":"Un Road D"},{"Latitude":"15.2728756","Longitude":"145.8195094","Name":"Unai Laggua Drive"},{"Latitude":"15.2175978","Longitude":"145.7370657","Name":"Unai Lane"},{"Latitude":"15.1875921","Longitude":"145.7253238","Name":"United Nations Lane"},{"Latitude":"15.1665394","Longitude":"145.7122598","Name":"Ur Street"},{"Latitude":"15.2095448","Longitude":"145.7580548","Name":"Uracas Lane"},{"Latitude":"14.1457094","Longitude":"145.1438827","Name":"V B Manglona Ent"},{"Latitude":"15.1647340","Longitude":"145.7848079","Name":"Velvet Leaf Court"},{"Latitude":"15.1936263","Longitude":"145.7224620","Name":"Vete Ran Drive"},{"Latitude":"15.1434653","Longitude":"145.7349998","Name":"Walking Place"},{"Latitude":"14.9627477","Longitude":"145.6432774","Name":"Wall Street"},{"Latitude":"15.1833394","Longitude":"145.7179626","Name":"Walumwo Street"},{"Latitude":"15.1893352","Longitude":"145.7388508","Name":"Waserak Road"},{"Latitude":"15.2253688","Longitude":"145.7834512","Name":"Windward Road"},{"Latitude":"15.2692098","Longitude":"145.7899282","Name":"Wing Beach Place"},{"Latitude":"15.1693209","Longitude":"145.7759102","Name":"Wood Avenue"},{"Latitude":"15.2253718","Longitude":"145.7463947","Name":"Woosch Drive"},{"Latitude":"15.2119245","Longitude":"145.7511697","Name":"Yap Drive"},{"Latitude":"15.1710600","Longitude":"145.7614071","Name":"Yetbas Babui Place"},{"Latitude":"15.2009279","Longitude":"145.7552295","Name":"Yogga Lane"},{"Latitude":"15.1722353","Longitude":"145.7858067","Name":"Yoon Place"},{"Latitude":"15.1757854","Longitude":"145.7184242","Name":"Yunga Place"}]