[{"Latitude":"13.1367652","Longitude":"-61.1778210","Name":"A Street, Belvedere"},{"Latitude":"13.1433683","Longitude":"-61.2233980","Name":"Almond Lane"},{"Latitude":"13.1344931","Longitude":"-61.1768029","Name":"B Street, Belvedere"},{"Latitude":"12.6020063","Longitude":"-61.4249075","Name":"Back Street"},{"Latitude":"13.1486151","Longitude":"-61.1999233","Name":"Barramore Road"},{"Latitude":"13.1549933","Longitude":"-61.2268835","Name":"Bay Street"},{"Latitude":"13.1551306","Longitude":"-61.2259728","Name":"Bedford Street"},{"Latitude":"13.1421865","Longitude":"-61.2255103","Name":"Begonia Drive"},{"Latitude":"12.9859426","Longitude":"-61.2499405","Name":"Belmont Road"},{"Latitude":"13.1526887","Longitude":"-61.2230616","Name":"Bonadie Street"},{"Latitude":"13.1484941","Longitude":"-61.1596246","Name":"Bottom Stubbs Road"},{"Latitude":"13.1980510","Longitude":"-61.1719546","Name":"Bristol Road"},{"Latitude":"13.1412062","Longitude":"-61.2085134","Name":"Browne Crescent"},{"Latitude":"13.1345735","Longitude":"-61.1747575","Name":"C Street, Belvedere"},{"Latitude":"13.1432017","Longitude":"-61.2225359","Name":"Cane Garden Drive"},{"Latitude":"13.1488516","Longitude":"-61.1641336","Name":"Carapan Road"},{"Latitude":"13.1415559","Longitude":"-61.2232100","Name":"Carnation Crescent"},{"Latitude":"13.1504209","Longitude":"-61.2176287","Name":"Casson Hill Road"},{"Latitude":"13.1647944","Longitude":"-61.2298789","Name":"Chapman Street"},{"Latitude":"13.2919171","Longitude":"-61.1171090","Name":"Chapmans Village"},{"Latitude":"13.1641128","Longitude":"-61.2302676","Name":"Coutts Street"},{"Latitude":"13.1607751","Longitude":"-61.2278095","Name":"Cox Street"},{"Latitude":"13.1608340","Longitude":"-61.2316644","Name":"Cyrus Street"},{"Latitude":"13.1427412","Longitude":"-61.2260942","Name":"Daisy Lane"},{"Latitude":"13.1319249","Longitude":"-61.1934322","Name":"Dartmouth Street"},{"Latitude":"13.1530963","Longitude":"-61.2133637","Name":"Dorsetshire Hill Road"},{"Latitude":"13.1537865","Longitude":"-61.2243749","Name":"Egmont Street"},{"Latitude":"13.1430093","Longitude":"-61.2245279","Name":"Evergreen Lane"},{"Latitude":"13.1752373","Longitude":"-61.2474744","Name":"Fair View Trace"},{"Latitude":"13.1687124","Longitude":"-61.1990101","Name":"Fenton Road"},{"Latitude":"13.1412412","Longitude":"-61.2235658","Name":"Frangipani"},{"Latitude":"13.1514345","Longitude":"-61.2200516","Name":"Frenches Road"},{"Latitude":"12.9934091","Longitude":"-61.2358714","Name":"Friendship Road"},{"Latitude":"12.5968341","Longitude":"-61.4174044","Name":"Front Street"},{"Latitude":"13.1630308","Longitude":"-61.2301187","Name":"Garvey Street"},{"Latitude":"13.1418663","Longitude":"-61.2246156","Name":"Gerbera Lane"},{"Latitude":"13.1609478","Longitude":"-61.2291271","Name":"Gilles Street"},{"Latitude":"13.1450357","Longitude":"-61.1915539","Name":"Glen Road"},{"Latitude":"13.1515574","Longitude":"-61.2222651","Name":"Granby Street"},{"Latitude":"13.1645946","Longitude":"-61.2292381","Name":"Grant Street"},{"Latitude":"13.1555021","Longitude":"-61.2255774","Name":"Grenville Street"},{"Latitude":"13.1541863","Longitude":"-61.2240420","Name":"Halifax Street"},{"Latitude":"13.1408897","Longitude":"-61.2240568","Name":"Hibiscus Avenue"},{"Latitude":"13.1563029","Longitude":"-61.2285520","Name":"Higginson Street"},{"Latitude":"13.1985500","Longitude":"-61.1716041","Name":"Hill 16"},{"Latitude":"13.1547319","Longitude":"-61.2254522","Name":"Hillsboro East"},{"Latitude":"13.1411412","Longitude":"-61.2248119","Name":"Ixora Lane"},{"Latitude":"13.1400174","Longitude":"-61.2240951","Name":"Jacaranda Avenue"},{"Latitude":"13.1522809","Longitude":"-61.2231678","Name":"James Street"},{"Latitude":"13.1388506","Longitude":"-61.2247693","Name":"Jasmine Avenue"},{"Latitude":"13.1503668","Longitude":"-61.2224160","Name":"Kingstown Hill"},{"Latitude":"13.1396958","Longitude":"-61.2245080","Name":"Lady Slipper Avenue"},{"Latitude":"13.2167250","Longitude":"-61.2689254","Name":"Leeward Highway"},{"Latitude":"13.1596455","Longitude":"-61.2248120","Name":"Level Garden"},{"Latitude":"13.1664617","Longitude":"-61.2304968","Name":"Lewis Street"},{"Latitude":"13.1318238","Longitude":"-61.1927734","Name":"Leybourne Street"},{"Latitude":"13.1633623","Longitude":"-61.2251506","Name":"Lodge Village Road"},{"Latitude":"13.1493636","Longitude":"-61.2181969","Name":"London Road"},{"Latitude":"13.1557160","Longitude":"-61.2272245","Name":"Long Lane Lower"},{"Latitude":"13.1525869","Longitude":"-61.2233025","Name":"Long Lane Upper"},{"Latitude":"12.9981386","Longitude":"-61.2442975","Name":"Lower Bay Road"},{"Latitude":"13.1564583","Longitude":"-61.2299158","Name":"Lower Bay Street"},{"Latitude":"13.1413545","Longitude":"-61.2262498","Name":"Magnolia Crescent"},{"Latitude":"13.1593959","Longitude":"-61.2301896","Name":"Mandela Highway"},{"Latitude":"13.1407981","Longitude":"-61.2273069","Name":"Marigold Lane"},{"Latitude":"13.1572504","Longitude":"-61.2293851","Name":"McCoy Street"},{"Latitude":"13.1622789","Longitude":"-61.2305418","Name":"Mcintosh Street"},{"Latitude":"13.1570329","Longitude":"-61.2265419","Name":"Melville Street"},{"Latitude":"13.3519147","Longitude":"-61.1316115","Name":"Middle Street"},{"Latitude":"13.0039096","Longitude":"-61.2346481","Name":"Mount Pleasant Road"},{"Latitude":"13.1545033","Longitude":"-61.2193482","Name":"Murray Road"},{"Latitude":"13.1539084","Longitude":"-61.2158938","Name":"Murrays Village Road"},{"Latitude":"13.1393744","Longitude":"-61.2252528","Name":"Narscissus Avenue"},{"Latitude":"13.1609059","Longitude":"-61.2282123","Name":"Neehall Street"},{"Latitude":"13.1571223","Longitude":"-61.2290853","Name":"North River Road"},{"Latitude":"13.1697614","Longitude":"-61.1952725","Name":"Nutmeg Grove Road"},{"Latitude":"13.1405069","Longitude":"-61.2264218","Name":"Orchid Crescent"},{"Latitude":"13.1755907","Longitude":"-61.2479469","Name":"Paradise Trace"},{"Latitude":"13.1557110","Longitude":"-61.2254923","Name":"Paul's Avenue"},{"Latitude":"13.3501243","Longitude":"-61.1305679","Name":"Pepper Village Road"},{"Latitude":"13.1695454","Longitude":"-61.2175541","Name":"Plan Road"},{"Latitude":"13.1393744","Longitude":"-61.2252528","Name":"Pouii Crescent"},{"Latitude":"13.1573822","Longitude":"-61.2309553","Name":"Queens Street"},{"Latitude":"13.1610500","Longitude":"-61.2188466","Name":"Richmond Hill Road"},{"Latitude":"13.1315972","Longitude":"-61.1932705","Name":"Ridishi Street"},{"Latitude":"13.2438176","Longitude":"-61.2716468","Name":"Road To Keartons"},{"Latitude":"13.1685174","Longitude":"-61.2201802","Name":"Road to Greenhill"},{"Latitude":"13.1679951","Longitude":"-61.2192066","Name":"Road to Plan"},{"Latitude":"13.1656298","Longitude":"-61.2211640","Name":"Road to Sharpes"},{"Latitude":"13.1486632","Longitude":"-61.2179186","Name":"Roseau Village Road"},{"Latitude":"13.1536867","Longitude":"-61.2192926","Name":"Sally Spring"},{"Latitude":"13.1434058","Longitude":"-61.2060913","Name":"Sergeant Jack Drive"},{"Latitude":"13.1513648","Longitude":"-61.2227397","Name":"Sharpe Street"},{"Latitude":"13.1529841","Longitude":"-61.2234204","Name":"South River Road"},{"Latitude":"13.1311603","Longitude":"-61.1898048","Name":"Sugar Mill Road"},{"Latitude":"13.1391174","Longitude":"-61.2062660","Name":"Tango Drive"},{"Latitude":"13.1474098","Longitude":"-61.2141342","Name":"Top Road"},{"Latitude":"13.1465438","Longitude":"-61.2241755","Name":"Town Hill"},{"Latitude":"13.1335404","Longitude":"-61.1864069","Name":"Trinity College Road"},{"Latitude":"13.1578805","Longitude":"-61.2320551","Name":"Tyrell Street"},{"Latitude":"13.1505903","Longitude":"-61.2229349","Name":"Upper Bay Street"},{"Latitude":"13.1523710","Longitude":"-61.1631646","Name":"Victoria Village Road"},{"Latitude":"13.1672036","Longitude":"-61.1673580","Name":"Vigie Highway"},{"Latitude":"13.1381018","Longitude":"-61.2084251","Name":"Villa Point Road"},{"Latitude":"13.1413631","Longitude":"-61.2063085","Name":"Warner Drive"},{"Latitude":"13.1630308","Longitude":"-61.2301187","Name":"Webb Street"},{"Latitude":"13.1718407","Longitude":"-61.1967136","Name":"Welcome Road"},{"Latitude":"13.1632247","Longitude":"-61.2293479","Name":"Wilson Street"},{"Latitude":"13.2563769","Longitude":"-61.1193744","Name":"Windward Highway"},{"Latitude":"13.1315972","Longitude":"-61.1932705","Name":"Young Street"}]