[{"Latitude":"7.8691258","Longitude":"13.5985361","Name":"1"},{"Latitude":"4.0441544","Longitude":"9.7097377","Name":"1.453"},{"Latitude":"4.0779861","Longitude":"9.7182533","Name":"1.826"},{"Latitude":"4.0796170","Longitude":"9.7202759","Name":"1.828"},{"Latitude":"4.0805600","Longitude":"9.7213600","Name":"1.832"},{"Latitude":"4.0769057","Longitude":"9.7177753","Name":"1.846"},{"Latitude":"4.0835136","Longitude":"9.7213628","Name":"1.872"},{"Latitude":"4.0624847","Longitude":"9.7219316","Name":"1eme ENTREE"},{"Latitude":"5.4760606","Longitude":"10.4320617","Name":"1er Carrefour Evéché"},{"Latitude":"5.4550029","Longitude":"10.4196753","Name":"1er Entree Paroisse Mont Carmel"},{"Latitude":"5.4840311","Longitude":"10.4116675","Name":"1er Rue Derriere Auberge"},{"Latitude":"5.4829585","Longitude":"10.4342309","Name":"1er Rue Ecole Primaire Groupe A1/A2/B"},{"Latitude":"5.4785764","Longitude":"10.4081699","Name":"1er rue Makoumba"},{"Latitude":"5.4772581","Longitude":"10.4168088","Name":"1ere Rue TALOTEL"},{"Latitude":"5.1542569","Longitude":"10.0342580","Name":"1ere rue"},{"Latitude":"7.8697755","Longitude":"13.5988734","Name":"2"},{"Latitude":"5.4713608","Longitude":"10.4333404","Name":"2e Carr Eveche"},{"Latitude":"5.4843589","Longitude":"10.4120186","Name":"2e Rue Derriere Auberge"},{"Latitude":"5.4802331","Longitude":"10.4080009","Name":"2e rue Makoumba"},{"Latitude":"4.0625657","Longitude":"9.7223103","Name":"2eme ENTREE"},{"Latitude":"5.4543394","Longitude":"10.4197839","Name":"2eme Entree Paroisse Mont Carmel"},{"Latitude":"4.0688463","Longitude":"9.7252621","Name":"2eme Rue"},{"Latitude":"5.4810254","Longitude":"10.4439868","Name":"2eme Rue Derriere Cami toyota"},{"Latitude":"5.4821548","Longitude":"10.4341646","Name":"2eme Rue Ecole Primaire Groupe A1/A2/B"},{"Latitude":"5.4768324","Longitude":"10.4166113","Name":"2eme Rue TALOTEL"},{"Latitude":"2.9450415","Longitude":"11.9789419","Name":"2ème Rue"},{"Latitude":"7.8707808","Longitude":"13.5990733","Name":"3"},{"Latitude":"4.0629643","Longitude":"9.7230385","Name":"3eme ENTREE"},{"Latitude":"5.4839379","Longitude":"10.4128464","Name":"3eme Rue Derriere Auberge"},{"Latitude":"5.4766547","Longitude":"10.4159285","Name":"3eme Rue TALOTEL"},{"Latitude":"7.8712178","Longitude":"13.5989150","Name":"4"},{"Latitude":"4.0741764","Longitude":"9.6651082","Name":"4.114 Mambanda"},{"Latitude":"4.0633740","Longitude":"9.7231985","Name":"4eme ENTREE"},{"Latitude":"5.4842005","Longitude":"10.4132240","Name":"4eme Rue Derriere Auberge"},{"Latitude":"7.8713148","Longitude":"13.5986468","Name":"5"},{"Latitude":"4.0860622","Longitude":"9.7502602","Name":"5N 413"},{"Latitude":"4.0822749","Longitude":"9.7351373","Name":"5N.015"},{"Latitude":"4.0780354","Longitude":"9.7461777","Name":"5N.339"},{"Latitude":"4.0838873","Longitude":"9.7478371","Name":"5N.410"},{"Latitude":"4.0876250","Longitude":"9.7674680","Name":"5N.419"},{"Latitude":"4.0823193","Longitude":"9.7721924","Name":"5N.420"},{"Latitude":"4.0827231","Longitude":"9.7719018","Name":"5N.422"},{"Latitude":"4.0885629","Longitude":"9.7635272","Name":"5N.423"},{"Latitude":"4.0842240","Longitude":"9.7734470","Name":"5N.424"},{"Latitude":"4.0886326","Longitude":"9.7640561","Name":"5N.425"},{"Latitude":"4.0887078","Longitude":"9.7646256","Name":"5N.427"},{"Latitude":"4.0919680","Longitude":"9.7650670","Name":"5N.429"},{"Latitude":"4.0877300","Longitude":"9.7657680","Name":"5N.435"},{"Latitude":"4.0896076","Longitude":"9.7673451","Name":"5N.437"},{"Latitude":"4.0837468","Longitude":"9.7711922","Name":"5N.438"},{"Latitude":"4.0886252","Longitude":"9.7675513","Name":"5N.439"},{"Latitude":"4.0843370","Longitude":"9.7711265","Name":"5N.440"},{"Latitude":"4.0845912","Longitude":"9.7706316","Name":"5N.442"},{"Latitude":"4.0851316","Longitude":"9.7705458","Name":"5N.444"},{"Latitude":"4.0862981","Longitude":"9.7705565","Name":"5N.452"},{"Latitude":"4.0857999","Longitude":"9.7697844","Name":"5N.454"},{"Latitude":"4.0866936","Longitude":"9.7691696","Name":"5N.470"},{"Latitude":"4.0875120","Longitude":"9.7686080","Name":"5N.472"},{"Latitude":"4.0886326","Longitude":"9.7640561","Name":"5N.480"},{"Latitude":"4.0934903","Longitude":"9.7605654","Name":"5N.488"},{"Latitude":"4.0929171","Longitude":"9.7625946","Name":"5N.504"},{"Latitude":"4.0923481","Longitude":"9.7558692","Name":"5N.578"},{"Latitude":"4.0636643","Longitude":"9.7227569","Name":"5eme ENTREE"},{"Latitude":"5.4844516","Longitude":"10.4135796","Name":"5eme Rue Derriere Auberge"},{"Latitude":"7.8712032","Longitude":"13.5986843","Name":"6"},{"Latitude":"4.0640873","Longitude":"9.7224907","Name":"6eme ENTREE"},{"Latitude":"5.4846468","Longitude":"10.4139920","Name":"6eme Rue Derriere Auberge"},{"Latitude":"7.8709282","Longitude":"13.5991886","Name":"7"},{"Latitude":"4.0645522","Longitude":"9.7226469","Name":"7eme ENTREE"},{"Latitude":"5.4849504","Longitude":"10.4143159","Name":"7eme Rue Derriere Auberge"},{"Latitude":"7.8712829","Longitude":"13.5990451","Name":"8"},{"Latitude":"4.0650517","Longitude":"9.7232021","Name":"8eme ENTREE"},{"Latitude":"5.4852198","Longitude":"10.4146890","Name":"8eme Rue Derriere l'Auberge"},{"Latitude":"4.0655474","Longitude":"9.7226726","Name":"9eme ENTREE"},{"Latitude":"4.0938918","Longitude":"9.7277853","Name":"9ème Rue"},{"Latitude":"4.1566805","Longitude":"11.5299422","Name":"Abokono"},{"Latitude":"5.9709159","Longitude":"10.1351483","Name":"Airport Street"},{"Latitude":"5.8005286","Longitude":"10.2320927","Name":"Akefinghalum (Coffee Estate) Road"},{"Latitude":"5.8153771","Longitude":"10.2598035","Name":"Akofo'o Street"},{"Latitude":"5.9643774","Longitude":"10.1255645","Name":"Akohkikang Street"},{"Latitude":"5.8168002","Longitude":"10.2531158","Name":"Akondeng Street"},{"Latitude":"5.9751738","Longitude":"10.1212822","Name":"Alabukam Street"},{"Latitude":"5.9625869","Longitude":"10.1287837","Name":"Alakuma Street"},{"Latitude":"4.6276682","Longitude":"9.4533969","Name":"Alaska Street"},{"Latitude":"3.8727578","Longitude":"11.5403508","Name":"Allée 1.273/1094"},{"Latitude":"3.8796926","Longitude":"11.5413481","Name":"Allée 1.291/285"},{"Latitude":"3.8666132","Longitude":"11.5028255","Name":"Allée 3.351/825"},{"Latitude":"3.8711780","Longitude":"11.4984689","Name":"Allée 3.389/157"},{"Latitude":"3.8457458","Longitude":"11.5007128","Name":"Allée 3.469/"},{"Latitude":"3.8559554","Longitude":"11.5349325","Name":"Allée 4.109/631"},{"Latitude":"3.8437577","Longitude":"11.4903020","Name":"Allée 7.326/32"},{"Latitude":"3.8396398","Longitude":"11.4861424","Name":"Allée 7.355/237"},{"Latitude":"3.8395570","Longitude":"11.4860687","Name":"Allée 7.356/51"},{"Latitude":"3.8436632","Longitude":"11.4901593","Name":"Allée 7.357/216"},{"Latitude":"3.8444890","Longitude":"11.4895303","Name":"Allée 7.357/336"},{"Latitude":"3.8394691","Longitude":"11.4861677","Name":"Allée 7.409/38"},{"Latitude":"3.8324564","Longitude":"11.4823686","Name":"Allée 7.490/340"},{"Latitude":"3.8319559","Longitude":"11.4838554","Name":"Allée 7.497/allée"},{"Latitude":"3.8363804","Longitude":"11.4877429","Name":"Allée 7.503/130"},{"Latitude":"3.8367206","Longitude":"11.4864028","Name":"Allée 7.517/80"},{"Latitude":"3.8323845","Longitude":"11.4855206","Name":"Allée 7.531/168"},{"Latitude":"3.8337590","Longitude":"11.4804126","Name":"Allée 7.571/105"},{"Latitude":"3.8323794","Longitude":"11.4833836","Name":"Allée Avenue de Biyeme Assi (7.253)"},{"Latitude":"3.8356258","Longitude":"11.4882385","Name":"Allée Rue des Cocotiers (7.497)"},{"Latitude":"3.8697687","Longitude":"11.5103338","Name":"Allée/Boulevard Rodolph Manga Bell (2.002)"},{"Latitude":"5.4748879","Longitude":"10.5561836","Name":"Ancien Pont sur le Noun"},{"Latitude":"3.8727740","Longitude":"11.4579168","Name":"Ancienne Route de Douala"},{"Latitude":"2.3780291","Longitude":"11.2660612","Name":"Ancienne piste de l'aeroport"},{"Latitude":"3.9734569","Longitude":"11.9139702","Name":"Angosso"},{"Latitude":"5.9591354","Longitude":"10.1502686","Name":"Angwafo Street"},{"Latitude":"5.8195279","Longitude":"10.2570887","Name":"Apeh Street"},{"Latitude":"4.0850968","Longitude":"9.3122046","Name":"Atlanta Street"},{"Latitude":"4.0173064","Longitude":"9.7186361","Name":"Autoroute de l'aviation"},{"Latitude":"12.1216762","Longitude":"15.0341258","Name":"Avenue 26 Août / شارع 26 آب"},{"Latitude":"12.1219509","Longitude":"15.0304211","Name":"Avenue 26 Août / شارع 26 أغسطس"},{"Latitude":"9.3218898","Longitude":"13.4077500","Name":"Avenue Ahmadou Ahidjo"},{"Latitude":"12.1023576","Longitude":"15.0536613","Name":"Avenue Bezo شارع بيزو"},{"Latitude":"12.1051404","Longitude":"15.0542334","Name":"Avenue Bokassa شارع بوكاسا"},{"Latitude":"3.6954638","Longitude":"10.4500223","Name":"Avenue Centre"},{"Latitude":"3.9789904","Longitude":"11.5999210","Name":"Avenue Chantal Biya"},{"Latitude":"3.8579061","Longitude":"11.5208190","Name":"Avenue Charles Atangana"},{"Latitude":"3.8743672","Longitude":"11.5175598","Name":"Avenue Charles De Gaulle"},{"Latitude":"12.1170760","Longitude":"15.0356129","Name":"Avenue Charles De Gaulle شارع شارل ديغول"},{"Latitude":"3.8742854","Longitude":"11.5174933","Name":"Avenue Charles de Gaulle"},{"Latitude":"12.1096489","Longitude":"15.0535176","Name":"Avenue Charles de Gaulle شارع شارل ديغول"},{"Latitude":"3.6935233","Longitude":"10.4509672","Name":"Avenue Cité Lima"},{"Latitude":"12.1226962","Longitude":"15.0340691","Name":"Avenue Colonel Nelde Rigobert شارع العقيد نيلد ريكوبيرت"},{"Latitude":"4.0372523","Longitude":"9.6882694","Name":"Avenue Douala Manga"},{"Latitude":"4.0361958","Longitude":"9.6964292","Name":"Avenue Douala Manga Bell"},{"Latitude":"3.8680667","Longitude":"11.5137627","Name":"Avenue Dr. Eugène Jamot (2.001)"},{"Latitude":"12.1120787","Longitude":"15.0446499","Name":"Avenue Gaourang شارع كورانك"},{"Latitude":"3.8708101","Longitude":"11.5342518","Name":"Avenue Germaine Ahidjo"},{"Latitude":"12.1139302","Longitude":"15.0342808","Name":"Avenue Général De Gaulle شارع الجنرال ديغول"},{"Latitude":"12.1154060","Longitude":"15.0360512","Name":"Avenue Hamit Hangatta شارع حاميت أنكاتا"},{"Latitude":"4.0484339","Longitude":"9.7228444","Name":"Avenue Japoma"},{"Latitude":"3.8644316","Longitude":"11.5203088","Name":"Avenue John F. Kennedy"},{"Latitude":"3.8845004","Longitude":"11.4977054","Name":"Avenue John Ngu Foncha"},{"Latitude":"3.8319922","Longitude":"11.5108044","Name":"Avenue Joseph Onambele Mbazoa"},{"Latitude":"10.5982689","Longitude":"14.3162619","Name":"Avenue Kakatare"},{"Latitude":"4.0459125","Longitude":"9.6950756","Name":"Avenue King Akwa( N° 1.401)"},{"Latitude":"12.0974020","Longitude":"15.0779704","Name":"Avenue Kondol شارع كوندول"},{"Latitude":"3.8789222","Longitude":"11.5395620","Name":"Avenue Marc Vivien Foe"},{"Latitude":"3.8707776","Longitude":"11.5282363","Name":"Avenue Marcel Marigoh Mboua"},{"Latitude":"3.8667816","Longitude":"11.5225929","Name":"Avenue Mgr. François Xavier Vogt"},{"Latitude":"3.8448914","Longitude":"11.5136464","Name":"Avenue Mgr. Henri Vieter"},{"Latitude":"9.3228504","Longitude":"13.4027959","Name":"Avenue Monseigneur Yves Plumey"},{"Latitude":"12.1008448","Longitude":"15.0516612","Name":"Avenue Mubutu شارع موبوتو"},{"Latitude":"3.8686138","Longitude":"11.5220855","Name":"Avenue Mvog-Fouda Ada"},{"Latitude":"12.1207122","Longitude":"15.0502347","Name":"Avenue Nimery شارع نيميري"},{"Latitude":"9.3289771","Longitude":"13.3818660","Name":"Avenue Paul Biya"},{"Latitude":"3.6958454","Longitude":"10.4526725","Name":"Avenue Place des fêtes"},{"Latitude":"12.1181237","Longitude":"15.0409572","Name":"Avenue Pompidou شارع بومبيدو"},{"Latitude":"3.6980265","Longitude":"10.4534884","Name":"Avenue Stade Municipal"},{"Latitude":"3.8742257","Longitude":"11.5186849","Name":"Avenue Winston Churchill"},{"Latitude":"3.8394573","Longitude":"11.4810377","Name":"Avenue d'Etoug-Ebé"},{"Latitude":"4.0549780","Longitude":"9.7212548","Name":"Avenue de Bepanda"},{"Latitude":"3.8372397","Longitude":"11.4852491","Name":"Avenue de Biyeme Assi"},{"Latitude":"12.1176941","Longitude":"15.0403404","Name":"Avenue de Braza شارع البرازا"},{"Latitude":"3.8517596","Longitude":"11.5129444","Name":"Avenue de France"},{"Latitude":"3.8399184","Longitude":"11.4956356","Name":"Avenue de Mvolye"},{"Latitude":"3.8401094","Longitude":"11.4960840","Name":"Avenue de Mvolyé"},{"Latitude":"3.8292858","Longitude":"11.4829793","Name":"Avenue de Nsimeyong"},{"Latitude":"12.1078966","Longitude":"15.0431479","Name":"Avenue de behagle شارع بياكل"},{"Latitude":"3.8692525","Longitude":"11.5190077","Name":"Avenue de l'Indépendance"},{"Latitude":"3.9716238","Longitude":"11.5939185","Name":"Avenue de l'Université"},{"Latitude":"4.0249534","Longitude":"9.7062277","Name":"Avenue de l'indépendance"},{"Latitude":"4.0228259","Longitude":"9.7036354","Name":"Avenue de l'indépendance(N°2.351)"},{"Latitude":"12.0975200","Longitude":"15.0741180","Name":"Avenue de la Revolution شارع الثورة"},{"Latitude":"4.0359109","Longitude":"9.6828899","Name":"Avenue des Cocotiers"},{"Latitude":"10.6065880","Longitude":"14.3358767","Name":"Avenue du 20 Mai"},{"Latitude":"3.8818257","Longitude":"11.5059202","Name":"Avenue du 27 août 1940"},{"Latitude":"3.6937762","Longitude":"10.4520669","Name":"Avenue du CES"},{"Latitude":"4.0574610","Longitude":"9.7014443","Name":"Avenue du Docteur Jamot (N° 1.407)"},{"Latitude":"4.0199095","Longitude":"9.7011348","Name":"Avenue du Géneral de Gaulle (N°1.051)"},{"Latitude":"4.0431157","Longitude":"9.6872099","Name":"Avenue du Géneral de Gaulle(N°1.051)"},{"Latitude":"3.8641038","Longitude":"11.5190104","Name":"Avenue du Pdt El Hadj Ahmadou Ahidjo"},{"Latitude":"3.8850718","Longitude":"11.5028371","Name":"Avenue du Vingt Sept Aout 1940"},{"Latitude":"5.9639750","Longitude":"10.1527411","Name":"Awanwu Street"},{"Latitude":"5.8722976","Longitude":"10.2137320","Name":"Awing Lake Road"},{"Latitude":"5.8640656","Longitude":"10.1815286","Name":"Awing Road"},{"Latitude":"5.4786739","Longitude":"10.5501781","Name":"Axe Ancien Pont sur le Noun"},{"Latitude":"5.4798914","Longitude":"10.4446560","Name":"Axe Bienveillance (Boulevard Evêché)"},{"Latitude":"5.4781452","Longitude":"10.4349129","Name":"Axe Bingo Baptist Hospital (Nouvelle Route Eveche)"},{"Latitude":"5.4653733","Longitude":"10.4263794","Name":"Axe Cocibaf"},{"Latitude":"4.0223740","Longitude":"9.7485254","Name":"Axe Espoir - Carriere"},{"Latitude":"4.0199175","Longitude":"9.7447349","Name":"Axe Espoir-Carnaval"},{"Latitude":"4.0232025","Longitude":"9.7433502","Name":"Axe Espoir-Dakar"},{"Latitude":"5.4756648","Longitude":"10.4325834","Name":"Axe Eveché de Bafoussam (Route 1er Carr Eveche)"},{"Latitude":"5.4775759","Longitude":"10.4391159","Name":"Axe Hotel Sekem (Boulevard Evêché)"},{"Latitude":"5.4779236","Longitude":"10.4385406","Name":"Axe Hotel Sekem (Nouvelle Route Eveche)"},{"Latitude":"5.4697377","Longitude":"10.4284671","Name":"Axe King Place"},{"Latitude":"5.4736787","Longitude":"10.4361759","Name":"Axe Makambou (Boulevard Evêché)"},{"Latitude":"5.4701073","Longitude":"10.4309794","Name":"Axe Martin Luther King"},{"Latitude":"4.0259302","Longitude":"9.7453720","Name":"Axe Zone industrielle-Dakar"},{"Latitude":"3.8585491","Longitude":"11.4999245","Name":"Axe principal du campus"},{"Latitude":"5.4763223","Longitude":"10.4385392","Name":"Axe sekem (Boulevard Evêché)"},{"Latitude":"5.9501588","Longitude":"10.1553781","Name":"Ayaba Street"},{"Latitude":"5.8036890","Longitude":"10.2378468","Name":"Aziandzere Road"},{"Latitude":"5.9634630","Longitude":"10.1499134","Name":"Azire Street"},{"Latitude":"6.0784396","Longitude":"10.4494544","Name":"Babungo-Oku"},{"Latitude":"4.1626873","Longitude":"9.2401949","Name":"Babuti Street"},{"Latitude":"5.1529819","Longitude":"10.1657505","Name":"Bafang-Bangangté"},{"Latitude":"5.8595982","Longitude":"10.4499622","Name":"Bafanji- Bambalang"},{"Latitude":"4.9620640","Longitude":"11.3921289","Name":"Baffia-Nditam"},{"Latitude":"5.0684966","Longitude":"11.1962782","Name":"Bafia-Deak"},{"Latitude":"4.7476854","Longitude":"11.2274598","Name":"Bafia-Nditam"},{"Latitude":"4.9487235","Longitude":"9.4852978","Name":"Bakole Track"},{"Latitude":"4.1512633","Longitude":"9.2582439","Name":"Bakweri Town Road"},{"Latitude":"5.9443156","Longitude":"10.1356960","Name":"Bali Park Street"},{"Latitude":"5.9491549","Longitude":"10.1468877","Name":"Bamenda-Mamfe"},{"Latitude":"6.0094539","Longitude":"10.4472457","Name":"Bamunka"},{"Latitude":"4.0067383","Longitude":"9.2083140","Name":"Bank Avenue"},{"Latitude":"4.3313464","Longitude":"14.8067211","Name":"Batouri-Kentzou"},{"Latitude":"4.5537934","Longitude":"14.5138621","Name":"Batouri-Kette"},{"Latitude":"4.4508671","Longitude":"14.4664621","Name":"Batouri-Yokadouma"},{"Latitude":"12.1257463","Longitude":"15.0354717","Name":"Bayonne زنقة بايون"},{"Latitude":"4.5374152","Longitude":"13.8988504","Name":"Bertoua-Batouri"},{"Latitude":"4.1564902","Longitude":"9.2751587","Name":"Biaka street"},{"Latitude":"4.0743771","Longitude":"9.7174314","Name":"Bidonville"},{"Latitude":"4.0899212","Longitude":"9.3147198","Name":"Bobga Street"},{"Latitude":"10.1101974","Longitude":"14.4453291","Name":"Boboyo-Kaélé"},{"Latitude":"4.1969619","Longitude":"9.2779756","Name":"Bokova Road"},{"Latitude":"4.1452936","Longitude":"9.2282581","Name":"Bokwango Road"},{"Latitude":"4.1610765","Longitude":"9.2395518","Name":"Bonaberi Street"},{"Latitude":"4.1629443","Longitude":"9.2661872","Name":"Bonduma Gate-Bukwae Road"},{"Latitude":"4.0097485","Longitude":"9.2070018","Name":"Boston Memoria Street Garden"},{"Latitude":"3.9868895","Longitude":"11.5924296","Name":"Boucle de Dallas"},{"Latitude":"10.6026760","Longitude":"14.3346673","Name":"Boulevard Diarenga"},{"Latitude":"9.3050736","Longitude":"13.3905883","Name":"Boulevard Docteur Jamot"},{"Latitude":"5.4789075","Longitude":"10.4410672","Name":"Boulevard Evêché"},{"Latitude":"9.3215920","Longitude":"13.3914133","Name":"Boulevard Indépendance"},{"Latitude":"9.3066207","Longitude":"13.3937022","Name":"Boulevard Lamido Hayatou"},{"Latitude":"9.3029964","Longitude":"13.4006814","Name":"Boulevard Modibo Haman Djoundi"},{"Latitude":"3.8722883","Longitude":"11.5045966","Name":"Boulevard Rodolph Manga Bell"},{"Latitude":"3.8676233","Longitude":"11.5123541","Name":"Boulevard Rodolphe Manga Bell"},{"Latitude":"3.8931882","Longitude":"11.4993931","Name":"Boulevard Saint Jean Paul II"},{"Latitude":"3.8778546","Longitude":"11.5013491","Name":"Boulevard Sultan Njoya Ibrahim"},{"Latitude":"12.1073926","Longitude":"15.0569066","Name":"Boulevard de Bezo شارع بيزو"},{"Latitude":"12.1189632","Longitude":"15.0320672","Name":"Boulevard de Paris شارع باريس"},{"Latitude":"12.1051308","Longitude":"15.0745889","Name":"Boulevard de SAO شارع الساو"},{"Latitude":"3.8869883","Longitude":"11.5011959","Name":"Boulevard de Sa Sainteté le Pape Jean-Paul II"},{"Latitude":"12.1204863","Longitude":"15.0325852","Name":"Boulevard de Strasbourg شارع ستراسبورغ"},{"Latitude":"3.8910200","Longitude":"11.5161194","Name":"Boulevard de l'U.R.S.S."},{"Latitude":"3.8932745","Longitude":"11.5132293","Name":"Boulevard de l'URSS"},{"Latitude":"4.0475013","Longitude":"9.7187483","Name":"Boulevard de l'unité"},{"Latitude":"4.0550442","Longitude":"9.6985996","Name":"Boulevard de la Liberté"},{"Latitude":"4.0678764","Longitude":"9.7166187","Name":"Boulevard de la République"},{"Latitude":"4.0558877","Longitude":"9.7076105","Name":"Boulevard de la République (1.729)"},{"Latitude":"4.0620694","Longitude":"9.7135549","Name":"Boulevard de la République(N° 1.729)"},{"Latitude":"4.0424251","Longitude":"9.6952421","Name":"Boulevard de la République(Rue 1.729)"},{"Latitude":"4.0536757","Longitude":"9.7154231","Name":"Boulevard de la Réunification"},{"Latitude":"4.0619524","Longitude":"9.7090506","Name":"Boulevard de la Réunification(Rue 1.464)"},{"Latitude":"3.8624081","Longitude":"11.5040367","Name":"Boulevard de la réunification"},{"Latitude":"4.0375846","Longitude":"9.7191447","Name":"Boulevard des Nations Unies"},{"Latitude":"12.0953039","Longitude":"15.0696199","Name":"Boulevard des Sao"},{"Latitude":"12.0988583","Longitude":"15.0714558","Name":"Boulevard des Sao شارع الساو"},{"Latitude":"3.8872541","Longitude":"11.5402888","Name":"Boulevard du Cinquantenaire"},{"Latitude":"4.0433763","Longitude":"9.7026075","Name":"Boulevard du Pdt Ahmadou Ahidjo(N° 1352)"},{"Latitude":"4.0468097","Longitude":"9.6971720","Name":"Boulevard du Président Ahmadou Ahidjo (N° 1352)"},{"Latitude":"3.9566514","Longitude":"11.5908394","Name":"Boulevard du Président Paul Biya"},{"Latitude":"3.6855958","Longitude":"10.4516187","Name":"Bretelle Libanga Mogui - Nliba"},{"Latitude":"5.9977700","Longitude":"10.3660202","Name":"Bridge Bekoh"},{"Latitude":"6.0036990","Longitude":"10.3545318","Name":"Bridge bw Ntukweh and Mbebah"},{"Latitude":"5.9479899","Longitude":"10.1483146","Name":"Buea Bamenda Street"},{"Latitude":"4.1675843","Longitude":"9.2656830","Name":"Bukwai Road"},{"Latitude":"4.1375784","Longitude":"9.2885631","Name":"Bulu Blind Street"},{"Latitude":"4.0829913","Longitude":"9.3088089","Name":"Bwenga Road"},{"Latitude":"7.1039826","Longitude":"14.4645005","Name":"Bélel - Mbang Rey (Lim NO)"},{"Latitude":"5.4803746","Longitude":"10.4465953","Name":"CAMI TOYOTA (Boulevard Evêché)"},{"Latitude":"4.1556806","Longitude":"9.2487009","Name":"Campaign Street"},{"Latitude":"5.9673830","Longitude":"10.1518257","Name":"Cantre Street"},{"Latitude":"5.5231737","Longitude":"10.3398728","Name":"Carr Bamougoum (Axe Carr Bamougoum-Dschang 'Provinciale 17')"},{"Latitude":"5.4825707","Longitude":"10.4442604","Name":"Carr TPO(Bafoussam-Foumban)"},{"Latitude":"9.3497405","Longitude":"13.4125443","Name":"Carrefour 8"},{"Latitude":"9.3060386","Longitude":"13.3941884","Name":"Carrefour Artisanal"},{"Latitude":"3.8989326","Longitude":"11.5051026","Name":"Carrefour Bastos"},{"Latitude":"4.0335240","Longitude":"9.7402372","Name":"Carrefour CCC"},{"Latitude":"9.3129806","Longitude":"13.3714858","Name":"Carrefour CICAM"},{"Latitude":"5.4975597","Longitude":"10.3968958","Name":"Carrefour Marie Rurale (Route Entree Ancien Depot Guinness)"},{"Latitude":"5.4971056","Longitude":"10.3957701","Name":"Carrefour Marie Rurale(Entree College Binlingue la Reussite Maak Paulo)"},{"Latitude":"9.2959009","Longitude":"13.3822491","Name":"Carrefour Sodecoton"},{"Latitude":"3.8447254","Longitude":"11.5136763","Name":"Carrefour Trois Statues"},{"Latitude":"9.3000679","Longitude":"13.3911859","Name":"Carrefour Yelwa"},{"Latitude":"5.5401630","Longitude":"12.3238359","Name":"Carrefour Yoko Village"},{"Latitude":"5.4634596","Longitude":"10.4261615","Name":"Carrefour le maire"},{"Latitude":"2.2756841","Longitude":"9.7955692","Name":"Carretera Bata - Río Campo"},{"Latitude":"2.1277323","Longitude":"11.3046366","Name":"Carretera Ebebiyín - Mongomo"},{"Latitude":"2.1557324","Longitude":"11.0231160","Name":"Carretera Micomeseng - Ebebiyín"},{"Latitude":"2.1393396","Longitude":"10.5857322","Name":"Carretera Niefang - Micomeseng"},{"Latitude":"4.0910435","Longitude":"9.3132459","Name":"Catholic School Street"},{"Latitude":"5.8633516","Longitude":"10.2511670","Name":"Central Avenue"},{"Latitude":"5.9647666","Longitude":"10.1436384","Name":"Che Street"},{"Latitude":"4.0866679","Longitude":"9.3088444","Name":"Chief Street"},{"Latitude":"4.1719909","Longitude":"9.2699645","Name":"Chief street"},{"Latitude":"5.9593272","Longitude":"10.1293717","Name":"Chinde Street"},{"Latitude":"5.9657270","Longitude":"10.1529524","Name":"Church Center"},{"Latitude":"4.0151138","Longitude":"9.2085358","Name":"Church Street"},{"Latitude":"5.8058323","Longitude":"10.1812745","Name":"Coffee Estate Road"},{"Latitude":"5.9556002","Longitude":"10.1514769","Name":"Commercial Avenue"},{"Latitude":"4.2607611","Longitude":"11.2028816","Name":"Commune"},{"Latitude":"3.9359687","Longitude":"12.5118506","Name":"Contournement Nord d'Ayos"},{"Latitude":"5.8059509","Longitude":"10.2600338","Name":"Cooperative Street"},{"Latitude":"4.0601276","Longitude":"9.7164842","Name":"Couloir"},{"Latitude":"5.9748611","Longitude":"10.1383598","Name":"Council Street"},{"Latitude":"5.9630735","Longitude":"10.1651615","Name":"Cow Street"},{"Latitude":"10.1832984","Longitude":"14.7536603","Name":"Danmiguiry-Waïba"},{"Latitude":"4.0877180","Longitude":"9.3225552","Name":"Dental Clinic Street"},{"Latitude":"4.0836882","Longitude":"11.3372469","Name":"Departemental"},{"Latitude":"5.4822823","Longitude":"10.4519007","Name":"Descente Cabinet de Soins les Beatitudes"},{"Latitude":"5.4840565","Longitude":"10.4492936","Name":"Descente Camp ZOUA"},{"Latitude":"5.4785592","Longitude":"10.4203239","Name":"Descente Famla"},{"Latitude":"5.4828043","Longitude":"10.4507835","Name":"Descente NBEOTEL Hôtel"},{"Latitude":"5.4811996","Longitude":"10.4533316","Name":"Descente Petite Mosquée ( College Mifi)"},{"Latitude":"6.5249932","Longitude":"12.6036774","Name":"Distributor Road to Ngaoubela"},{"Latitude":"5.5030487","Longitude":"10.3981559","Name":"Dortoir et Garage Militaire (Route Ancien Depot Guinness)"},{"Latitude":"4.0281454","Longitude":"9.6862265","Name":"Douala-Edea"},{"Latitude":"4.1426171","Longitude":"9.2262076","Name":"Dr. Kawah Street"},{"Latitude":"5.8424837","Longitude":"10.2593538","Name":"Eastern Parkway"},{"Latitude":"2.3563749","Longitude":"9.8788628","Name":"Ebolowa-Campo"},{"Latitude":"5.4777381","Longitude":"10.4334739","Name":"Ecole Catholique St Paul (Nouvelle Route Eveche)"},{"Latitude":"12.1081553","Longitude":"15.0491547","Name":"Ecole مدرسة"},{"Latitude":"5.4849109","Longitude":"10.4441880","Name":"Eglise Evangelique (Entree TPO)"},{"Latitude":"4.1083129","Longitude":"11.2954956","Name":"Eligndoum-Fermongong"},{"Latitude":"4.5726915","Longitude":"13.7043390","Name":"Enia-Ngaîkada"},{"Latitude":"5.4823944","Longitude":"10.4776995","Name":"Entree  Lycee de Batoucop"},{"Latitude":"5.4503824","Longitude":"10.4261917","Name":"Entree (CO.BIE.BAF)"},{"Latitude":"5.4719843","Longitude":"10.4354104","Name":"Entree CEPROJET"},{"Latitude":"5.4859144","Longitude":"10.4120186","Name":"Entree Carr Printemps"},{"Latitude":"5.4582877","Longitude":"10.4297530","Name":"Entree Claire Fontaine"},{"Latitude":"5.4700952","Longitude":"10.4039776","Name":"Entree College St Thomas"},{"Latitude":"5.4571181","Longitude":"10.4290805","Name":"Entree College la Noblesse"},{"Latitude":"5.4529508","Longitude":"10.4278762","Name":"Entree Collége de Volontaires"},{"Latitude":"5.4710257","Longitude":"10.4334913","Name":"Entree Domicil Kemmoe"},{"Latitude":"5.4900998","Longitude":"10.4027147","Name":"Entree ENIEG(Lycee Bilingue de GOUACHE)"},{"Latitude":"5.4895778","Longitude":"10.4042465","Name":"Entree Ecole Normale"},{"Latitude":"5.4819552","Longitude":"10.4468568","Name":"Entree Ecole Primaire"},{"Latitude":"5.4785003","Longitude":"10.4411852","Name":"Entree Ecole Privée laïc les Bourgéons"},{"Latitude":"5.4769077","Longitude":"10.4415661","Name":"Entree Ecole Publique Maternel"},{"Latitude":"5.4885927","Longitude":"10.4077166","Name":"Entree Ecole St Therese de Baleng"},{"Latitude":"5.4713388","Longitude":"10.4343383","Name":"Entree Hotel le Confident"},{"Latitude":"5.4835451","Longitude":"10.4318598","Name":"Entree Hôtel le Cafeier"},{"Latitude":"5.4592697","Longitude":"10.4404517","Name":"Entree Lycée Bilingue de Ndiengdam"},{"Latitude":"5.4873703","Longitude":"10.4104431","Name":"Entree Marche B"},{"Latitude":"5.4932220","Longitude":"10.3989475","Name":"Entree Marchee Casa"},{"Latitude":"5.4938837","Longitude":"10.3983776","Name":"Entree Marchee Casa(Hotel Altitel)"},{"Latitude":"5.4920826","Longitude":"10.4006302","Name":"Entree Marchee Casa(Hotel Unite)"},{"Latitude":"5.4659695","Longitude":"10.4072728","Name":"Entree Marché SOCADA allant vers Omnisport"},{"Latitude":"5.4727193","Longitude":"10.4334780","Name":"Entree Martin Luther King"},{"Latitude":"5.4729121","Longitude":"10.4363827","Name":"Entree Nouvelle Brigade de Bamendzi"},{"Latitude":"5.4759559","Longitude":"10.4338038","Name":"Entree Oasis Hotel (1er carrefour Evéché)"},{"Latitude":"5.4763510","Longitude":"10.4384684","Name":"Entree Pagecam"},{"Latitude":"5.4895441","Longitude":"10.4060598","Name":"Entree Pharmacie Salvia"},{"Latitude":"5.4719031","Longitude":"10.4227943","Name":"Entree Stade"},{"Latitude":"5.4582650","Longitude":"10.4393734","Name":"Entree Stade Lycée Bilingue de Ndiengdam"},{"Latitude":"5.4840298","Longitude":"10.4342611","Name":"Entree group 3"},{"Latitude":"5.4793360","Longitude":"10.4569714","Name":"Entrer Centre de Santé de Bamendzi III"},{"Latitude":"5.4859808","Longitude":"10.4680657","Name":"Entrer Ecole Primaire"},{"Latitude":"5.4873311","Longitude":"10.4665267","Name":"Entrer Famleng"},{"Latitude":"4.1022692","Longitude":"9.7619033","Name":"Entrée Baden-Baden"},{"Latitude":"5.4834416","Longitude":"10.1085136","Name":"Entrée Domicile Djiongo"},{"Latitude":"3.8283884","Longitude":"11.4804583","Name":"Entrée du Sapin"},{"Latitude":"4.0630803","Longitude":"11.2888628","Name":"Evian-Ayos"},{"Latitude":"5.4771093","Longitude":"10.4324339","Name":"Expresse Union (Nouvelle Route Eveche)"},{"Latitude":"10.1864809","Longitude":"14.8260129","Name":"Fadéré-Touloum"},{"Latitude":"10.1967063","Longitude":"14.7797619","Name":"Falekaral-Salmaye"},{"Latitude":"10.1940734","Longitude":"14.7785118","Name":"Falékaral-Salmaye"},{"Latitude":"12.3661944","Longitude":"14.2498127","Name":"Federal Road F.259 Bama - Gambaru"},{"Latitude":"4.0553393","Longitude":"11.1908928","Name":"Fehminghang-Nkolzibi"},{"Latitude":"4.0591645","Longitude":"9.7112838","Name":"Feu Rouge Bessengué"},{"Latitude":"4.1528190","Longitude":"9.2310500","Name":"Figaro Approach"},{"Latitude":"5.8177134","Longitude":"10.2572255","Name":"Fo'omba'a Street"},{"Latitude":"5.9591354","Longitude":"10.1502686","Name":"Fomukong Street"},{"Latitude":"5.9775887","Longitude":"10.1689289","Name":"Foncha Street"},{"Latitude":"5.0822314","Longitude":"10.5302206","Name":"Fondation Gacha (1 Hour Walk)"},{"Latitude":"4.0853007","Longitude":"9.2875588","Name":"Former Sonel Street (Eneo)"},{"Latitude":"5.8274992","Longitude":"10.2575953","Name":"Fosung Street"},{"Latitude":"5.9643932","Longitude":"10.1533855","Name":"Fundzon Street"},{"Latitude":"5.9699249","Longitude":"10.1804245","Name":"GGTC Road"},{"Latitude":"5.8223836","Longitude":"10.2675390","Name":"GS Akying-Melung Street"},{"Latitude":"5.8310494","Longitude":"10.2568051","Name":"GS Tanjang Street"},{"Latitude":"5.8267374","Longitude":"10.2511372","Name":"GTC Street"},{"Latitude":"6.0302703","Longitude":"9.9918750","Name":"GTHS Road"},{"Latitude":"10.1932450","Longitude":"14.7815313","Name":"Gadd Mayo - Salmaye"},{"Latitude":"10.1950459","Longitude":"14.7831414","Name":"Gadd Mayo-Salmaye"},{"Latitude":"8.6711403","Longitude":"12.4690670","Name":"Ganye - Jimeta Federal Road"},{"Latitude":"9.6658005","Longitude":"13.4970937","Name":"Garoua-Mokolo"},{"Latitude":"5.9617502","Longitude":"10.1642842","Name":"Ghana Street"},{"Latitude":"4.0620173","Longitude":"9.7182978","Name":"Grand raccourci vers le marche New-Deido"},{"Latitude":"6.0207971","Longitude":"10.0152133","Name":"Grandstand Road"},{"Latitude":"4.1633054","Longitude":"9.2502469","Name":"Great Soppo-Bukwae Road"},{"Latitude":"10.1584660","Longitude":"14.7233947","Name":"Guidiguis- Danmiguiry-Waïba"},{"Latitude":"4.1528327","Longitude":"9.2443048","Name":"Guiness Street"},{"Latitude":"4.0888397","Longitude":"9.3208279","Name":"Gvt School Street"},{"Latitude":"5.8040431","Longitude":"10.2620596","Name":"High School Street"},{"Latitude":"3.8795871","Longitude":"11.5243981","Name":"Imapsse 1.095/916"},{"Latitude":"3.8948099","Longitude":"11.5093012","Name":"Imapsse 1.797/114"},{"Latitude":"3.8662664","Longitude":"11.5268536","Name":"Impaasse 1.257/211"},{"Latitude":"3.8625198","Longitude":"11.5682247","Name":"Impase 4.962/214"},{"Latitude":"3.8324375","Longitude":"11.4826184","Name":"Impase Avenue de Biyeme Assi (7.253)"},{"Latitude":"3.8729332","Longitude":"11.4454646","Name":"Impasse"},{"Latitude":"3.8604404","Longitude":"11.5226593","Name":"Impasse 1.031/130"},{"Latitude":"3.8752452","Longitude":"11.5219129","Name":"Impasse 1.036/887"},{"Latitude":"3.8805386","Longitude":"11.5249370","Name":"Impasse 1.056/105"},{"Latitude":"3.8805729","Longitude":"11.5258212","Name":"Impasse 1.056/205"},{"Latitude":"3.8803221","Longitude":"11.5281615","Name":"Impasse 1.056/467"},{"Latitude":"3.8747193","Longitude":"11.5183872","Name":"Impasse 1.071/587"},{"Latitude":"3.8705440","Longitude":"11.5208100","Name":"Impasse 1.077/40"},{"Latitude":"3.8737921","Longitude":"11.5240499","Name":"Impasse 1.095/253"},{"Latitude":"3.8753621","Longitude":"11.5245846","Name":"Impasse 1.095/437"},{"Latitude":"3.8767804","Longitude":"11.5246310","Name":"Impasse 1.095/603"},{"Latitude":"3.8792960","Longitude":"11.5246907","Name":"Impasse 1.095/876"},{"Latitude":"3.8797423","Longitude":"11.5267929","Name":"Impasse 1.109/70"},{"Latitude":"3.8826661","Longitude":"11.5213993","Name":"Impasse 1.113/70"},{"Latitude":"3.8756802","Longitude":"11.5227967","Name":"Impasse 1.151/51"},{"Latitude":"3.8659312","Longitude":"11.5277669","Name":"Impasse 1.257/124"},{"Latitude":"3.8659693","Longitude":"11.5271714","Name":"Impasse 1.257/155"},{"Latitude":"3.8664411","Longitude":"11.5271690","Name":"Impasse 1.257/200"},{"Latitude":"3.8666065","Longitude":"11.5270807","Name":"Impasse 1.257/224"},{"Latitude":"3.8656489","Longitude":"11.5279017","Name":"Impasse 1.257/92"},{"Latitude":"3.8739552","Longitude":"11.5335316","Name":"Impasse 1.291/285"},{"Latitude":"3.8754470","Longitude":"11.5327038","Name":"Impasse 1.293/336"},{"Latitude":"3.8769380","Longitude":"11.5327598","Name":"Impasse 1.303/524"},{"Latitude":"3.8780552","Longitude":"11.5323159","Name":"Impasse 1.303/595"},{"Latitude":"3.8782439","Longitude":"11.5467408","Name":"Impasse 1.336/227"},{"Latitude":"3.8782545","Longitude":"11.5463942","Name":"Impasse 1.336/257"},{"Latitude":"3.8834756","Longitude":"11.5507400","Name":"Impasse 1.362/385"},{"Latitude":"3.8817455","Longitude":"11.5449934","Name":"Impasse 1.373/115"},{"Latitude":"3.8810522","Longitude":"11.5498684","Name":"Impasse 1.379/93"},{"Latitude":"3.8862623","Longitude":"11.5502672","Name":"Impasse 1.423"},{"Latitude":"3.8950715","Longitude":"11.5402621","Name":"Impasse 1.590/287"},{"Latitude":"3.8875428","Longitude":"11.5022876","Name":"Impasse 1.750/1634"},{"Latitude":"3.8922998","Longitude":"11.5036860","Name":"Impasse 1.761/815"},{"Latitude":"3.8892625","Longitude":"11.5111922","Name":"Impasse 1.771/665"},{"Latitude":"3.8899061","Longitude":"11.5119284","Name":"Impasse 1.771/668"},{"Latitude":"3.8867363","Longitude":"11.5157667","Name":"Impasse 1.777/315"},{"Latitude":"3.8912227","Longitude":"11.5176389","Name":"Impasse 1.782/1070"},{"Latitude":"3.8940386","Longitude":"11.5172848","Name":"Impasse 1.782/725"},{"Latitude":"3.8933554","Longitude":"11.5141189","Name":"Impasse 1.788/151"},{"Latitude":"3.8957721","Longitude":"11.5090196","Name":"Impasse 1.790/384"},{"Latitude":"3.8947189","Longitude":"11.5118922","Name":"Impasse 1.795/263"},{"Latitude":"3.8931111","Longitude":"11.5120206","Name":"Impasse 1.795/94"},{"Latitude":"3.8926744","Longitude":"11.5088989","Name":"Impasse 1.874/869"},{"Latitude":"3.8940298","Longitude":"11.5113477","Name":"Impasse 1.995/100"},{"Latitude":"3.8939964","Longitude":"11.5105833","Name":"Impasse 1.995/169"},{"Latitude":"4.0942375","Longitude":"9.7418065","Name":"Impasse 1080"},{"Latitude":"4.0947057","Longitude":"9.7410672","Name":"Impasse 1142"},{"Latitude":"3.8700466","Longitude":"11.5116318","Name":"Impasse 2.010/250"},{"Latitude":"3.8707830","Longitude":"11.5104438","Name":"Impasse 2.010/350"},{"Latitude":"3.8709743","Longitude":"11.4997043","Name":"Impasse 3.350/734"},{"Latitude":"3.8712289","Longitude":"11.4989290","Name":"Impasse 3.350/770"},{"Latitude":"3.8716192","Longitude":"11.4973614","Name":"Impasse 3.362/41"},{"Latitude":"3.8649678","Longitude":"11.4985905","Name":"Impasse 3.382/630"},{"Latitude":"3.8669561","Longitude":"11.4961396","Name":"Impasse 3.389/751"},{"Latitude":"3.8658267","Longitude":"11.4959605","Name":"Impasse 3.389/806"},{"Latitude":"3.8706411","Longitude":"11.4922062","Name":"Impasse 3.391/495"},{"Latitude":"3.8707361","Longitude":"11.4927252","Name":"Impasse 3.391/547"},{"Latitude":"3.8650922","Longitude":"11.4961745","Name":"Impasse 3.391/954"},{"Latitude":"3.8666069","Longitude":"11.4943519","Name":"Impasse 3.406/188"},{"Latitude":"3.8637836","Longitude":"11.4934681","Name":"Impasse 3.425/115"},{"Latitude":"3.8648573","Longitude":"11.4930998","Name":"Impasse 3.425/327"},{"Latitude":"3.8623398","Longitude":"11.5380063","Name":"Impasse 4.098/1041"},{"Latitude":"3.8853863","Longitude":"11.5610638","Name":"Impasse 5.055/305"},{"Latitude":"3.8845259","Longitude":"11.5603799","Name":"Impasse 5.055/306"},{"Latitude":"3.8825082","Longitude":"11.5641900","Name":"Impasse 5.055/716"},{"Latitude":"3.8832233","Longitude":"11.5633122","Name":"Impasse 5.090/57"},{"Latitude":"3.8820947","Longitude":"11.5661131","Name":"Impasse 5.118/135"},{"Latitude":"3.8828741","Longitude":"11.5685559","Name":"Impasse 5.118/548"},{"Latitude":"3.8810966","Longitude":"11.5699721","Name":"Impasse 5.152/162"},{"Latitude":"3.8795204","Longitude":"11.5686746","Name":"Impasse 5.156/61"},{"Latitude":"3.9147199","Longitude":"11.5321742","Name":"Impasse 5.770/1101"},{"Latitude":"3.9120171","Longitude":"11.5375909","Name":"Impasse 5.800/391"},{"Latitude":"3.9140406","Longitude":"11.5341532","Name":"Impasse 5.806/"},{"Latitude":"3.9147246","Longitude":"11.5343014","Name":"Impasse 5.806/135"},{"Latitude":"3.9153200","Longitude":"11.5347849","Name":"Impasse 5.811/63"},{"Latitude":"3.9209247","Longitude":"11.5292448","Name":"Impasse 5.835/64"},{"Latitude":"3.9184428","Longitude":"11.5366678","Name":"Impasse 5.851/120"},{"Latitude":"3.9181049","Longitude":"11.5367201","Name":"Impasse 5.852/"},{"Latitude":"3.9184227","Longitude":"11.5377943","Name":"Impasse 5.897/56"},{"Latitude":"3.8740074","Longitude":"11.4648532","Name":"Impasse 6.250/2349"},{"Latitude":"3.8800221","Longitude":"11.4461768","Name":"Impasse 6.750/793"},{"Latitude":"3.8637395","Longitude":"11.4919057","Name":"Impasse 7.004/264"},{"Latitude":"3.8633006","Longitude":"11.4931355","Name":"Impasse 7.004/44"},{"Latitude":"3.8433790","Longitude":"11.4915735","Name":"Impasse 7.312/35"},{"Latitude":"3.8453638","Longitude":"11.4858060","Name":"Impasse 7.331/460"},{"Latitude":"3.8451958","Longitude":"11.4871549","Name":"Impasse 7.331/473"},{"Latitude":"3.8442157","Longitude":"11.4860974","Name":"Impasse 7.331/568"},{"Latitude":"3.8462455","Longitude":"11.4858104","Name":"Impasse 7.340/98"},{"Latitude":"3.8398727","Longitude":"11.4854566","Name":"Impasse 7.409/38"},{"Latitude":"3.8372050","Longitude":"11.4857342","Name":"Impasse 7.426/45"},{"Latitude":"3.8450225","Longitude":"11.4821264","Name":"Impasse 7.746/123"},{"Latitude":"3.7958893","Longitude":"11.4996748","Name":"Impasse Leng Tombo"},{"Latitude":"3.8681363","Longitude":"11.5341036","Name":"Impasse Rue 1.254/120"},{"Latitude":"3.8367243","Longitude":"11.4875057","Name":"Impasse Rue des Cannes (7.426)"},{"Latitude":"3.8330760","Longitude":"11.4870107","Name":"Impasse Rue des Cocotiers (7.497)"},{"Latitude":"3.8371786","Longitude":"11.4901715","Name":"Impasse de l'Avelinier"},{"Latitude":"3.8393040","Longitude":"11.4864993","Name":"Impasse de l'acacia 1"},{"Latitude":"3.8398089","Longitude":"11.4857874","Name":"Impasse de l'acacia 2"},{"Latitude":"3.8316054","Longitude":"11.4841501","Name":"Impasse rue des cocotiers (7.497/1035)"},{"Latitude":"3.8325807","Longitude":"11.5022496","Name":"Impasse/7.522"},{"Latitude":"4.0183368","Longitude":"9.1735876","Name":"Isokolo Old Road"},{"Latitude":"4.5666236","Longitude":"13.7086636","Name":"Italie-Ngaîkada"},{"Latitude":"4.1544336","Longitude":"9.2908211","Name":"Iya Avenue"},{"Latitude":"4.1534850","Longitude":"9.2532013","Name":"Iya Avenue D-61"},{"Latitude":"6.0414224","Longitude":"10.6645178","Name":"Jakiri-Foumban"},{"Latitude":"4.0883113","Longitude":"9.3132493","Name":"Jango"},{"Latitude":"12.1269880","Longitude":"15.0337040","Name":"Joseph Yodeman"},{"Latitude":"12.1245334","Longitude":"15.0336531","Name":"Joseph Yodeman زنقة جوزيف يوديمان"},{"Latitude":"5.9963992","Longitude":"10.4417612","Name":"Kake bridge"},{"Latitude":"10.1068804","Longitude":"14.4491005","Name":"Kaélé-Doumrou"},{"Latitude":"4.1486949","Longitude":"9.2434890","Name":"Kingdom Hall Road"},{"Latitude":"5.8326790","Longitude":"10.2546125","Name":"Kings Highway"},{"Latitude":"5.8581623","Longitude":"10.2448047","Name":"Kings Highway East"},{"Latitude":"5.7955252","Longitude":"10.2812396","Name":"Kings Highway SE"},{"Latitude":"5.8075855","Longitude":"10.2579182","Name":"Kings Highway SW"},{"Latitude":"5.8528806","Longitude":"10.2381321","Name":"Kings Highway West"},{"Latitude":"10.2746750","Longitude":"14.8039734","Name":"Kofidé - Nguirling-Doumga"},{"Latitude":"10.2010596","Longitude":"14.7790560","Name":"Kofidé- Salmaye"},{"Latitude":"10.3474423","Longitude":"14.8237875","Name":"Kofidé-Nguirling-Moulvoudaye"},{"Latitude":"10.2061046","Longitude":"14.7800328","Name":"Kofidé-Salmaye"},{"Latitude":"10.1994095","Longitude":"14.8054621","Name":"Kofidé-Siguéorè-Touloum"},{"Latitude":"4.0595731","Longitude":"11.3421057","Name":"Kombag-Nkonzok"},{"Latitude":"5.8076766","Longitude":"10.2643251","Name":"Kong Fo'o Street"},{"Latitude":"5.8260609","Longitude":"10.2541459","Name":"Konwufene Street"},{"Latitude":"2.9312315","Longitude":"9.9110520","Name":"Kribi-Ebolowa"},{"Latitude":"3.0595080","Longitude":"10.3149170","Name":"Kribi-Lolodorf"},{"Latitude":"4.7326347","Longitude":"9.6560141","Name":"Kumba-Mamfe"},{"Latitude":"4.5971380","Longitude":"9.0707184","Name":"Kumba-Mundemba"},{"Latitude":"5.8125111","Longitude":"10.2580753","Name":"Kwate Street"},{"Latitude":"3.1770948","Longitude":"10.0294074","Name":"L'ancien Pont Allemand"},{"Latitude":"5.1615155","Longitude":"10.1867268","Name":"La Residance"},{"Latitude":"4.0503895","Longitude":"9.7320347","Name":"La Route de BP Cité"},{"Latitude":"4.0575705","Longitude":"9.7394899","Name":"La Route du Campus 2 ESSEC"},{"Latitude":"4.0563131","Longitude":"11.3640086","Name":"Lendom-Konabeng"},{"Latitude":"3.6922590","Longitude":"10.4489630","Name":"Libanga Mogui - Somabouyê"},{"Latitude":"3.6528802","Longitude":"10.4715572","Name":"Libanga Mogui - Souck"},{"Latitude":"4.0203264","Longitude":"9.1794606","Name":"Limbe-Mokunda"},{"Latitude":"4.0375269","Longitude":"9.7493885","Name":"Logbaba Route de Japoma 3c.660"},{"Latitude":"3.2748717","Longitude":"10.6839681","Name":"Lolodorf - Kribi"},{"Latitude":"3.5627412","Longitude":"10.7081589","Name":"Lolodorf - Éséka"},{"Latitude":"5.9734526","Longitude":"10.1456755","Name":"Longla Street"},{"Latitude":"5.9589804","Longitude":"10.1520639","Name":"Mafo Street"},{"Latitude":"5.8648860","Longitude":"10.2303443","Name":"Main Avenue"},{"Latitude":"5.8526029","Longitude":"10.2225225","Name":"Main Avenue West"},{"Latitude":"5.1415555","Longitude":"10.5266612","Name":"Main Road"},{"Latitude":"5.1421140","Longitude":"10.5201402","Name":"Main Road-Hopital de district"},{"Latitude":"4.1590517","Longitude":"9.2928373","Name":"Malingo Street"},{"Latitude":"5.9536406","Longitude":"10.1559266","Name":"Mallam Baba Street"},{"Latitude":"5.9536182","Longitude":"10.1398833","Name":"Mamcho Street"},{"Latitude":"4.0099448","Longitude":"9.2147626","Name":"Manga Williams Avenue"},{"Latitude":"3.9985999","Longitude":"9.2154874","Name":"Manga bridge"},{"Latitude":"4.4302033","Longitude":"14.3651658","Name":"Mango Tree Road"},{"Latitude":"5.4694606","Longitude":"10.4226508","Name":"Manoir Hotel-Montee Monument Wanko"},{"Latitude":"5.3329981","Longitude":"10.3688192","Name":"Marché Vers le Centre Administratif"},{"Latitude":"4.1603427","Longitude":"9.2336051","Name":"Market Road"},{"Latitude":"5.8397811","Longitude":"10.2555321","Name":"Market Street"},{"Latitude":"10.5211887","Longitude":"14.2022500","Name":"Maroua-Mokolo"},{"Latitude":"10.6109864","Longitude":"14.3518141","Name":"Maroua-Pouss"},{"Latitude":"4.1430879","Longitude":"9.2244011","Name":"Mayor Street"},{"Latitude":"6.0010804","Longitude":"10.0174112","Name":"Mbengwi Road"},{"Latitude":"5.3279825","Longitude":"9.8621486","Name":"Mbokambo Road"},{"Latitude":"5.8294468","Longitude":"10.2586891","Name":"Mbomboh Street"},{"Latitude":"6.0007171","Longitude":"10.0128382","Name":"Mbon Market Road"},{"Latitude":"5.8056663","Longitude":"10.2478885","Name":"Mekemtikong Road"},{"Latitude":"5.9782942","Longitude":"10.1241558","Name":"Mekwebu Street"},{"Latitude":"5.8261532","Longitude":"10.2575448","Name":"Menefeume Street"},{"Latitude":"5.9516775","Longitude":"10.1504217","Name":"Meta Quarter"},{"Latitude":"10.1560649","Longitude":"14.3584180","Name":"Midjiving-Boboyo"},{"Latitude":"4.1594754","Longitude":"9.2420484","Name":"Mission Road"},{"Latitude":"5.9612371","Longitude":"10.1673416","Name":"Mobile Nkwen Street"},{"Latitude":"5.8276095","Longitude":"10.2538667","Name":"Mofor Tawoh Street"},{"Latitude":"5.4774597","Longitude":"10.4183736","Name":"Montee AKWA Bafoussam"},{"Latitude":"5.4745982","Longitude":"10.4306026","Name":"Montee Derriere le Stade"},{"Latitude":"5.4768130","Longitude":"10.4211988","Name":"Montee Famla"},{"Latitude":"5.4722936","Longitude":"10.4178921","Name":"Montee Services du Gouverneur"},{"Latitude":"5.4723460","Longitude":"10.4334176","Name":"Monter 2e Carr Eveche"},{"Latitude":"5.4827909","Longitude":"10.4476225","Name":"Monter Bouquie"},{"Latitude":"5.4816762","Longitude":"10.4463337","Name":"Monter Ecole Primaire"},{"Latitude":"5.4820667","Longitude":"10.4195190","Name":"Montée Marché C"},{"Latitude":"10.8527224","Longitude":"14.8896210","Name":"Moroua-Pouss"},{"Latitude":"4.0897453","Longitude":"9.3133311","Name":"Mount Zion Bar"},{"Latitude":"10.1746288","Longitude":"14.2725799","Name":"Moutourwa-Midjiving"},{"Latitude":"6.0148401","Longitude":"10.0118731","Name":"Mr. Godfriend Road"},{"Latitude":"5.9776194","Longitude":"10.1444954","Name":"Mulang"},{"Latitude":"5.9765497","Longitude":"10.1520431","Name":"Mulang Street"},{"Latitude":"5.9662932","Longitude":"10.1461396","Name":"Munwitingoro Street"},{"Latitude":"5.9680519","Longitude":"10.1456501","Name":"Musang Street"},{"Latitude":"12.0945520","Longitude":"15.0832406","Name":"N'Djamena - Moundou"},{"Latitude":"12.0961294","Longitude":"15.0831811","Name":"N'Djamena - Moundou انجامينا - موندو"},{"Latitude":"9.9562732","Longitude":"15.6845471","Name":"N'Gouboua-انغوبؤا"},{"Latitude":"5.9454441","Longitude":"10.1486896","Name":"Nacho Street"},{"Latitude":"4.0867070","Longitude":"9.3229508","Name":"Nana׳s street"},{"Latitude":"5.9396404","Longitude":"10.1407624","Name":"Nangah Street"},{"Latitude":"5.9705690","Longitude":"10.1271876","Name":"Nchoubu Street"},{"Latitude":"5.9771792","Longitude":"10.1628578","Name":"Ndamukong Street"},{"Latitude":"5.9595385","Longitude":"10.1523468","Name":"Ndefru Street"},{"Latitude":"5.8199057","Longitude":"10.2556725","Name":"Ndeh Street"},{"Latitude":"5.7717739","Longitude":"11.4955321","Name":"Nditam-Ngambe-Tikar-2"},{"Latitude":"4.9992047","Longitude":"10.2012120","Name":"Ndockmbang-Behack"},{"Latitude":"5.9659007","Longitude":"10.1801815","Name":"New Access Road"},{"Latitude":"5.9688128","Longitude":"10.1214217","Name":"New Layout Mbinfibieh"},{"Latitude":"4.0905927","Longitude":"9.3124170","Name":"New Quarter Street"},{"Latitude":"7.2014809","Longitude":"14.0878934","Name":"Ngaoundéré - Bélel"},{"Latitude":"8.5062044","Longitude":"13.6529200","Name":"Ngaoundéré-Garoua"},{"Latitude":"6.4073330","Longitude":"14.2630930","Name":"Ngaoundéré-Garoua-Boulai"},{"Latitude":"7.4661552","Longitude":"13.5997137","Name":"Ngaoundéré-Touboro-Moundou"},{"Latitude":"5.9825945","Longitude":"10.1358828","Name":"Ngomgham Street"},{"Latitude":"4.9593104","Longitude":"11.3870595","Name":"Ngoro"},{"Latitude":"5.9582373","Longitude":"10.1502310","Name":"Ngwafang Street"},{"Latitude":"4.0620488","Longitude":"11.2151279","Name":"Nkolpoblo-Nkoldasse"},{"Latitude":"5.9594499","Longitude":"10.1670777","Name":"Nkwen Street"},{"Latitude":"5.4764418","Longitude":"10.4322481","Name":"Nouvelle Route Eveche"},{"Latitude":"5.9458166","Longitude":"10.1321819","Name":"Ntaturu Street"},{"Latitude":"5.8180764","Longitude":"9.6843959","Name":"Numba-Ayukaba"},{"Latitude":"5.9548234","Longitude":"10.1424247","Name":"Nurses Quarter"},{"Latitude":"10.7420659","Longitude":"14.1297420","Name":"Nvelle Route"},{"Latitude":"4.9488118","Longitude":"9.5442025","Name":"Nyandong Track"},{"Latitude":"5.9709876","Longitude":"10.1439053","Name":"Nyiamgoh Street"},{"Latitude":"2.4368076","Longitude":"11.2247476","Name":"PISTE"},{"Latitude":"5.8248959","Longitude":"10.2538241","Name":"Pa Alang Street"},{"Latitude":"5.8556346","Longitude":"10.2411461","Name":"Palace Road"},{"Latitude":"5.8224302","Longitude":"10.2552324","Name":"Pezoh Street"},{"Latitude":"4.0266323","Longitude":"9.7377246","Name":"Piste"},{"Latitude":"4.0629195","Longitude":"9.7191292","Name":"Piste 1"},{"Latitude":"4.0240979","Longitude":"9.7479211","Name":"Piste 1 pour Carriere"},{"Latitude":"4.0232378","Longitude":"9.7488187","Name":"Piste 2"},{"Latitude":"4.0594193","Longitude":"9.7175212","Name":"Piste 3"},{"Latitude":"5.4682742","Longitude":"10.4055430","Name":"Piste Derriere Stade Omnisport"},{"Latitude":"5.4677820","Longitude":"10.4050820","Name":"Piste derriere Stade Omnisport"},{"Latitude":"4.4138611","Longitude":"9.6731417","Name":"Piste forestière"},{"Latitude":"3.8582982","Longitude":"11.5194302","Name":"Place Charles Atangana"},{"Latitude":"3.8710706","Longitude":"11.5238884","Name":"Place Elig-Essono"},{"Latitude":"4.0763236","Longitude":"9.6770288","Name":"Place Grand Baobab"},{"Latitude":"3.8665129","Longitude":"11.5205123","Name":"Place John F Kennedy"},{"Latitude":"3.8634652","Longitude":"11.5269945","Name":"Place Mvog-Ada"},{"Latitude":"3.8554453","Longitude":"11.5255832","Name":"Place de Nkondongo"},{"Latitude":"3.8728208","Longitude":"11.5174918","Name":"Place de l'Indépendance"},{"Latitude":"3.6387004","Longitude":"10.7802999","Name":"Place de l'indépendance"},{"Latitude":"3.8521855","Longitude":"11.5137980","Name":"Place de la R unification"},{"Latitude":"4.0504830","Longitude":"9.7023177","Name":"Place des Lions Indomptables"},{"Latitude":"2.9421218","Longitude":"9.9097176","Name":"Place des fêtes"},{"Latitude":"5.1080397","Longitude":"10.1324925","Name":"Place du Camp"},{"Latitude":"10.5801607","Longitude":"14.2998669","Name":"Pont"},{"Latitude":"7.4250721","Longitude":"13.5566213","Name":"Pont 'hôpital de dang"},{"Latitude":"7.3082369","Longitude":"13.6038067","Name":"Pont 2 Yoko"},{"Latitude":"7.3364663","Longitude":"13.5624654","Name":"Pont 2e de Mardock"},{"Latitude":"7.2805789","Longitude":"13.5824530","Name":"Pont 2eme fofeque"},{"Latitude":"7.3268321","Longitude":"13.5795106","Name":"Pont Baladji I"},{"Latitude":"10.1204660","Longitude":"14.4337237","Name":"Pont Boboyo"},{"Latitude":"7.3024391","Longitude":"13.5986508","Name":"Pont Burkina"},{"Latitude":"7.3203673","Longitude":"13.5959754","Name":"Pont CIFAN"},{"Latitude":"10.5965732","Longitude":"14.3154482","Name":"Pont Domayo"},{"Latitude":"4.0243403","Longitude":"9.2018223","Name":"Pont Expoir"},{"Latitude":"7.3362428","Longitude":"13.5806618","Name":"Pont Joli soir"},{"Latitude":"10.6015889","Longitude":"14.3101595","Name":"Pont KOTBAWO"},{"Latitude":"9.2988558","Longitude":"13.3956616","Name":"Pont Kadgoro"},{"Latitude":"7.3616037","Longitude":"13.5773189","Name":"Pont Kalmet"},{"Latitude":"7.3026307","Longitude":"13.6038543","Name":"Pont Na'a Mokala"},{"Latitude":"7.3312296","Longitude":"13.6074426","Name":"Pont Rep- yanga du nord CIFAN"},{"Latitude":"7.3193347","Longitude":"13.6276884","Name":"Pont Rep-Yanga secondaire"},{"Latitude":"10.6004742","Longitude":"14.3369349","Name":"Pont Vert"},{"Latitude":"7.3851237","Longitude":"13.5546968","Name":"Pont bidjoro manwi"},{"Latitude":"7.3101656","Longitude":"13.6004815","Name":"Pont burkina-norvegien"},{"Latitude":"7.4276485","Longitude":"13.5612653","Name":"Pont dang-gadabidou"},{"Latitude":"12.0897858","Longitude":"15.0830392","Name":"Pont de Chagoua"},{"Latitude":"3.8070251","Longitude":"10.1248462","Name":"Pont de Japoma"},{"Latitude":"4.0791387","Longitude":"11.2320895","Name":"Pont de Ngobo"},{"Latitude":"9.2993874","Longitude":"13.3934981","Name":"Pont de Pantaami"},{"Latitude":"7.3310626","Longitude":"13.6181762","Name":"Pont de Rep-Yanga 1"},{"Latitude":"7.3117712","Longitude":"13.6005512","Name":"Pont de Yoko"},{"Latitude":"7.3506423","Longitude":"13.5864679","Name":"Pont de gada-mabanga"},{"Latitude":"7.3415055","Longitude":"13.5910223","Name":"Pont de gada-mabanga Djalingo"},{"Latitude":"4.4754626","Longitude":"11.4733140","Name":"Pont de l'Enfance"},{"Latitude":"4.0091278","Longitude":"9.2124953","Name":"Pont du marché"},{"Latitude":"4.0160602","Longitude":"9.1976904","Name":"Pont du zoo de Limbé"},{"Latitude":"4.0183286","Longitude":"9.1970579","Name":"Pont dès Zoo"},{"Latitude":"7.2816724","Longitude":"13.5809536","Name":"Pont fofeque"},{"Latitude":"7.3408291","Longitude":"13.5909502","Name":"Pont gada-mabanga Djalingo"},{"Latitude":"7.3015784","Longitude":"13.5801663","Name":"Pont limitrophe haut plateau- bamyanga"},{"Latitude":"7.2744377","Longitude":"13.5802133","Name":"Pont marza"},{"Latitude":"7.2840137","Longitude":"13.5791619","Name":"Pont marza1"},{"Latitude":"7.2893821","Longitude":"13.5825482","Name":"Pont mbisba"},{"Latitude":"7.3351735","Longitude":"13.5961322","Name":"Pont polyvalent 2 du Nord"},{"Latitude":"7.3289783","Longitude":"13.6075357","Name":"Pont secondaire"},{"Latitude":"7.4223176","Longitude":"13.5574072","Name":"Pont sous prefecture dang"},{"Latitude":"12.0778890","Longitude":"15.0180899","Name":"Pont sur la Rivière Mawak"},{"Latitude":"3.9477077","Longitude":"11.3511669","Name":"Pont sur la reviere Njobe"},{"Latitude":"9.2983948","Longitude":"13.3932053","Name":"Pont traditionnel"},{"Latitude":"4.0096365","Longitude":"9.7362404","Name":"Poute Pour Scolaire Bilingue Celine Newton"},{"Latitude":"5.1579792","Longitude":"10.3029014","Name":"Provinciale 15"},{"Latitude":"5.4780547","Longitude":"10.2784539","Name":"Provinciale 17"},{"Latitude":"5.1148468","Longitude":"9.9413824","Name":"Provinciale 17a"},{"Latitude":"5.5752557","Longitude":"9.7324651","Name":"Provinciale 19"},{"Latitude":"5.4728723","Longitude":"10.2426459","Name":"Provinciale 31"},{"Latitude":"3.5370106","Longitude":"11.0021760","Name":"Provinciale 9"},{"Latitude":"11.2023134","Longitude":"13.8874285","Name":"Pulka Bokko - Kerawa Road"},{"Latitude":"4.0454618","Longitude":"9.6850409","Name":"Quai de la Marine(N°1.031)"},{"Latitude":"5.1472875","Longitude":"10.5191419","Name":"RDPC Carrefour"},{"Latitude":"4.0241671","Longitude":"9.7460418","Name":"Raccourci pour l'ecole Ste Xaverie"},{"Latitude":"4.0591648","Longitude":"9.7164342","Name":"Raccourci vers le marche New-Deido"},{"Latitude":"4.0869455","Longitude":"9.3121093","Name":"Rangers Street"},{"Latitude":"4.1476163","Longitude":"9.2420286","Name":"Razel Street"},{"Latitude":"8.5915688","Longitude":"14.1841194","Name":"Rey Bouba"},{"Latitude":"6.1342700","Longitude":"10.6051512","Name":"Ring Road"},{"Latitude":"4.0548094","Longitude":"9.7795875","Name":"Road To PK 12"},{"Latitude":"4.0800804","Longitude":"9.7884455","Name":"Road To PK 14"},{"Latitude":"5.9939066","Longitude":"10.1846273","Name":"Road to Bafut"},{"Latitude":"4.1477824","Longitude":"9.2975510","Name":"Road to Bulu Blind"},{"Latitude":"12.0950561","Longitude":"15.0695253","Name":"Rond Point 100 ans / مدار ١٠٠ سنة"},{"Latitude":"12.1146443","Longitude":"15.0439321","Name":"Rond Point Bololo دوار بولولو"},{"Latitude":"10.1095751","Longitude":"14.4460631","Name":"Rond Point Gendarmerie"},{"Latitude":"12.1198707","Longitude":"15.0301548","Name":"Rond Point Glob Terrestre دوار الكرة الأرضية"},{"Latitude":"12.1096105","Longitude":"15.0551031","Name":"Rond Point Marche a Mil"},{"Latitude":"12.1248403","Longitude":"15.0364966","Name":"Rond Point Mère et Enfant دوار الأم والطفل"},{"Latitude":"12.1209390","Longitude":"15.0205623","Name":"Rond Point Travaux دوار أعمال"},{"Latitude":"12.1216025","Longitude":"15.0343922","Name":"Rond Point Tresor"},{"Latitude":"12.1162153","Longitude":"15.0326815","Name":"Rond Point de 10 voies / مدار زنقة 10"},{"Latitude":"12.0919684","Longitude":"15.0831374","Name":"Rond Point de Chagoua"},{"Latitude":"12.1130420","Longitude":"15.0364477","Name":"Rond Point de la Justice دوار العدالة"},{"Latitude":"12.1097026","Longitude":"15.0447384","Name":"Rond point STT دوار الشركة النقل العابر"},{"Latitude":"12.1130503","Longitude":"15.0364587","Name":"Rond-point BEAC دوار البنك المركزي لدول وسط أفريقيا"},{"Latitude":"2.3815239","Longitude":"11.2655733","Name":"Route"},{"Latitude":"4.0852956","Longitude":"9.7230040","Name":"Route  de Douala Nord"},{"Latitude":"5.4732912","Longitude":"10.4334927","Name":"Route 1er-2e Carr Eveche"},{"Latitude":"4.0709039","Longitude":"9.6716063","Name":"Route 4.070"},{"Latitude":"4.0786638","Longitude":"9.7185606","Name":"Route Akwa Nord"},{"Latitude":"4.0449702","Longitude":"9.7324732","Name":"Route Borome College"},{"Latitude":"4.0402118","Longitude":"9.7112556","Name":"Route Camp Yabassi"},{"Latitude":"4.0457849","Longitude":"9.7367916","Name":"Route Cimitière Ndokoti"},{"Latitude":"4.0484718","Longitude":"9.7588862","Name":"Route Cite d'espoir pour L'humanite"},{"Latitude":"5.4962833","Longitude":"10.3933413","Name":"Route College Binlingue la Reussite Maak Paulo"},{"Latitude":"4.0618807","Longitude":"9.7865854","Name":"Route Collège Saint Louis"},{"Latitude":"4.0497698","Longitude":"9.7749003","Name":"Route Colombre Primary School"},{"Latitude":"4.0709913","Longitude":"9.6662390","Name":"Route Complexe Industriel du Littoral"},{"Latitude":"4.0688502","Longitude":"9.7119326","Name":"Route Deido Bonanjo (N°1.705)"},{"Latitude":"5.4908923","Longitude":"10.4084499","Name":"Route Derriere Hôpital Régional de Bafoussam"},{"Latitude":"5.4903782","Longitude":"10.4069578","Name":"Route Derriere Hôpital régional de Bafoussam"},{"Latitude":"5.5076895","Longitude":"10.4020762","Name":"Route Devant Brigade de Lafe (Entree Ancien depot Guinness)"},{"Latitude":"5.5094430","Longitude":"10.4027921","Name":"Route Devant Hotel le Grand Lac (Entree Ancien depot Guinness)"},{"Latitude":"5.4897324","Longitude":"10.4089065","Name":"Route Devant Hôpital régional de Bafoussam"},{"Latitude":"5.5051966","Longitude":"10.3991322","Name":"Route Devant Mairie de Bafoussam II (Entree Ancien depot Guinness)"},{"Latitude":"4.0495059","Longitude":"9.7246210","Name":"Route Eglise Presbyterinne Ngobati"},{"Latitude":"3.9560105","Longitude":"11.5819236","Name":"Route Engola Robert"},{"Latitude":"5.4888508","Longitude":"10.4011354","Name":"Route Enieg Bafoussam"},{"Latitude":"5.4997960","Longitude":"10.3968263","Name":"Route Entree Ancien Depot Guinness"},{"Latitude":"5.4877669","Longitude":"10.4089460","Name":"Route Entree Hôpital Régional de Bafoussam"},{"Latitude":"12.1250008","Longitude":"15.0289922","Name":"Route Farcha طريق فارشا"},{"Latitude":"4.0412489","Longitude":"9.7613539","Name":"Route Logbaba-cité des Palmiers"},{"Latitude":"5.4904012","Longitude":"10.4003954","Name":"Route Lycee Bilingue de Gouache"},{"Latitude":"4.0500852","Longitude":"9.7398151","Name":"Route Motel Ronalo"},{"Latitude":"4.0095483","Longitude":"9.7450624","Name":"Route Pour Wisdom Bilingual College"},{"Latitude":"4.0475227","Longitude":"9.7730370","Name":"Route Pour école Primaire Coco"},{"Latitude":"3.6096669","Longitude":"11.2635800","Name":"Route Père Urs"},{"Latitude":"4.0252000","Longitude":"9.7483900","Name":"Route Quartier Bamenda"},{"Latitude":"4.0569518","Longitude":"9.6954987","Name":"Route Sandaga"},{"Latitude":"4.1150883","Longitude":"9.6729616","Name":"Route Sodiko-Bonamatoumbe"},{"Latitude":"5.1404739","Longitude":"10.5229011","Name":"Route Station Total"},{"Latitude":"3.5816247","Longitude":"11.3031614","Name":"Route Yaoundé-Kribi"},{"Latitude":"3.9912228","Longitude":"9.7640652","Name":"Route de Banga Pongo"},{"Latitude":"4.0614575","Longitude":"9.7172085","Name":"Route de Bessengue"},{"Latitude":"3.8756615","Longitude":"11.4238286","Name":"Route de Douala"},{"Latitude":"4.0836079","Longitude":"9.7325349","Name":"Route de Douala Nord"},{"Latitude":"4.0419710","Longitude":"9.7258729","Name":"Route de Japoma"},{"Latitude":"4.0367537","Longitude":"9.7613311","Name":"Route de Japoma Axe Nyalla 3c.660"},{"Latitude":"3.8483717","Longitude":"11.4844251","Name":"Route de Kribi"},{"Latitude":"10.6070793","Longitude":"14.3376102","Name":"Route de Maga"},{"Latitude":"3.8797768","Longitude":"11.5338092","Name":"Route de Ngousso"},{"Latitude":"3.9912100","Longitude":"11.5796972","Name":"Route de Ntoutmevom"},{"Latitude":"4.0159328","Longitude":"9.7972190","Name":"Route de Yassa"},{"Latitude":"4.0226700","Longitude":"9.7490400","Name":"Route de carriere"},{"Latitude":"12.0960468","Longitude":"15.0540191","Name":"Route de la Corniche طريق الكورنيش"},{"Latitude":"10.1102563","Longitude":"14.4505702","Name":"Route de la Prison"},{"Latitude":"4.3544332","Longitude":"11.2734014","Name":"Route de la sous-prefecture"},{"Latitude":"5.1417547","Longitude":"10.5187647","Name":"Route derriere Hopital de district"},{"Latitude":"3.8953137","Longitude":"11.5003849","Name":"Route du Golf"},{"Latitude":"4.0702633","Longitude":"9.6874281","Name":"Route du Lycée (Rue 4.352)"},{"Latitude":"3.8997632","Longitude":"11.5045396","Name":"Route du Mont-Fébé"},{"Latitude":"4.0290065","Longitude":"9.7557199","Name":"Route du Quartier Carriere"},{"Latitude":"4.0600019","Longitude":"9.7180593","Name":"Route du marche Deido"},{"Latitude":"5.4700922","Longitude":"10.4071266","Name":"Route stade Omnisport de Bafoussam"},{"Latitude":"5.4474132","Longitude":"10.4328288","Name":"Route tertiaire"},{"Latitude":"4.0249871","Longitude":"9.7449401","Name":"Route vers l'ecole Ste Xaverie d'Oyack"},{"Latitude":"4.3544841","Longitude":"11.2639325","Name":"Route zone industriel"},{"Latitude":"3.6963830","Longitude":"10.4499235","Name":"Rue  Ndengua Nliba"},{"Latitude":"3.8596550","Longitude":"11.5235860","Name":"Rue 1.000"},{"Latitude":"3.8605506","Longitude":"11.5242666","Name":"Rue 1.004"},{"Latitude":"3.8652083","Longitude":"11.5220457","Name":"Rue 1.008"},{"Latitude":"3.8678840","Longitude":"11.5215614","Name":"Rue 1.010"},{"Latitude":"3.8659595","Longitude":"11.5186099","Name":"Rue 1.012"},{"Latitude":"3.8661923","Longitude":"11.5172083","Name":"Rue 1.014"},{"Latitude":"3.8706639","Longitude":"11.5249452","Name":"Rue 1.015"},{"Latitude":"3.8670191","Longitude":"11.5165995","Name":"Rue 1.016"},{"Latitude":"3.8612599","Longitude":"11.5251068","Name":"Rue 1.018"},{"Latitude":"3.8799632","Longitude":"11.5136960","Name":"Rue 1.019"},{"Latitude":"3.8702661","Longitude":"11.5177187","Name":"Rue 1.020"},{"Latitude":"3.8705805","Longitude":"11.5164621","Name":"Rue 1.022"},{"Latitude":"3.8712943","Longitude":"11.5159513","Name":"Rue 1.024"},{"Latitude":"3.8715273","Longitude":"11.5191665","Name":"Rue 1.026"},{"Latitude":"3.8735406","Longitude":"11.5166576","Name":"Rue 1.028"},{"Latitude":"3.8755328","Longitude":"11.5171302","Name":"Rue 1.030"},{"Latitude":"3.8610098","Longitude":"11.5239756","Name":"Rue 1.031"},{"Latitude":"3.8816850","Longitude":"11.5158369","Name":"Rue 1.032"},{"Latitude":"3.8625145","Longitude":"11.5234054","Name":"Rue 1.033"},{"Latitude":"3.8812300","Longitude":"11.5154006","Name":"Rue 1.034"},{"Latitude":"3.8640900","Longitude":"11.5221916","Name":"Rue 1.037"},{"Latitude":"4.0281518","Longitude":"9.6929911","Name":"Rue 1.038"},{"Latitude":"4.0289427","Longitude":"9.6931305","Name":"Rue 1.040"},{"Latitude":"3.8650802","Longitude":"11.5211446","Name":"Rue 1.041"},{"Latitude":"4.0298344","Longitude":"9.6931573","Name":"Rue 1.042"},{"Latitude":"3.8745224","Longitude":"11.5245446","Name":"Rue 1.044"},{"Latitude":"3.8831952","Longitude":"11.5195174","Name":"Rue 1.046"},{"Latitude":"4.0311803","Longitude":"9.7009182","Name":"Rue 1.048"},{"Latitude":"3.8782783","Longitude":"11.5247221","Name":"Rue 1.050"},{"Latitude":"3.8707632","Longitude":"11.5174331","Name":"Rue 1.051"},{"Latitude":"3.8784243","Longitude":"11.5236146","Name":"Rue 1.052"},{"Latitude":"3.8683365","Longitude":"11.5183613","Name":"Rue 1.053"},{"Latitude":"3.8790821","Longitude":"11.5267296","Name":"Rue 1.054"},{"Latitude":"3.8686424","Longitude":"11.5179853","Name":"Rue 1.055"},{"Latitude":"3.8802960","Longitude":"11.5261206","Name":"Rue 1.056"},{"Latitude":"3.8798470","Longitude":"11.5291763","Name":"Rue 1.058"},{"Latitude":"3.8786869","Longitude":"11.5295400","Name":"Rue 1.060"},{"Latitude":"3.8827671","Longitude":"11.5277617","Name":"Rue 1.062"},{"Latitude":"3.8841415","Longitude":"11.5271331","Name":"Rue 1.064"},{"Latitude":"3.8809530","Longitude":"11.5260014","Name":"Rue 1.065"},{"Latitude":"3.8620973","Longitude":"11.5266937","Name":"Rue 1.066"},{"Latitude":"3.8807863","Longitude":"11.5285512","Name":"Rue 1.067"},{"Latitude":"3.8834261","Longitude":"11.5202943","Name":"Rue 1.070"},{"Latitude":"3.8743435","Longitude":"11.5269208","Name":"Rue 1.072"},{"Latitude":"3.8695355","Longitude":"11.5197057","Name":"Rue 1.073"},{"Latitude":"3.8876601","Longitude":"11.5263265","Name":"Rue 1.074"},{"Latitude":"3.8678295","Longitude":"11.5187242","Name":"Rue 1.075"},{"Latitude":"3.8772038","Longitude":"11.5242515","Name":"Rue 1.076"},{"Latitude":"3.8795570","Longitude":"11.5234000","Name":"Rue 1.078"},{"Latitude":"3.8733437","Longitude":"11.5189964","Name":"Rue 1.079"},{"Latitude":"3.8790694","Longitude":"11.5168265","Name":"Rue 1.081"},{"Latitude":"3.8814379","Longitude":"11.5275926","Name":"Rue 1.082"},{"Latitude":"3.8634717","Longitude":"11.5255682","Name":"Rue 1.083"},{"Latitude":"3.8822640","Longitude":"11.5273433","Name":"Rue 1.084"},{"Latitude":"3.8763646","Longitude":"11.5235751","Name":"Rue 1.086"},{"Latitude":"3.8695036","Longitude":"11.5163100","Name":"Rue 1.088"},{"Latitude":"4.0403530","Longitude":"9.6900971","Name":"Rue 1.089"},{"Latitude":"3.8717880","Longitude":"11.5149569","Name":"Rue 1.090"},{"Latitude":"3.8838475","Longitude":"11.5299194","Name":"Rue 1.092"},{"Latitude":"3.8705360","Longitude":"11.5256241","Name":"Rue 1.093"},{"Latitude":"3.8748954","Longitude":"11.5253526","Name":"Rue 1.094"},{"Latitude":"3.8737526","Longitude":"11.5229819","Name":"Rue 1.096"},{"Latitude":"3.8729238","Longitude":"11.5253178","Name":"Rue 1.097"},{"Latitude":"3.8743023","Longitude":"11.5236130","Name":"Rue 1.098"},{"Latitude":"3.8742827","Longitude":"11.5259970","Name":"Rue 1.099"},{"Latitude":"3.8789190","Longitude":"11.5202570","Name":"Rue 1.101"},{"Latitude":"3.8782709","Longitude":"11.5182002","Name":"Rue 1.102"},{"Latitude":"3.8774998","Longitude":"11.5208471","Name":"Rue 1.103"},{"Latitude":"3.8800324","Longitude":"11.5174151","Name":"Rue 1.104"},{"Latitude":"3.8778906","Longitude":"11.5258692","Name":"Rue 1.105"},{"Latitude":"3.8779823","Longitude":"11.5240332","Name":"Rue 1.106"},{"Latitude":"3.8795349","Longitude":"11.5253094","Name":"Rue 1.107"},{"Latitude":"3.8782372","Longitude":"11.5238307","Name":"Rue 1.108"},{"Latitude":"3.8797532","Longitude":"11.5265545","Name":"Rue 1.109"},{"Latitude":"3.8771224","Longitude":"11.5271881","Name":"Rue 1.110"},{"Latitude":"3.8792525","Longitude":"11.5277195","Name":"Rue 1.111"},{"Latitude":"3.8782245","Longitude":"11.5274417","Name":"Rue 1.112"},{"Latitude":"3.8817335","Longitude":"11.5228658","Name":"Rue 1.113"},{"Latitude":"4.0348288","Longitude":"9.6993210","Name":"Rue 1.114"},{"Latitude":"3.8804449","Longitude":"11.5222603","Name":"Rue 1.115"},{"Latitude":"3.8831330","Longitude":"11.5239125","Name":"Rue 1.116"},{"Latitude":"3.8775754","Longitude":"11.5278047","Name":"Rue 1.117"},{"Latitude":"3.8827452","Longitude":"11.5236965","Name":"Rue 1.118"},{"Latitude":"4.0355074","Longitude":"9.7011914","Name":"Rue 1.120"},{"Latitude":"3.8779509","Longitude":"11.5224442","Name":"Rue 1.121"},{"Latitude":"4.0394656","Longitude":"9.6894042","Name":"Rue 1.122"},{"Latitude":"3.8824821","Longitude":"11.5306201","Name":"Rue 1.123"},{"Latitude":"3.8860928","Longitude":"11.5301735","Name":"Rue 1.125"},{"Latitude":"3.8807067","Longitude":"11.5184835","Name":"Rue 1.127"},{"Latitude":"3.8814788","Longitude":"11.5184590","Name":"Rue 1.129"},{"Latitude":"4.0372384","Longitude":"9.6956198","Name":"Rue 1.130"},{"Latitude":"3.8837425","Longitude":"11.5218258","Name":"Rue 1.131"},{"Latitude":"3.8839014","Longitude":"11.5243264","Name":"Rue 1.133"},{"Latitude":"3.8779209","Longitude":"11.5296637","Name":"Rue 1.135"},{"Latitude":"4.0379216","Longitude":"9.6973458","Name":"Rue 1.137"},{"Latitude":"3.8792688","Longitude":"11.5199040","Name":"Rue 1.138"},{"Latitude":"3.8680865","Longitude":"11.5241529","Name":"Rue 1.139"},{"Latitude":"3.8636992","Longitude":"11.5186526","Name":"Rue 1.141"},{"Latitude":"3.8642782","Longitude":"11.5179704","Name":"Rue 1.143"},{"Latitude":"3.8669309","Longitude":"11.5237604","Name":"Rue 1.145"},{"Latitude":"3.8688780","Longitude":"11.5201428","Name":"Rue 1.147"},{"Latitude":"3.8748118","Longitude":"11.5212156","Name":"Rue 1.149"},{"Latitude":"3.8747050","Longitude":"11.5228749","Name":"Rue 1.151"},{"Latitude":"3.8779685","Longitude":"11.5195300","Name":"Rue 1.153"},{"Latitude":"3.8797371","Longitude":"11.5193897","Name":"Rue 1.155"},{"Latitude":"3.8769979","Longitude":"11.5230208","Name":"Rue 1.161"},{"Latitude":"3.8598434","Longitude":"11.5236160","Name":"Rue 1.163"},{"Latitude":"3.8755661","Longitude":"11.5158570","Name":"Rue 1.165"},{"Latitude":"4.0324563","Longitude":"9.6938348","Name":"Rue 1.166"},{"Latitude":"3.8832769","Longitude":"11.5231407","Name":"Rue 1.167"},{"Latitude":"3.8830466","Longitude":"11.5225969","Name":"Rue 1.169"},{"Latitude":"3.8737922","Longitude":"11.5264875","Name":"Rue 1.171"},{"Latitude":"4.0274180","Longitude":"9.6924736","Name":"Rue 1.173"},{"Latitude":"4.0281505","Longitude":"9.6947094","Name":"Rue 1.179"},{"Latitude":"4.0344725","Longitude":"9.6955931","Name":"Rue 1.185"},{"Latitude":"4.0336614","Longitude":"9.6978480","Name":"Rue 1.193"},{"Latitude":"4.0342817","Longitude":"9.6990383","Name":"Rue 1.195"},{"Latitude":"4.0336178","Longitude":"9.7012395","Name":"Rue 1.203"},{"Latitude":"4.0329081","Longitude":"9.7003679","Name":"Rue 1.205"},{"Latitude":"4.0347365","Longitude":"9.7025957","Name":"Rue 1.207"},{"Latitude":"4.0262598","Longitude":"9.6932184","Name":"Rue 1.215"},{"Latitude":"4.0269967","Longitude":"9.6947504","Name":"Rue 1.221"},{"Latitude":"4.0272761","Longitude":"9.6970586","Name":"Rue 1.229(Alias Rue SNEC)"},{"Latitude":"4.0275680","Longitude":"9.6986152","Name":"Rue 1.231 (Alias Rue du Service Social)"},{"Latitude":"4.0271616","Longitude":"9.6996127","Name":"Rue 1.233(Alias Rue Monoprix)"},{"Latitude":"4.0265633","Longitude":"9.7005492","Name":"Rue 1.235 (Alias Rue Batibois)"},{"Latitude":"4.0259476","Longitude":"9.7014538","Name":"Rue 1.237(Alias Rue Vasnitex)"},{"Latitude":"4.0253765","Longitude":"9.7023182","Name":"Rue 1.239(Alias Rue Toyota)"},{"Latitude":"4.0225568","Longitude":"9.7017998","Name":"Rue 1.241(Alias Rue Paul Monthe)"},{"Latitude":"3.8634705","Longitude":"11.5318470","Name":"Rue 1.250"},{"Latitude":"3.8631999","Longitude":"11.5305719","Name":"Rue 1.255"},{"Latitude":"3.8705959","Longitude":"11.5294487","Name":"Rue 1.258"},{"Latitude":"3.8670603","Longitude":"11.5287300","Name":"Rue 1.259"},{"Latitude":"3.8724937","Longitude":"11.5298500","Name":"Rue 1.260"},{"Latitude":"3.8681894","Longitude":"11.5343732","Name":"Rue 1.264"},{"Latitude":"3.8702932","Longitude":"11.5313201","Name":"Rue 1.265"},{"Latitude":"3.8696889","Longitude":"11.5385838","Name":"Rue 1.266"},{"Latitude":"3.8711678","Longitude":"11.5317462","Name":"Rue 1.267"},{"Latitude":"3.8659283","Longitude":"11.5320990","Name":"Rue 1.268"},{"Latitude":"3.8700884","Longitude":"11.5320592","Name":"Rue 1.269"},{"Latitude":"3.8700647","Longitude":"11.5373043","Name":"Rue 1.270"},{"Latitude":"3.8750542","Longitude":"11.5408904","Name":"Rue 1.271"},{"Latitude":"3.8705077","Longitude":"11.5371355","Name":"Rue 1.272"},{"Latitude":"3.8694864","Longitude":"11.5373424","Name":"Rue 1.273"},{"Latitude":"3.8688760","Longitude":"11.5346837","Name":"Rue 1.274"},{"Latitude":"3.8685861","Longitude":"11.5350284","Name":"Rue 1.275"},{"Latitude":"3.8710426","Longitude":"11.5360594","Name":"Rue 1.276"},{"Latitude":"3.8709421","Longitude":"11.5378523","Name":"Rue 1.277"},{"Latitude":"3.8725477","Longitude":"11.5379611","Name":"Rue 1.279"},{"Latitude":"3.8685811","Longitude":"11.5366259","Name":"Rue 1.280"},{"Latitude":"3.8625649","Longitude":"11.5270176","Name":"Rue 1.281"},{"Latitude":"3.8723559","Longitude":"11.5341749","Name":"Rue 1.282"},{"Latitude":"3.8629553","Longitude":"11.5282148","Name":"Rue 1.283"},{"Latitude":"3.8752027","Longitude":"11.5374682","Name":"Rue 1.284"},{"Latitude":"3.8716474","Longitude":"11.5334595","Name":"Rue 1.285"},{"Latitude":"3.8757927","Longitude":"11.5386035","Name":"Rue 1.286"},{"Latitude":"3.8740178","Longitude":"11.5351999","Name":"Rue 1.287"},{"Latitude":"3.8735565","Longitude":"11.5329586","Name":"Rue 1.288"},{"Latitude":"3.8743493","Longitude":"11.5348107","Name":"Rue 1.289"},{"Latitude":"3.8749198","Longitude":"11.5292784","Name":"Rue 1.290"},{"Latitude":"3.8762338","Longitude":"11.5365568","Name":"Rue 1.291"},{"Latitude":"3.8745734","Longitude":"11.5319169","Name":"Rue 1.293"},{"Latitude":"3.8755563","Longitude":"11.5317261","Name":"Rue 1.294"},{"Latitude":"3.8756895","Longitude":"11.5324136","Name":"Rue 1.295"},{"Latitude":"3.8765919","Longitude":"11.5325919","Name":"Rue 1.296"},{"Latitude":"3.8760189","Longitude":"11.5321330","Name":"Rue 1.297"},{"Latitude":"3.8781361","Longitude":"11.5339532","Name":"Rue 1.298"},{"Latitude":"3.8781361","Longitude":"11.5339532","Name":"Rue 1.299"},{"Latitude":"3.8805606","Longitude":"11.5332134","Name":"Rue 1.300"},{"Latitude":"3.8846330","Longitude":"11.5365082","Name":"Rue 1.301"},{"Latitude":"3.8803027","Longitude":"11.5391520","Name":"Rue 1.302"},{"Latitude":"3.8808142","Longitude":"11.5348879","Name":"Rue 1.304"},{"Latitude":"3.8654462","Longitude":"11.5295277","Name":"Rue 1.305"},{"Latitude":"3.8788345","Longitude":"11.5408277","Name":"Rue 1.306"},{"Latitude":"3.8821906","Longitude":"11.5406767","Name":"Rue 1.308"},{"Latitude":"3.8834568","Longitude":"11.5382691","Name":"Rue 1.309"},{"Latitude":"3.8714841","Longitude":"11.5456952","Name":"Rue 1.310"},{"Latitude":"3.8801782","Longitude":"11.5383164","Name":"Rue 1.311"},{"Latitude":"3.8730532","Longitude":"11.5474412","Name":"Rue 1.312"},{"Latitude":"3.8820175","Longitude":"11.5377274","Name":"Rue 1.313"},{"Latitude":"3.8711189","Longitude":"11.5430501","Name":"Rue 1.314"},{"Latitude":"3.8800692","Longitude":"11.5375177","Name":"Rue 1.315"},{"Latitude":"3.8801613","Longitude":"11.5483649","Name":"Rue 1.316"},{"Latitude":"3.8706492","Longitude":"11.5409164","Name":"Rue 1.317"},{"Latitude":"3.8721202","Longitude":"11.5417187","Name":"Rue 1.318"},{"Latitude":"3.8710080","Longitude":"11.5424858","Name":"Rue 1.319"},{"Latitude":"3.8727281","Longitude":"11.5420856","Name":"Rue 1.320"},{"Latitude":"3.8720953","Longitude":"11.5431208","Name":"Rue 1.321"},{"Latitude":"3.8728305","Longitude":"11.5409254","Name":"Rue 1.322"},{"Latitude":"3.8730258","Longitude":"11.5433578","Name":"Rue 1.323"},{"Latitude":"3.8739532","Longitude":"11.5478883","Name":"Rue 1.324"},{"Latitude":"3.8713769","Longitude":"11.5438824","Name":"Rue 1.325"},{"Latitude":"3.8743472","Longitude":"11.5476279","Name":"Rue 1.326"},{"Latitude":"3.8745183","Longitude":"11.5442593","Name":"Rue 1.327"},{"Latitude":"3.8745596","Longitude":"11.5469725","Name":"Rue 1.328"},{"Latitude":"3.8746981","Longitude":"11.5447195","Name":"Rue 1.329"},{"Latitude":"3.8758328","Longitude":"11.5480969","Name":"Rue 1.330"},{"Latitude":"3.8739614","Longitude":"11.5451819","Name":"Rue 1.331"},{"Latitude":"3.8747023","Longitude":"11.5317887","Name":"Rue 1.332"},{"Latitude":"3.8719385","Longitude":"11.5457015","Name":"Rue 1.333"},{"Latitude":"3.8759858","Longitude":"11.5420014","Name":"Rue 1.334"},{"Latitude":"3.8727964","Longitude":"11.5461278","Name":"Rue 1.335"},{"Latitude":"3.8784116","Longitude":"11.5466020","Name":"Rue 1.336"},{"Latitude":"3.8753936","Longitude":"11.5462862","Name":"Rue 1.337"},{"Latitude":"3.8776411","Longitude":"11.5445596","Name":"Rue 1.338"},{"Latitude":"3.8754225","Longitude":"11.5483649","Name":"Rue 1.339"},{"Latitude":"3.8766780","Longitude":"11.5417566","Name":"Rue 1.340"},{"Latitude":"3.8762780","Longitude":"11.5496562","Name":"Rue 1.341"},{"Latitude":"3.8792621","Longitude":"11.5458517","Name":"Rue 1.342"},{"Latitude":"3.8739665","Longitude":"11.5478610","Name":"Rue 1.343"},{"Latitude":"3.8796203","Longitude":"11.5455524","Name":"Rue 1.344"},{"Latitude":"3.8751460","Longitude":"11.5436244","Name":"Rue 1.345"},{"Latitude":"3.8803071","Longitude":"11.5455593","Name":"Rue 1.346"},{"Latitude":"3.8810806","Longitude":"11.5457985","Name":"Rue 1.348"},{"Latitude":"3.8759858","Longitude":"11.5420014","Name":"Rue 1.349"},{"Latitude":"3.8806696","Longitude":"11.5446781","Name":"Rue 1.350"},{"Latitude":"3.8765303","Longitude":"11.5435544","Name":"Rue 1.351"},{"Latitude":"3.8821884","Longitude":"11.5464807","Name":"Rue 1.352"},{"Latitude":"3.8761999","Longitude":"11.5440943","Name":"Rue 1.353"},{"Latitude":"3.8796647","Longitude":"11.5410405","Name":"Rue 1.354"},{"Latitude":"3.8781526","Longitude":"11.5444459","Name":"Rue 1.355"},{"Latitude":"3.8743298","Longitude":"11.5309345","Name":"Rue 1.356"},{"Latitude":"3.8796447","Longitude":"11.5442611","Name":"Rue 1.357"},{"Latitude":"3.8819339","Longitude":"11.5496320","Name":"Rue 1.358"},{"Latitude":"3.8683738","Longitude":"11.5302127","Name":"Rue 1.359"},{"Latitude":"3.8840661","Longitude":"11.5500521","Name":"Rue 1.360"},{"Latitude":"3.8772740","Longitude":"11.5462484","Name":"Rue 1.361"},{"Latitude":"4.0445736","Longitude":"9.7067341","Name":"Rue 1.362"},{"Latitude":"3.8773701","Longitude":"11.5478658","Name":"Rue 1.363"},{"Latitude":"4.0455190","Longitude":"9.7067120","Name":"Rue 1.364"},{"Latitude":"3.8703169","Longitude":"11.5307972","Name":"Rue 1.365"},{"Latitude":"4.0474785","Longitude":"9.7075689","Name":"Rue 1.366"},{"Latitude":"3.8812846","Longitude":"11.5477505","Name":"Rue 1.367"},{"Latitude":"4.0441650","Longitude":"9.7100308","Name":"Rue 1.368"},{"Latitude":"3.8819542","Longitude":"11.5480390","Name":"Rue 1.369"},{"Latitude":"3.8872388","Longitude":"11.5392809","Name":"Rue 1.370"},{"Latitude":"3.8822328","Longitude":"11.5463886","Name":"Rue 1.371"},{"Latitude":"3.8856024","Longitude":"11.5374684","Name":"Rue 1.372"},{"Latitude":"3.8814458","Longitude":"11.5454968","Name":"Rue 1.373"},{"Latitude":"4.0492041","Longitude":"9.7070220","Name":"Rue 1.374"},{"Latitude":"3.8795642","Longitude":"11.5399305","Name":"Rue 1.375"},{"Latitude":"3.8754771","Longitude":"11.5367840","Name":"Rue 1.376"},{"Latitude":"4.0509152","Longitude":"9.7084346","Name":"Rue 1.376(Alias Nouvelle Rue Ngodi)"},{"Latitude":"3.8805219","Longitude":"11.5409625","Name":"Rue 1.377"},{"Latitude":"3.8729866","Longitude":"11.5384583","Name":"Rue 1.378"},{"Latitude":"3.8810522","Longitude":"11.5498684","Name":"Rue 1.379"},{"Latitude":"3.8733293","Longitude":"11.5315595","Name":"Rue 1.380"},{"Latitude":"3.8846624","Longitude":"11.5506964","Name":"Rue 1.381"},{"Latitude":"3.8773573","Longitude":"11.5321790","Name":"Rue 1.382"},{"Latitude":"3.8814268","Longitude":"11.5495254","Name":"Rue 1.383"},{"Latitude":"3.8757811","Longitude":"11.5318877","Name":"Rue 1.384"},{"Latitude":"3.8820288","Longitude":"11.5491838","Name":"Rue 1.385"},{"Latitude":"3.8758046","Longitude":"11.5322261","Name":"Rue 1.386"},{"Latitude":"3.8821978","Longitude":"11.5487082","Name":"Rue 1.387"},{"Latitude":"4.0498156","Longitude":"9.6994512","Name":"Rue 1.388"},{"Latitude":"3.8818954","Longitude":"11.5487243","Name":"Rue 1.389"},{"Latitude":"3.8772457","Longitude":"11.5339091","Name":"Rue 1.390"},{"Latitude":"3.8817656","Longitude":"11.5491548","Name":"Rue 1.391"},{"Latitude":"3.8785461","Longitude":"11.5351251","Name":"Rue 1.392"},{"Latitude":"4.0592735","Longitude":"9.7040485","Name":"Rue 1.393"},{"Latitude":"3.8772163","Longitude":"11.5385726","Name":"Rue 1.394"},{"Latitude":"3.8865765","Longitude":"11.5418852","Name":"Rue 1.395"},{"Latitude":"3.8782278","Longitude":"11.5385402","Name":"Rue 1.396"},{"Latitude":"3.8660019","Longitude":"11.5256456","Name":"Rue 1.397"},{"Latitude":"4.0502999","Longitude":"9.7001546","Name":"Rue 1.398"},{"Latitude":"3.8680815","Longitude":"11.5371301","Name":"Rue 1.399"},{"Latitude":"3.8786633","Longitude":"11.5361716","Name":"Rue 1.400"},{"Latitude":"3.8699403","Longitude":"11.5298878","Name":"Rue 1.401"},{"Latitude":"3.8793420","Longitude":"11.5366235","Name":"Rue 1.402"},{"Latitude":"3.8785329","Longitude":"11.5366718","Name":"Rue 1.403"},{"Latitude":"3.8824735","Longitude":"11.5502170","Name":"Rue 1.404"},{"Latitude":"4.0504574","Longitude":"9.6997714","Name":"Rue 1.405"},{"Latitude":"3.8830348","Longitude":"11.5503362","Name":"Rue 1.406"},{"Latitude":"3.8862320","Longitude":"11.5492395","Name":"Rue 1.407"},{"Latitude":"3.8845714","Longitude":"11.5513462","Name":"Rue 1.408"},{"Latitude":"3.8810132","Longitude":"11.5356183","Name":"Rue 1.409"},{"Latitude":"3.8862997","Longitude":"11.5461436","Name":"Rue 1.410"},{"Latitude":"3.8823366","Longitude":"11.5334818","Name":"Rue 1.411"},{"Latitude":"3.8857532","Longitude":"11.5465027","Name":"Rue 1.412"},{"Latitude":"3.8855836","Longitude":"11.5428644","Name":"Rue 1.413"},{"Latitude":"3.8851995","Longitude":"11.5468666","Name":"Rue 1.414"},{"Latitude":"3.8854833","Longitude":"11.5361818","Name":"Rue 1.415"},{"Latitude":"3.8845979","Longitude":"11.5444996","Name":"Rue 1.416"},{"Latitude":"3.8857644","Longitude":"11.5350947","Name":"Rue 1.417"},{"Latitude":"3.8838435","Longitude":"11.5433532","Name":"Rue 1.418"},{"Latitude":"3.8865102","Longitude":"11.5422813","Name":"Rue 1.419"},{"Latitude":"3.8821857","Longitude":"11.5453642","Name":"Rue 1.420"},{"Latitude":"3.8693881","Longitude":"11.5289062","Name":"Rue 1.421"},{"Latitude":"3.8827219","Longitude":"11.5370696","Name":"Rue 1.422"},{"Latitude":"3.8846856","Longitude":"11.5490689","Name":"Rue 1.423"},{"Latitude":"3.8816436","Longitude":"11.5407461","Name":"Rue 1.424"},{"Latitude":"3.8786364","Longitude":"11.5389840","Name":"Rue 1.425"},{"Latitude":"4.0596335","Longitude":"9.7027050","Name":"Rue 1.426"},{"Latitude":"3.8857807","Longitude":"11.5482050","Name":"Rue 1.427"},{"Latitude":"3.8805792","Longitude":"11.5365944","Name":"Rue 1.428"},{"Latitude":"3.8857532","Longitude":"11.5465027","Name":"Rue 1.429"},{"Latitude":"4.0507277","Longitude":"9.7158441","Name":"Rue 1.430"},{"Latitude":"3.8851689","Longitude":"11.5444114","Name":"Rue 1.431"},{"Latitude":"3.8817040","Longitude":"11.5341626","Name":"Rue 1.432"},{"Latitude":"3.8850670","Longitude":"11.5432715","Name":"Rue 1.433"},{"Latitude":"4.0564395","Longitude":"9.7105549","Name":"Rue 1.434"},{"Latitude":"3.8843774","Longitude":"11.5426867","Name":"Rue 1.435"},{"Latitude":"4.0571280","Longitude":"9.7098544","Name":"Rue 1.436"},{"Latitude":"4.0454904","Longitude":"9.7062584","Name":"Rue 1.437"},{"Latitude":"3.8829513","Longitude":"11.5353607","Name":"Rue 1.438"},{"Latitude":"4.0455190","Longitude":"9.7067120","Name":"Rue 1.439"},{"Latitude":"3.8833129","Longitude":"11.5357825","Name":"Rue 1.440"},{"Latitude":"4.0455437","Longitude":"9.7071727","Name":"Rue 1.441"},{"Latitude":"3.8845727","Longitude":"11.5367952","Name":"Rue 1.442"},{"Latitude":"4.0455739","Longitude":"9.7076173","Name":"Rue 1.443"},{"Latitude":"3.8849193","Longitude":"11.5368958","Name":"Rue 1.444"},{"Latitude":"4.0457395","Longitude":"9.7080577","Name":"Rue 1.445"},{"Latitude":"3.8856953","Longitude":"11.5364303","Name":"Rue 1.446"},{"Latitude":"4.0455861","Longitude":"9.7084989","Name":"Rue 1.447"},{"Latitude":"3.8769048","Longitude":"11.5396436","Name":"Rue 1.448"},{"Latitude":"3.8847346","Longitude":"11.5340869","Name":"Rue 1.449"},{"Latitude":"4.0441491","Longitude":"9.7094492","Name":"Rue 1.451"},{"Latitude":"3.8808142","Longitude":"11.5348879","Name":"Rue 1.452"},{"Latitude":"3.8848651","Longitude":"11.5326143","Name":"Rue 1.453"},{"Latitude":"3.8785154","Longitude":"11.5412787","Name":"Rue 1.454"},{"Latitude":"4.0441650","Longitude":"9.7100308","Name":"Rue 1.455"},{"Latitude":"3.8753679","Longitude":"11.5299234","Name":"Rue 1.456"},{"Latitude":"4.0429899","Longitude":"9.7105186","Name":"Rue 1.457"},{"Latitude":"4.0512429","Longitude":"9.7057615","Name":"Rue 1.465"},{"Latitude":"4.0521507","Longitude":"9.7054975","Name":"Rue 1.467"},{"Latitude":"4.0421568","Longitude":"9.7109899","Name":"Rue 1.489"},{"Latitude":"4.0436692","Longitude":"9.7121150","Name":"Rue 1.491"},{"Latitude":"4.0418800","Longitude":"9.7121608","Name":"Rue 1.493"},{"Latitude":"3.8866613","Longitude":"11.5341586","Name":"Rue 1.500"},{"Latitude":"3.8876447","Longitude":"11.5383208","Name":"Rue 1.501"},{"Latitude":"3.8881368","Longitude":"11.5372116","Name":"Rue 1.502"},{"Latitude":"3.9024619","Longitude":"11.5409768","Name":"Rue 1.503"},{"Latitude":"3.8884471","Longitude":"11.5359787","Name":"Rue 1.504"},{"Latitude":"3.8890283","Longitude":"11.5356163","Name":"Rue 1.506"},{"Latitude":"3.8949758","Longitude":"11.5306543","Name":"Rue 1.507"},{"Latitude":"3.8901944","Longitude":"11.5385151","Name":"Rue 1.508"},{"Latitude":"3.8933168","Longitude":"11.5316849","Name":"Rue 1.509"},{"Latitude":"3.8882167","Longitude":"11.5424772","Name":"Rue 1.510"},{"Latitude":"3.8931357","Longitude":"11.5321307","Name":"Rue 1.511"},{"Latitude":"3.8891020","Longitude":"11.5430642","Name":"Rue 1.512"},{"Latitude":"3.8929269","Longitude":"11.5325771","Name":"Rue 1.513"},{"Latitude":"3.8891744","Longitude":"11.5414863","Name":"Rue 1.514"},{"Latitude":"3.8946071","Longitude":"11.5339998","Name":"Rue 1.515"},{"Latitude":"3.8899931","Longitude":"11.5423164","Name":"Rue 1.516"},{"Latitude":"3.8982918","Longitude":"11.5324755","Name":"Rue 1.517"},{"Latitude":"3.8919335","Longitude":"11.5446754","Name":"Rue 1.518"},{"Latitude":"3.8973520","Longitude":"11.5323762","Name":"Rue 1.519"},{"Latitude":"3.8899074","Longitude":"11.5351866","Name":"Rue 1.520"},{"Latitude":"3.8968725","Longitude":"11.5325821","Name":"Rue 1.521"},{"Latitude":"3.8906937","Longitude":"11.5454839","Name":"Rue 1.522"},{"Latitude":"3.8972598","Longitude":"11.5334518","Name":"Rue 1.523"},{"Latitude":"3.8918561","Longitude":"11.5463978","Name":"Rue 1.524"},{"Latitude":"3.8963056","Longitude":"11.5333150","Name":"Rue 1.525"},{"Latitude":"3.8933168","Longitude":"11.5316849","Name":"Rue 1.526"},{"Latitude":"3.8960126","Longitude":"11.5336946","Name":"Rue 1.527"},{"Latitude":"3.8939140","Longitude":"11.5324602","Name":"Rue 1.528"},{"Latitude":"3.8964357","Longitude":"11.5345826","Name":"Rue 1.529"},{"Latitude":"3.8948223","Longitude":"11.5324077","Name":"Rue 1.530"},{"Latitude":"3.8877752","Longitude":"11.5344550","Name":"Rue 1.531"},{"Latitude":"3.8947795","Longitude":"11.5330564","Name":"Rue 1.532"},{"Latitude":"3.8967613","Longitude":"11.5352895","Name":"Rue 1.533"},{"Latitude":"3.8956158","Longitude":"11.5326935","Name":"Rue 1.534"},{"Latitude":"3.8964476","Longitude":"11.5312235","Name":"Rue 1.534/40"},{"Latitude":"3.9017953","Longitude":"11.5348787","Name":"Rue 1.535"},{"Latitude":"3.8959218","Longitude":"11.5330696","Name":"Rue 1.536"},{"Latitude":"3.9010253","Longitude":"11.5349560","Name":"Rue 1.537"},{"Latitude":"3.8960126","Longitude":"11.5336946","Name":"Rue 1.538"},{"Latitude":"3.9024431","Longitude":"11.5363698","Name":"Rue 1.539"},{"Latitude":"3.8878489","Longitude":"11.5361267","Name":"Rue 1.540"},{"Latitude":"3.8884918","Longitude":"11.5319163","Name":"Rue 1.541"},{"Latitude":"3.8979430","Longitude":"11.5336300","Name":"Rue 1.542"},{"Latitude":"3.9045315","Longitude":"11.5365663","Name":"Rue 1.543"},{"Latitude":"3.8986130","Longitude":"11.5335776","Name":"Rue 1.544"},{"Latitude":"3.9044261","Longitude":"11.5344845","Name":"Rue 1.545"},{"Latitude":"3.8988869","Longitude":"11.5349177","Name":"Rue 1.546"},{"Latitude":"3.9055277","Longitude":"11.5344916","Name":"Rue 1.547"},{"Latitude":"3.8997518","Longitude":"11.5335638","Name":"Rue 1.548"},{"Latitude":"3.9056828","Longitude":"11.5349641","Name":"Rue 1.549"},{"Latitude":"3.8994340","Longitude":"11.5351845","Name":"Rue 1.550"},{"Latitude":"3.9070234","Longitude":"11.5322136","Name":"Rue 1.551"},{"Latitude":"3.9010343","Longitude":"11.5355437","Name":"Rue 1.552"},{"Latitude":"3.9088984","Longitude":"11.5289362","Name":"Rue 1.553"},{"Latitude":"3.9019340","Longitude":"11.5340559","Name":"Rue 1.554"},{"Latitude":"3.9104960","Longitude":"11.5287046","Name":"Rue 1.555"},{"Latitude":"3.9045547","Longitude":"11.5350900","Name":"Rue 1.556"},{"Latitude":"3.9083959","Longitude":"11.5302037","Name":"Rue 1.557"},{"Latitude":"3.9071140","Longitude":"11.5328439","Name":"Rue 1.558"},{"Latitude":"3.9087450","Longitude":"11.5305132","Name":"Rue 1.559"},{"Latitude":"3.9077727","Longitude":"11.5338930","Name":"Rue 1.560"},{"Latitude":"3.9092495","Longitude":"11.5307126","Name":"Rue 1.561"},{"Latitude":"3.8910598","Longitude":"11.5372730","Name":"Rue 1.562"},{"Latitude":"3.9098457","Longitude":"11.5308242","Name":"Rue 1.563"},{"Latitude":"3.9048597","Longitude":"11.5437205","Name":"Rue 1.564"},{"Latitude":"3.9102767","Longitude":"11.5310970","Name":"Rue 1.565"},{"Latitude":"3.9079442","Longitude":"11.5319164","Name":"Rue 1.566"},{"Latitude":"3.9103005","Longitude":"11.5316767","Name":"Rue 1.567"},{"Latitude":"3.9084768","Longitude":"11.5324175","Name":"Rue 1.568"},{"Latitude":"3.9059313","Longitude":"11.5353327","Name":"Rue 1.569"},{"Latitude":"3.9046783","Longitude":"11.5286078","Name":"Rue 1.570"},{"Latitude":"3.9099480","Longitude":"11.5365189","Name":"Rue 1.571"},{"Latitude":"3.9036347","Longitude":"11.5271785","Name":"Rue 1.572"},{"Latitude":"3.8890018","Longitude":"11.5336142","Name":"Rue 1.573"},{"Latitude":"3.9057721","Longitude":"11.5280841","Name":"Rue 1.574"},{"Latitude":"3.8895526","Longitude":"11.5336199","Name":"Rue 1.575"},{"Latitude":"3.9084915","Longitude":"11.5307077","Name":"Rue 1.576"},{"Latitude":"3.8883126","Longitude":"11.5345610","Name":"Rue 1.577"},{"Latitude":"3.9096680","Longitude":"11.5303684","Name":"Rue 1.578"},{"Latitude":"3.8882195","Longitude":"11.5373824","Name":"Rue 1.579"},{"Latitude":"3.9074252","Longitude":"11.5267302","Name":"Rue 1.580"},{"Latitude":"3.8890486","Longitude":"11.5389133","Name":"Rue 1.581"},{"Latitude":"3.9108456","Longitude":"11.5347938","Name":"Rue 1.582"},{"Latitude":"3.8892941","Longitude":"11.5433207","Name":"Rue 1.583"},{"Latitude":"3.8935391","Longitude":"11.5451001","Name":"Rue 1.584"},{"Latitude":"3.8902726","Longitude":"11.5390235","Name":"Rue 1.585"},{"Latitude":"3.8943981","Longitude":"11.5435061","Name":"Rue 1.586"},{"Latitude":"3.8893181","Longitude":"11.5400836","Name":"Rue 1.587"},{"Latitude":"3.8953781","Longitude":"11.5442989","Name":"Rue 1.588"},{"Latitude":"3.8889716","Longitude":"11.5410947","Name":"Rue 1.589"},{"Latitude":"3.8959878","Longitude":"11.5440994","Name":"Rue 1.590"},{"Latitude":"3.8904050","Longitude":"11.5417059","Name":"Rue 1.591"},{"Latitude":"3.8972268","Longitude":"11.5451132","Name":"Rue 1.592"},{"Latitude":"3.8894496","Longitude":"11.5423719","Name":"Rue 1.593"},{"Latitude":"3.8967557","Longitude":"11.5415999","Name":"Rue 1.594"},{"Latitude":"3.8889133","Longitude":"11.5424844","Name":"Rue 1.595"},{"Latitude":"3.8984707","Longitude":"11.5436045","Name":"Rue 1.596"},{"Latitude":"3.8926761","Longitude":"11.5457659","Name":"Rue 1.597"},{"Latitude":"3.8992331","Longitude":"11.5432882","Name":"Rue 1.598"},{"Latitude":"3.8913463","Longitude":"11.5445783","Name":"Rue 1.599"},{"Latitude":"3.8991852","Longitude":"11.5409330","Name":"Rue 1.600"},{"Latitude":"3.8910273","Longitude":"11.5450546","Name":"Rue 1.601"},{"Latitude":"3.9007715","Longitude":"11.5430939","Name":"Rue 1.602"},{"Latitude":"3.8920028","Longitude":"11.5465096","Name":"Rue 1.603"},{"Latitude":"3.8873936","Longitude":"11.5371249","Name":"Rue 1.604"},{"Latitude":"3.8894615","Longitude":"11.5408872","Name":"Rue 1.606"},{"Latitude":"3.8928029","Longitude":"11.5431762","Name":"Rue 1.607"},{"Latitude":"3.8966229","Longitude":"11.5398438","Name":"Rue 1.608"},{"Latitude":"3.8927520","Longitude":"11.5452781","Name":"Rue 1.609"},{"Latitude":"3.9006687","Longitude":"11.5411378","Name":"Rue 1.610"},{"Latitude":"3.8935907","Longitude":"11.5460927","Name":"Rue 1.611"},{"Latitude":"3.9008684","Longitude":"11.5402067","Name":"Rue 1.612"},{"Latitude":"3.8946610","Longitude":"11.5463097","Name":"Rue 1.613"},{"Latitude":"3.9049352","Longitude":"11.5430446","Name":"Rue 1.614"},{"Latitude":"3.8928746","Longitude":"11.5422869","Name":"Rue 1.615"},{"Latitude":"3.9105125","Longitude":"11.5354281","Name":"Rue 1.616"},{"Latitude":"3.8967221","Longitude":"11.5373462","Name":"Rue 1.617"},{"Latitude":"3.8906919","Longitude":"11.5285784","Name":"Rue 1.618"},{"Latitude":"3.8985958","Longitude":"11.5431299","Name":"Rue 1.619"},{"Latitude":"3.8988496","Longitude":"11.5469868","Name":"Rue 1.621"},{"Latitude":"3.8886029","Longitude":"11.5418042","Name":"Rue 1.622"},{"Latitude":"3.8890423","Longitude":"11.5440744","Name":"Rue 1.623"},{"Latitude":"3.8904050","Longitude":"11.5417059","Name":"Rue 1.624"},{"Latitude":"3.8916191","Longitude":"11.5428132","Name":"Rue 1.625"},{"Latitude":"3.8930150","Longitude":"11.5451376","Name":"Rue 1.626"},{"Latitude":"3.8933289","Longitude":"11.5399257","Name":"Rue 1.627"},{"Latitude":"3.8991655","Longitude":"11.5389963","Name":"Rue 1.628"},{"Latitude":"3.8956914","Longitude":"11.5390037","Name":"Rue 1.629"},{"Latitude":"3.8992597","Longitude":"11.5388030","Name":"Rue 1.630"},{"Latitude":"3.8956550","Longitude":"11.5465098","Name":"Rue 1.631"},{"Latitude":"3.9007144","Longitude":"11.5389782","Name":"Rue 1.632"},{"Latitude":"3.8931836","Longitude":"11.5440298","Name":"Rue 1.633"},{"Latitude":"3.9015394","Longitude":"11.5394647","Name":"Rue 1.634"},{"Latitude":"3.8953995","Longitude":"11.5480643","Name":"Rue 1.635"},{"Latitude":"3.9007817","Longitude":"11.5460908","Name":"Rue 1.636"},{"Latitude":"3.8954990","Longitude":"11.5408111","Name":"Rue 1.637"},{"Latitude":"3.9015235","Longitude":"11.5427482","Name":"Rue 1.638"},{"Latitude":"3.8954042","Longitude":"11.5398192","Name":"Rue 1.639"},{"Latitude":"3.9034484","Longitude":"11.5416229","Name":"Rue 1.640"},{"Latitude":"3.8954987","Longitude":"11.5486946","Name":"Rue 1.641"},{"Latitude":"3.8969631","Longitude":"11.5390463","Name":"Rue 1.643"},{"Latitude":"3.9059714","Longitude":"11.5391424","Name":"Rue 1.644"},{"Latitude":"3.8987449","Longitude":"11.5390661","Name":"Rue 1.645"},{"Latitude":"3.9043238","Longitude":"11.5374852","Name":"Rue 1.646"},{"Latitude":"3.9015883","Longitude":"11.5441191","Name":"Rue 1.647"},{"Latitude":"3.9043739","Longitude":"11.5400071","Name":"Rue 1.648"},{"Latitude":"3.9005316","Longitude":"11.5403931","Name":"Rue 1.649"},{"Latitude":"3.9049959","Longitude":"11.5412590","Name":"Rue 1.650"},{"Latitude":"3.8979572","Longitude":"11.5448521","Name":"Rue 1.651"},{"Latitude":"3.9002479","Longitude":"11.5300104","Name":"Rue 1.652"},{"Latitude":"3.8971115","Longitude":"11.5396100","Name":"Rue 1.653"},{"Latitude":"3.9010677","Longitude":"11.5292394","Name":"Rue 1.654"},{"Latitude":"3.9011901","Longitude":"11.5390789","Name":"Rue 1.655"},{"Latitude":"3.9009023","Longitude":"11.5316644","Name":"Rue 1.656"},{"Latitude":"3.9066298","Longitude":"11.5401623","Name":"Rue 1.657"},{"Latitude":"3.9011164","Longitude":"11.5325290","Name":"Rue 1.658"},{"Latitude":"3.9068940","Longitude":"11.5419338","Name":"Rue 1.659"},{"Latitude":"3.9020396","Longitude":"11.5330629","Name":"Rue 1.660"},{"Latitude":"3.8898220","Longitude":"11.5307034","Name":"Rue 1.661"},{"Latitude":"3.8992465","Longitude":"11.5312143","Name":"Rue 1.662"},{"Latitude":"3.8979078","Longitude":"11.5308167","Name":"Rue 1.663"},{"Latitude":"3.9027251","Longitude":"11.5317946","Name":"Rue 1.664"},{"Latitude":"3.8999553","Longitude":"11.5312722","Name":"Rue 1.665"},{"Latitude":"3.9020044","Longitude":"11.5293613","Name":"Rue 1.666"},{"Latitude":"3.9101835","Longitude":"11.5359329","Name":"Rue 1.667"},{"Latitude":"3.8882510","Longitude":"11.5387291","Name":"Rue 1.669"},{"Latitude":"3.8919244","Longitude":"11.5402101","Name":"Rue 1.671"},{"Latitude":"3.8987096","Longitude":"11.5306201","Name":"Rue 1.672"},{"Latitude":"3.8881373","Longitude":"11.5324835","Name":"Rue 1.673"},{"Latitude":"3.8989337","Longitude":"11.5292501","Name":"Rue 1.674"},{"Latitude":"3.9088589","Longitude":"11.5266564","Name":"Rue 1.675"},{"Latitude":"3.8982427","Longitude":"11.5311867","Name":"Rue 1.676"},{"Latitude":"3.9069502","Longitude":"11.5252462","Name":"Rue 1.677"},{"Latitude":"3.8977086","Longitude":"11.5300377","Name":"Rue 1.678"},{"Latitude":"3.8992989","Longitude":"11.5448619","Name":"Rue 1.679"},{"Latitude":"3.8953228","Longitude":"11.5324872","Name":"Rue 1.680"},{"Latitude":"3.8992348","Longitude":"11.5411067","Name":"Rue 1.681"},{"Latitude":"3.8935225","Longitude":"11.5312079","Name":"Rue 1.682"},{"Latitude":"3.9009786","Longitude":"11.5387348","Name":"Rue 1.683"},{"Latitude":"3.8937227","Longitude":"11.5307501","Name":"Rue 1.684"},{"Latitude":"3.9013216","Longitude":"11.5404462","Name":"Rue 1.685"},{"Latitude":"3.8913099","Longitude":"11.5300391","Name":"Rue 1.686"},{"Latitude":"3.9009179","Longitude":"11.5443677","Name":"Rue 1.687"},{"Latitude":"3.8915557","Longitude":"11.5289272","Name":"Rue 1.688"},{"Latitude":"3.9011366","Longitude":"11.5435946","Name":"Rue 1.689"},{"Latitude":"3.8921091","Longitude":"11.5293453","Name":"Rue 1.690"},{"Latitude":"3.9026329","Longitude":"11.5439045","Name":"Rue 1.691"},{"Latitude":"3.9032365","Longitude":"11.5434930","Name":"Rue 1.693"},{"Latitude":"3.9037150","Longitude":"11.5429355","Name":"Rue 1.695"},{"Latitude":"3.8941747","Longitude":"11.5288379","Name":"Rue 1.696"},{"Latitude":"3.9033945","Longitude":"11.5418676","Name":"Rue 1.697"},{"Latitude":"3.8955505","Longitude":"11.5290657","Name":"Rue 1.698"},{"Latitude":"3.9065823","Longitude":"11.5366371","Name":"Rue 1.699"},{"Latitude":"3.8962904","Longitude":"11.5294868","Name":"Rue 1.700"},{"Latitude":"3.9044749","Longitude":"11.5386748","Name":"Rue 1.701"},{"Latitude":"3.8964510","Longitude":"11.5298550","Name":"Rue 1.702"},{"Latitude":"3.8924162","Longitude":"11.5375717","Name":"Rue 1.703"},{"Latitude":"4.0572643","Longitude":"9.7146579","Name":"Rue 1.704"},{"Latitude":"3.8895398","Longitude":"11.5292571","Name":"Rue 1.705"},{"Latitude":"3.9029259","Longitude":"11.5349877","Name":"Rue 1.706"},{"Latitude":"3.8899114","Longitude":"11.5281746","Name":"Rue 1.707"},{"Latitude":"3.9033846","Longitude":"11.5346103","Name":"Rue 1.708"},{"Latitude":"3.8985483","Longitude":"11.5282618","Name":"Rue 1.709"},{"Latitude":"3.9038044","Longitude":"11.5329244","Name":"Rue 1.710"},{"Latitude":"3.9019602","Longitude":"11.5312584","Name":"Rue 1.711"},{"Latitude":"3.9043830","Longitude":"11.5331587","Name":"Rue 1.712"},{"Latitude":"3.9047692","Longitude":"11.5313423","Name":"Rue 1.713"},{"Latitude":"3.9045947","Longitude":"11.5327642","Name":"Rue 1.714"},{"Latitude":"3.9051333","Longitude":"11.5285403","Name":"Rue 1.715"},{"Latitude":"3.9049359","Longitude":"11.5323897","Name":"Rue 1.716"},{"Latitude":"3.9052965","Longitude":"11.5283677","Name":"Rue 1.717"},{"Latitude":"3.9053159","Longitude":"11.5311961","Name":"Rue 1.719"},{"Latitude":"3.9059313","Longitude":"11.5353327","Name":"Rue 1.720"},{"Latitude":"3.9113810","Longitude":"11.5299355","Name":"Rue 1.721"},{"Latitude":"3.9057503","Longitude":"11.5359722","Name":"Rue 1.722"},{"Latitude":"4.0677790","Longitude":"9.7150910","Name":"Rue 1.723"},{"Latitude":"3.9063726","Longitude":"11.5363405","Name":"Rue 1.724"},{"Latitude":"3.9100871","Longitude":"11.5327209","Name":"Rue 1.725"},