[{"Latitude":"5.7694395","Longitude":"-55.2239214","Name":"\"Roepie\" Rudolf Buitenweg"},{"Latitude":"5.7018936","Longitude":"-55.1120404","Name":"1e zijstraat"},{"Latitude":"5.7026965","Longitude":"-55.1114418","Name":"2e zijstraat"},{"Latitude":"5.7042151","Longitude":"-55.1117400","Name":"3e zijstraat"},{"Latitude":"5.7587535","Longitude":"-55.1854331","Name":"4e Dwarsweg"},{"Latitude":"5.7050829","Longitude":"-55.1110371","Name":"4e zijstraat"},{"Latitude":"5.7059874","Longitude":"-55.1104261","Name":"5e zijstraat"},{"Latitude":"5.7075341","Longitude":"-55.1106053","Name":"6e zijstraat"},{"Latitude":"5.9332415","Longitude":"-56.9918778","Name":"A. A. Girjasinghweg"},{"Latitude":"5.8435932","Longitude":"-55.1324742","Name":"A. Flemingstraat"},{"Latitude":"5.8258004","Longitude":"-55.2020529","Name":"A. Joerawanstraat"},{"Latitude":"5.9429651","Longitude":"-56.9925475","Name":"A. K. Doergasawstraat"},{"Latitude":"5.7834254","Longitude":"-55.0466063","Name":"A. Ombreweg"},{"Latitude":"5.8246133","Longitude":"-55.2357245","Name":"A. Sieuwpersadlaan"},{"Latitude":"5.8413732","Longitude":"-55.1272975","Name":"A. Taylorstraat"},{"Latitude":"5.8423081","Longitude":"-55.1274174","Name":"A. Voltastraat"},{"Latitude":"5.8242357","Longitude":"-55.1923946","Name":"A.G. Ellislaan"},{"Latitude":"5.8222289","Longitude":"-55.1659136","Name":"A.L. Waaldijkstraat"},{"Latitude":"5.8838459","Longitude":"-55.0927233","Name":"Aalseweg"},{"Latitude":"5.7143631","Longitude":"-55.1622903","Name":"Abachisweg"},{"Latitude":"5.8428308","Longitude":"-55.2187828","Name":"Abadoestraat"},{"Latitude":"5.7146176","Longitude":"-55.1615277","Name":"Abarcostraat"},{"Latitude":"5.8096126","Longitude":"-55.1695704","Name":"Abattoirweg"},{"Latitude":"5.8493642","Longitude":"-55.1737845","Name":"Abdoel Azizweg"},{"Latitude":"5.7782198","Longitude":"-55.1865173","Name":"Abdoel Saltan Sheikrojanweg"},{"Latitude":"5.8383936","Longitude":"-55.2347240","Name":"Abdoelaminweg"},{"Latitude":"5.8431498","Longitude":"-55.1235424","Name":"Abdoella Allabaksweg"},{"Latitude":"5.7957538","Longitude":"-55.1853347","Name":"Abdoelsakoerweg"},{"Latitude":"5.8306030","Longitude":"-55.2109134","Name":"Abdoelstraat"},{"Latitude":"5.8336749","Longitude":"-55.1610889","Name":"Abdool Karimsteeg"},{"Latitude":"5.9534352","Longitude":"-57.0497544","Name":"Abdulghani Madharweg"},{"Latitude":"5.8461325","Longitude":"-55.1828612","Name":"Abenistraat"},{"Latitude":"5.8072046","Longitude":"-55.1958496","Name":"Abiastraat"},{"Latitude":"5.8430306","Longitude":"-55.1189560","Name":"Abieb Chandaweg"},{"Latitude":"5.7714103","Longitude":"-55.2033332","Name":"Abigaelslustweg"},{"Latitude":"5.8480665","Longitude":"-55.1222060","Name":"Aboenawrokostraat"},{"Latitude":"5.7900327","Longitude":"-55.1838872","Name":"Abomastraat"},{"Latitude":"5.8563574","Longitude":"-55.1240045","Name":"Abonestraat"},{"Latitude":"5.8068543","Longitude":"-55.1976004","Name":"Abongrastraat"},{"Latitude":"5.8255318","Longitude":"-55.1499151","Name":"Abraham Crijnssenweg"},{"Latitude":"5.5961969","Longitude":"-55.1978760","Name":"Abraham L Gravenbeekstraat"},{"Latitude":"5.8374951","Longitude":"-55.1811692","Name":"Abraham P.H. Samsonstraat"},{"Latitude":"5.8485681","Longitude":"-55.1181291","Name":"Abramstraat"},{"Latitude":"5.8063580","Longitude":"-55.1976407","Name":"Abrasastraat"},{"Latitude":"5.7893934","Longitude":"-55.1923752","Name":"Abroeaweg"},{"Latitude":"5.8176842","Longitude":"-55.1850369","Name":"Acaciastraat"},{"Latitude":"5.8526629","Longitude":"-55.0867682","Name":"Acaipalmlaan"},{"Latitude":"5.8209117","Longitude":"-55.1918920","Name":"Accaribostraat"},{"Latitude":"5.0164561","Longitude":"-55.1732568","Name":"Accraweg"},{"Latitude":"5.8590002","Longitude":"-55.1416520","Name":"Acetyleenstraat"},{"Latitude":"5.8500897","Longitude":"-55.2220908","Name":"Achadalaan"},{"Latitude":"5.8037108","Longitude":"-55.2068160","Name":"Acharweg"},{"Latitude":"5.8410161","Longitude":"-55.1466115","Name":"Achillesstraat"},{"Latitude":"5.8284902","Longitude":"-55.1733702","Name":"Achtersteeg"},{"Latitude":"5.8405986","Longitude":"-55.2176874","Name":"Achthovenstraat"},{"Latitude":"5.9376128","Longitude":"-56.9877085","Name":"Acornistraat"},{"Latitude":"5.8403610","Longitude":"-55.1805801","Name":"Adanwaistraat"},{"Latitude":"5.7970880","Longitude":"-55.1822966","Name":"Adhienweg"},{"Latitude":"5.0155782","Longitude":"-55.1695513","Name":"Adinsaweg"},{"Latitude":"5.8531939","Longitude":"-55.1216390","Name":"Adjakastraat"},{"Latitude":"5.8419844","Longitude":"-55.1818351","Name":"Adjoebastraat"},{"Latitude":"5.8520277","Longitude":"-55.1263289","Name":"Adoestraat"},{"Latitude":"5.5050817","Longitude":"-55.2067020","Name":"Adolf Elias Cairoweg"},{"Latitude":"5.8278375","Longitude":"-55.2378258","Name":"Adolfstraat"},{"Latitude":"5.8385266","Longitude":"-55.1287141","Name":"Adonisstraat"},{"Latitude":"5.8507824","Longitude":"-55.1249568","Name":"Adraistraat"},{"Latitude":"5.8527934","Longitude":"-55.1486334","Name":"Adriaan van Ostadestraat"},{"Latitude":"5.8150325","Longitude":"-55.1693293","Name":"Adrianusstraat"},{"Latitude":"5.8215820","Longitude":"-55.1905737","Name":"Adrichemstraat"},{"Latitude":"5.6836780","Longitude":"-55.0697560","Name":"Adrichemweg"},{"Latitude":"5.8059623","Longitude":"-55.1987737","Name":"Adroestraat"},{"Latitude":"5.7211327","Longitude":"-55.1221386","Name":"Adventurijnstraat"},{"Latitude":"5.8584941","Longitude":"-55.1038726","Name":"Advocaatstraat"},{"Latitude":"5.8215417","Longitude":"-55.1709895","Name":"Afi Jabbastraat"},{"Latitude":"5.8441186","Longitude":"-55.1821114","Name":"Afistraat"},{"Latitude":"5.6158450","Longitude":"-55.0985547","Name":"Afobakaweg"},{"Latitude":"5.8231412","Longitude":"-55.1898725","Name":"Afobakkalaan"},{"Latitude":"5.8502158","Longitude":"-55.1399441","Name":"Agaatstraat"},{"Latitude":"5.8579623","Longitude":"-55.2866983","Name":"Agamemnonweg"},{"Latitude":"5.8580219","Longitude":"-55.1271221","Name":"Agamoestraat"},{"Latitude":"5.7939529","Longitude":"-55.2059225","Name":"Agenoriaweg"},{"Latitude":"5.8220474","Longitude":"-55.1964470","Name":"Agilalaan"},{"Latitude":"5.8062713","Longitude":"-55.2024566","Name":"Agoemastraat"},{"Latitude":"5.7909187","Longitude":"-55.1864829","Name":"Agoetistraat"},{"Latitude":"5.8514202","Longitude":"-55.1231073","Name":"Agosoestraat"},{"Latitude":"5.8420402","Longitude":"-55.2201976","Name":"Agraweg"},{"Latitude":"5.7475754","Longitude":"-55.1457526","Name":"Agstantilaan"},{"Latitude":"5.8494086","Longitude":"-55.2640986","Name":"Ahamadabadweg"},{"Latitude":"5.8606477","Longitude":"-55.1648093","Name":"Ahinsaweg"},{"Latitude":"5.7937618","Longitude":"-55.1956865","Name":"Ahmatweg"},{"Latitude":"5.8428698","Longitude":"-55.1384773","Name":"Aidastraat"},{"Latitude":"5.7930946","Longitude":"-55.1874949","Name":"Aikmanstraat"},{"Latitude":"5.6389268","Longitude":"-55.0753803","Name":"Ainoel Alibaksweg"},{"Latitude":"5.7908843","Longitude":"-55.1841687","Name":"Airastraat"},{"Latitude":"5.7894248","Longitude":"-55.1929244","Name":"Aitnochweg"},{"Latitude":"5.8064927","Longitude":"-55.2034899","Name":"Ajawastraat"},{"Latitude":"5.8537512","Longitude":"-55.2601149","Name":"Ajmerweg"},{"Latitude":"5.8525163","Longitude":"-55.1170017","Name":"Ajoekoemierstraat"},{"Latitude":"5.8055282","Longitude":"-55.1993358","Name":"Akajastraat"},{"Latitude":"5.7829681","Longitude":"-55.1863173","Name":"Akaraistraat"},{"Latitude":"5.8067569","Longitude":"-55.2029918","Name":"Akawaristraat"},{"Latitude":"5.8222682","Longitude":"-55.2214989","Name":"Akawkondrestraat"},{"Latitude":"5.7685742","Longitude":"-55.1943900","Name":"Akhbarbadsahweg"},{"Latitude":"5.8066475","Longitude":"-55.1999360","Name":"Akirastraat"},{"Latitude":"5.7889210","Longitude":"-55.1933925","Name":"Akkerboomweg"},{"Latitude":"5.8071314","Longitude":"-55.2301006","Name":"Akkerstrook"},{"Latitude":"5.8414394","Longitude":"-55.1803915","Name":"Akoebastraat"},{"Latitude":"5.8566474","Longitude":"-55.1589844","Name":"Akoemoeweg"},{"Latitude":"5.8531954","Longitude":"-55.1207814","Name":"Akoosoedraistraat"},{"Latitude":"5.5891618","Longitude":"-55.1937405","Name":"Akrumstraat"},{"Latitude":"5.8422217","Longitude":"-55.2459203","Name":"Alakhramsingweg"},{"Latitude":"5.8242983","Longitude":"-55.2075381","Name":"Alalaparoestraat"},{"Latitude":"5.8215220","Longitude":"-55.1801493","Name":"Alamoestraat"},{"Latitude":"5.8577936","Longitude":"-55.1573484","Name":"Alampiaweg"},{"Latitude":"5.8582316","Longitude":"-55.1124192","Name":"Albatrosstraat"},{"Latitude":"5.8309627","Longitude":"-55.1820567","Name":"Albergastraat"},{"Latitude":"5.8684388","Longitude":"-55.1305270","Name":"Albert B. Prinsstraat"},{"Latitude":"5.8547451","Longitude":"-55.1478111","Name":"Albert Cuypstraat"},{"Latitude":"5.8429581","Longitude":"-55.1284804","Name":"Albert Einsteinstraat"},{"Latitude":"5.8837616","Longitude":"-57.1396596","Name":"Albert Street"},{"Latitude":"5.8746664","Longitude":"-55.1317342","Name":"Albertina Rijsselstraat"},{"Latitude":"5.8755995","Longitude":"-55.1278902","Name":"Albertine Putcherstraat"},{"Latitude":"5.8183997","Longitude":"-55.2006760","Name":"Albertlaan"},{"Latitude":"5.7891391","Longitude":"-55.1939457","Name":"Albionweg"},{"Latitude":"5.8568823","Longitude":"-55.1469185","Name":"Albrecht Dürerstraat"},{"Latitude":"5.8178103","Longitude":"-55.2176187","Name":"Alesikondrestraat"},{"Latitude":"5.8409214","Longitude":"-55.2530578","Name":"Alex De Driestraat"},{"Latitude":"5.8367013","Longitude":"-55.1488431","Name":"Alexander Samuelsstraat"},{"Latitude":"5.8326617","Longitude":"-55.1709903","Name":"Alexanderstraat"},{"Latitude":"5.5733244","Longitude":"-55.1946764","Name":"Alexandriena Gronweg"},{"Latitude":"5.8194158","Longitude":"-55.1776505","Name":"Alexandrinastraat"},{"Latitude":"5.7933748","Longitude":"-55.1951678","Name":"Algoeweg"},{"Latitude":"5.7707327","Longitude":"-55.1561409","Name":"Alibaksweg"},{"Latitude":"5.8532602","Longitude":"-55.2660693","Name":"Alibutsweg"},{"Latitude":"5.8037151","Longitude":"-55.2595022","Name":"Alicestraat"},{"Latitude":"5.7825490","Longitude":"-55.1910104","Name":"Alidaweg"},{"Latitude":"5.7942630","Longitude":"-55.1923038","Name":"Alihoeseinweg"},{"Latitude":"5.8539727","Longitude":"-55.1274635","Name":"Alitostraat"},{"Latitude":"5.7944440","Longitude":"-55.1864597","Name":"Aliweg"},{"Latitude":"5.7887975","Longitude":"-55.1943487","Name":"Alkmaarweg"},{"Latitude":"5.8428686","Longitude":"-55.2247774","Name":"Allahabadhweg"},{"Latitude":"5.8403080","Longitude":"-55.2951993","Name":"Allata peppreweg"},{"Latitude":"5.8291407","Longitude":"-55.2194863","Name":"Allendestraat"},{"Latitude":"5.4845145","Longitude":"-54.0283966","Name":"Allée Jean de la Fontaine"},{"Latitude":"5.4808881","Longitude":"-54.0298437","Name":"Allée Paul Claudel"},{"Latitude":"5.4751515","Longitude":"-54.0349590","Name":"Allée du Lac Bleu"},{"Latitude":"5.8552695","Longitude":"-55.1239558","Name":"Aloeboetoedrai"},{"Latitude":"5.9364650","Longitude":"-56.9972228","Name":"Aloepistraat"},{"Latitude":"5.8067183","Longitude":"-55.2006984","Name":"Aloestraat"},{"Latitude":"5.7825640","Longitude":"-55.0494384","Name":"Alpenasterweg"},{"Latitude":"5.7851959","Longitude":"-55.0542465","Name":"Alpenroosweg"},{"Latitude":"5.8234255","Longitude":"-55.2205062","Name":"Altagraciastraat"},{"Latitude":"5.8173146","Longitude":"-55.1933491","Name":"Altonalaan"},{"Latitude":"5.8546057","Longitude":"-55.1380241","Name":"Aluminiumstraat"},{"Latitude":"5.5790732","Longitude":"-55.1870914","Name":"Alwin Piquestraat"},{"Latitude":"5.8542926","Longitude":"-55.1252915","Name":"Amaktistraat"},{"Latitude":"5.7303773","Longitude":"-55.2183262","Name":"Amalia Ramenstraat"},{"Latitude":"5.8555996","Longitude":"-55.2181559","Name":"Amaltheastraat"},{"Latitude":"5.7906785","Longitude":"-55.1881397","Name":"Amandasteeg"},{"Latitude":"5.8662170","Longitude":"-55.1613664","Name":"Amandelnootweg"},{"Latitude":"5.9345089","Longitude":"-56.9831205","Name":"Amandrastraat"},{"Latitude":"5.8509164","Longitude":"-55.2512447","Name":"Amarnath Weg"},{"Latitude":"5.7975855","Longitude":"-55.1501855","Name":"Amaryllisweg"},{"Latitude":"5.8438195","Longitude":"-55.1478274","Name":"Amatstraat"},{"Latitude":"5.8532534","Longitude":"-55.1836646","Name":"Amazonestraat"},{"Latitude":"5.8452126","Longitude":"-55.1811414","Name":"Ambastraat"},{"Latitude":"5.8586799","Longitude":"-55.1307225","Name":"Amblygonietstraat"},{"Latitude":"5.7783721","Longitude":"-55.1952687","Name":"Amdjatweg"},{"Latitude":"5.4553016","Longitude":"-55.2111396","Name":"Amelia Earhartweg"},{"Latitude":"5.8398853","Longitude":"-55.1795300","Name":"Ameliastraat"},{"Latitude":"5.7915945","Longitude":"-55.2020148","Name":"Amersingsteeg"},{"Latitude":"5.8561149","Longitude":"-55.1393582","Name":"Amethietstraat"},{"Latitude":"5.8420113","Longitude":"-55.1839560","Name":"Amimbastraat"},{"Latitude":"5.7170128","Longitude":"-55.1202856","Name":"Amirengstraat"},{"Latitude":"5.8523852","Longitude":"-55.1247598","Name":"Amistraat"},{"Latitude":"5.8463077","Longitude":"-55.2172553","Name":"Amritsarweg"},{"Latitude":"5.7681308","Longitude":"-55.1974809","Name":"Amroedhweg"},{"Latitude":"5.8507429","Longitude":"-55.1703051","Name":"Amsoistraat"},{"Latitude":"5.8460605","Longitude":"-55.1535804","Name":"Anakistraat"},{"Latitude":"5.8557537","Longitude":"-55.1337595","Name":"Anamesietstraat"},{"Latitude":"5.8477463","Longitude":"-55.1467268","Name":"Anamoestraat"},{"Latitude":"5.8216097","Longitude":"-55.1825887","Name":"Ananasstraat"},{"Latitude":"5.8298424","Longitude":"-55.2131311","Name":"Anandrajlaan"},{"Latitude":"5.7647519","Longitude":"-55.1610284","Name":"Anandweg"},{"Latitude":"5.7896258","Longitude":"-55.1833495","Name":"Anansistraat"},{"Latitude":"5.7698405","Longitude":"-55.2247797","Name":"Anbikapersad Nankoeweg"},{"Latitude":"5.8568388","Longitude":"-55.1324144","Name":"Andesietstraat"},{"Latitude":"5.8494788","Longitude":"-55.1664582","Name":"Andijviestraat"},{"Latitude":"5.8339966","Longitude":"-55.1950324","Name":"Andirastraat"},{"Latitude":"5.8557399","Longitude":"-55.2195347","Name":"Andrasteastraat"},{"Latitude":"5.7835419","Longitude":"-55.2023509","Name":"Andreasweg"},{"Latitude":"5.8560629","Longitude":"-55.2010257","Name":"Andromedastraat"},{"Latitude":"5.8683668","Longitude":"-55.1391012","Name":"André Kamperveenstraat"},{"Latitude":"5.8686637","Longitude":"-55.1410306","Name":"André Meyerstraat"},{"Latitude":"5.8665083","Longitude":"-55.1387009","Name":"André de Vriesstraat"},{"Latitude":"5.8546525","Longitude":"-55.2754662","Name":"Anemoonstraat"},{"Latitude":"5.6942158","Longitude":"-55.2156483","Name":"Angalampoelaan"},{"Latitude":"5.8173653","Longitude":"-55.1805148","Name":"Angalampoestraat"},{"Latitude":"5.8573075","Longitude":"-55.1307246","Name":"Anhydrietstraat"},{"Latitude":"5.7647519","Longitude":"-55.1610284","Name":"Anielweg"},{"Latitude":"5.7336073","Longitude":"-55.1803491","Name":"Anijsbladweg"},{"Latitude":"5.8163559","Longitude":"-55.1856090","Name":"Anjelierstraat"},{"Latitude":"5.8252349","Longitude":"-55.1953199","Name":"Ankielaan"},{"Latitude":"5.7529118","Longitude":"-55.1676933","Name":"Anmolweg"},{"Latitude":"5.9392918","Longitude":"-56.9876580","Name":"Annastraat"},{"Latitude":"5.7895606","Longitude":"-55.1992611","Name":"Annaszorgweg"},{"Latitude":"5.7843165","Longitude":"-55.1993928","Name":"Annaweg"},{"Latitude":"5.8731687","Longitude":"-55.1332094","Name":"Annie Beckstraat"},{"Latitude":"5.8367444","Longitude":"-55.1643912","Name":"Anniestraat"},{"Latitude":"5.8442526","Longitude":"-55.2640905","Name":"Anoepweg"},{"Latitude":"5.6917926","Longitude":"-55.2144118","Name":"Anoonglaan"},{"Latitude":"5.8262054","Longitude":"-55.1853186","Name":"Anthuriumstraat"},{"Latitude":"5.8591701","Longitude":"-55.1761222","Name":"Antigua en Barbudaweg"},{"Latitude":"5.8380116","Longitude":"-55.1680487","Name":"Antoinettestraat"},{"Latitude":"5.8376247","Longitude":"-55.2532375","Name":"Anton Budelstraat"},{"Latitude":"5.8340315","Longitude":"-55.1318593","Name":"Anton Dragtenweg"},{"Latitude":"5.8506906","Longitude":"-55.1494561","Name":"Anton Favereystraat"},{"Latitude":"5.8515137","Longitude":"-55.1452951","Name":"Anton Mauvestraat"},{"Latitude":"5.8214147","Longitude":"-55.1679847","Name":"Anton de Komstraat"},{"Latitude":"5.8260690","Longitude":"-55.1979731","Name":"Antonielaan"},{"Latitude":"5.7894833","Longitude":"-55.2004472","Name":"Antonigronweg"},{"Latitude":"5.8405986","Longitude":"-55.2176874","Name":"Antonstraat"},{"Latitude":"5.8473594","Longitude":"-55.1699035","Name":"Antroewastraat"},{"Latitude":"5.8513690","Longitude":"-55.1816103","Name":"Antwerpenstraat"},{"Latitude":"5.7446772","Longitude":"-55.1627321","Name":"Anuradhaweg"},{"Latitude":"5.8251107","Longitude":"-55.2191205","Name":"Anwar Sadatstraat"},{"Latitude":"5.9368739","Longitude":"-56.9877234","Name":"Apanistraat"},{"Latitude":"5.8513750","Longitude":"-55.1259954","Name":"Apensastraat"},{"Latitude":"5.8293635","Longitude":"-55.2090822","Name":"Apoerastraat"},{"Latitude":"5.8400610","Longitude":"-55.1425628","Name":"Apollostraat"},{"Latitude":"5.8578180","Longitude":"-55.1553750","Name":"Apopiaweg"},{"Latitude":"5.7865961","Longitude":"-55.1877441","Name":"Appelsteeg"},{"Latitude":"5.7580342","Longitude":"-55.2787711","Name":"Appelweg"},{"Latitude":"5.7288329","Longitude":"-55.1458811","Name":"Aprakwariweg"},{"Latitude":"5.8492979","Longitude":"-55.1404806","Name":"Aquamarijnstraat"},{"Latitude":"5.8545669","Longitude":"-55.2182081","Name":"Aquariusstraat"},{"Latitude":"5.8556830","Longitude":"-55.1257995","Name":"Arabistraat"},{"Latitude":"5.8696883","Longitude":"-55.1242139","Name":"Aracaristraat"},{"Latitude":"5.7856515","Longitude":"-55.1770519","Name":"Arakakastraat"},{"Latitude":"5.7778578","Longitude":"-55.1915758","Name":"Araliastraat"},{"Latitude":"5.7154475","Longitude":"-55.1208184","Name":"Aramataweg"},{"Latitude":"5.8619632","Longitude":"-55.1109887","Name":"Arapapajastraat"},{"Latitude":"5.8436745","Longitude":"-55.1562433","Name":"Arastraat"},{"Latitude":"5.7359566","Longitude":"-55.1831070","Name":"Aratutuweg"},{"Latitude":"5.8618724","Longitude":"-55.1567020","Name":"Archanastraat"},{"Latitude":"5.8381474","Longitude":"-55.1439399","Name":"Archimedesstraat"},{"Latitude":"5.8600731","Longitude":"-55.1403123","Name":"Arctonstraat"},{"Latitude":"5.8478692","Longitude":"-55.0856445","Name":"Arebgapalmlaan"},{"Latitude":"5.8295849","Longitude":"-55.2330457","Name":"Arecapalmstraat"},{"Latitude":"5.8599674","Longitude":"-55.1126130","Name":"Arendstraat"},{"Latitude":"5.8634986","Longitude":"-55.1391858","Name":"Argonstraat"},{"Latitude":"5.8404519","Longitude":"-55.1412411","Name":"Argosstraat"},{"Latitude":"5.8559899","Longitude":"-55.1774927","Name":"Arharstraat"},{"Latitude":"5.8537728","Longitude":"-55.2037963","Name":"Ariesstraat"},{"Latitude":"5.8526811","Longitude":"-55.1252629","Name":"Arikostraat"},{"Latitude":"5.8412826","Longitude":"-55.1988935","Name":"Armandstraat"},{"Latitude":"5.6121527","Longitude":"-55.1502272","Name":"Army"},{"Latitude":"5.9283347","Longitude":"-57.0035735","Name":"Arnold Julenweg"},{"Latitude":"5.8413707","Longitude":"-55.1489846","Name":"Arnoldstraat"},{"Latitude":"5.8682828","Longitude":"-56.3250232","Name":"Arnoldus Bendtstraat"},{"Latitude":"5.8021646","Longitude":"-55.1365438","Name":"Aromanisweg"},{"Latitude":"5.7961574","Longitude":"-55.4876869","Name":"Arowakkenweg"},{"Latitude":"5.8102540","Longitude":"-55.1822267","Name":"Arrawarastraat"},{"Latitude":"5.8326779","Longitude":"-55.2158482","Name":"Arrowrootlaan"},{"Latitude":"5.8699510","Longitude":"-55.1333833","Name":"Arthur E. Hermelijnstraat"},{"Latitude":"5.8680738","Longitude":"-56.3245628","Name":"Arthur Flustraat"},{"Latitude":"5.6658985","Longitude":"-55.2178861","Name":"Arubaweg"},{"Latitude":"5.8193974","Longitude":"-55.1763678","Name":"Arya Dewakerstraat"},{"Latitude":"5.8355823","Longitude":"-55.1397738","Name":"Asafkinestraat"},{"Latitude":"5.8517693","Longitude":"-55.1788117","Name":"Asanwaistraat"},{"Latitude":"5.8498706","Longitude":"-55.1234032","Name":"Asaridraistraat"},{"Latitude":"5.6192592","Longitude":"-55.0952637","Name":"Asbestweg"},{"Latitude":"5.8362735","Longitude":"-55.1683157","Name":"Asgar Karamat Alistraat"},{"Latitude":"5.7369842","Longitude":"-55.1293526","Name":"Ashivastraat"},{"Latitude":"5.7548248","Longitude":"-55.1561752","Name":"Ashministraat"},{"Latitude":"5.7446671","Longitude":"-55.2326823","Name":"Ashokweg"},{"Latitude":"5.8235019","Longitude":"-55.2073336","Name":"Asidonopostraat"},{"Latitude":"5.8511431","Longitude":"-55.1226395","Name":"Askaanstraat"},{"Latitude":"5.7991449","Longitude":"-55.1843424","Name":"Asraf Safoeralaan"},{"Latitude":"5.8453194","Longitude":"-55.2705665","Name":"Asraweg"},{"Latitude":"5.6924832","Longitude":"-55.2106566","Name":"Asterlaan"},{"Latitude":"5.8098358","Longitude":"-55.1779315","Name":"Asterstraat"},{"Latitude":"5.8520489","Longitude":"-55.1850690","Name":"Asuncionstraat"},{"Latitude":"5.8536852","Longitude":"-55.1269359","Name":"Atamastraat"},{"Latitude":"5.8669022","Longitude":"-55.1480905","Name":"Atitlanstraat"},{"Latitude":"5.8394547","Longitude":"-55.1429408","Name":"Atlasstraat"},{"Latitude":"5.7861931","Longitude":"-55.1836704","Name":"Atletiekstraat"},{"Latitude":"5.7926058","Longitude":"-55.2305325","Name":"Atmodikromo Ngaliweg"},{"Latitude":"5.8529284","Longitude":"-55.1300077","Name":"Atringistraat"},{"Latitude":"5.8417043","Longitude":"-55.2176354","Name":"Augurkstraat"},{"Latitude":"5.5865071","Longitude":"-55.1885146","Name":"August Vyentstraat"},{"Latitude":"5.8312404","Longitude":"-55.1898886","Name":"Auguststraat"},{"Latitude":"5.8259977","Longitude":"-55.1858457","Name":"Aukalaan"},{"Latitude":"5.8394581","Longitude":"-55.1995353","Name":"Aukestraat"},{"Latitude":"5.7766373","Longitude":"-55.1938931","Name":"Aureliaweg"},{"Latitude":"5.8203909","Longitude":"-55.1921817","Name":"Aurorastraat"},{"Latitude":"5.7328594","Longitude":"-55.1320943","Name":"Aventuraweg"},{"Latitude":"5.4759799","Longitude":"-54.0407196","Name":"Avenue Christophe Colomb"},{"Latitude":"5.5044219","Longitude":"-54.0254921","Name":"Avenue Désiré Tinaut"},{"Latitude":"5.5037072","Longitude":"-54.0280819","Name":"Avenue Félix Eboué"},{"Latitude":"5.5019978","Longitude":"-54.0292596","Name":"Avenue Félix Éboué"},{"Latitude":"5.4972783","Longitude":"-54.0240420","Name":"Avenue Gaston Monnerville"},{"Latitude":"5.5028585","Longitude":"-54.0271328","Name":"Avenue Léon Gontran Damas"},{"Latitude":"5.1492910","Longitude":"-54.3417260","Name":"Avenue du Général de Gaulle"},{"Latitude":"5.5045783","Longitude":"-54.0275160","Name":"Avenue du Président Franklin Roosevelt"},{"Latitude":"5.8535873","Longitude":"-55.1794389","Name":"Awabasoestraat"},{"Latitude":"5.9365245","Longitude":"-57.0332283","Name":"Awad Hoeseinweg"},{"Latitude":"5.8062012","Longitude":"-55.1810807","Name":"Awaradam"},{"Latitude":"5.8302089","Longitude":"-55.2042531","Name":"Awaralaan"},{"Latitude":"5.7334070","Longitude":"-55.1800010","Name":"Awaristonweg"},{"Latitude":"5.8464600","Longitude":"-55.1167179","Name":"Awensaistraat"},{"Latitude":"5.9362795","Longitude":"-56.9901959","Name":"Awinistraat"},{"Latitude":"5.9362795","Longitude":"-56.9901959","Name":"Awit Kaolanstraat"},{"Latitude":"5.7913466","Longitude":"-55.2015886","Name":"Baansteeg"},{"Latitude":"5.8452152","Longitude":"-55.0737667","Name":"Baartpalmlaan"},{"Latitude":"5.8369703","Longitude":"-55.2510348","Name":"Baas Andrianstraat"},{"Latitude":"5.7341951","Longitude":"-55.1324644","Name":"Baasmoesweg"},{"Latitude":"5.8065278","Longitude":"-55.2276527","Name":"Baboe G Sewrajsingweg"},{"Latitude":"5.9344558","Longitude":"-56.9815845","Name":"Baboenhoutstraat"},{"Latitude":"5.7607442","Longitude":"-55.1719135","Name":"Baboeristraat"},{"Latitude":"5.7328725","Longitude":"-55.1770226","Name":"Babungorogoroweg"},{"Latitude":"5.7331752","Longitude":"-55.1815560","Name":"Babunnootweg"},{"Latitude":"5.8356937","Longitude":"-55.2117267","Name":"Bachoelaan"},{"Latitude":"5.8493346","Longitude":"-55.0862454","Name":"Bactrispalmlaan"},{"Latitude":"5.7896463","Longitude":"-55.2059686","Name":"Badensteinweg"},{"Latitude":"5.7877174","Longitude":"-55.1826238","Name":"Badloeweg"},{"Latitude":"5.7972464","Longitude":"-55.1770510","Name":"Badmintonstraat"},{"Latitude":"5.7968556","Longitude":"-55.1912711","Name":"Badoellaweg"},{"Latitude":"5.8617238","Longitude":"-55.1197732","Name":"Bagabagastraat"},{"Latitude":"5.6125623","Longitude":"-55.1946966","Name":"Bagelenweg"},{"Latitude":"5.7902007","Longitude":"-55.1997104","Name":"Bahadoerweg"},{"Latitude":"5.8602036","Longitude":"-55.1760660","Name":"Bahamasweg"},{"Latitude":"5.8145446","Longitude":"-55.2101527","Name":"Baidjoestraat"},{"Latitude":"5.8405882","Longitude":"-55.1814405","Name":"Baikoetoestraat"},{"Latitude":"5.8447073","Longitude":"-55.1326356","Name":"Bairdstraat"},{"Latitude":"5.7931638","Longitude":"-55.1804230","Name":"Baitaliweg"},{"Latitude":"5.6122904","Longitude":"-55.1504484","Name":"Baka Tjon"},{"Latitude":"5.8458277","Longitude":"-55.1773378","Name":"Bakamoejoeweg"},{"Latitude":"5.8096266","Longitude":"-55.1321542","Name":"Bakapasi"},{"Latitude":"5.7706557","Longitude":"-55.2216840","Name":"Bakas Adjieweg"},{"Latitude":"5.8908092","Longitude":"-55.0861835","Name":"Bakasroisiweg"},{"Latitude":"5.8651435","Longitude":"-55.1215297","Name":"Bakbatitristraat"},{"Latitude":"5.8434384","Longitude":"-55.2005556","Name":"Bakboordlaan"},{"Latitude":"5.7819194","Longitude":"-55.1854301","Name":"Bakhuisstraat"},{"Latitude":"5.7938693","Longitude":"-55.1971950","Name":"Bakkieweg"},{"Latitude":"5.7938139","Longitude":"-55.2023149","Name":"Bakkieweg 5e Zijsteeg"},{"Latitude":"5.7701488","Longitude":"-55.1665540","Name":"Bakriediestraat"},{"Latitude":"5.8714238","Longitude":"-55.0710244","Name":"Balebaleweg"},{"Latitude":"5.8363948","Longitude":"-55.5571051","Name":"Baliweg"},{"Latitude":"5.8199402","Longitude":"-55.1840378","Name":"Balsemienstraat"},{"Latitude":"5.9002859","Longitude":"-56.9387641","Name":"Balwantgirweg"},{"Latitude":"5.8511431","Longitude":"-55.1226395","Name":"Bambistraat"},{"Latitude":"5.9179655","Longitude":"-56.9339912","Name":"Bamboedam"},{"Latitude":"5.7339198","Longitude":"-55.1412040","Name":"Bamboelaan"},{"Latitude":"5.8526629","Longitude":"-55.0867682","Name":"Bamboepalmlaan"},{"Latitude":"5.8796380","Longitude":"-55.0407369","Name":"Bamistraat"},{"Latitude":"5.8490559","Longitude":"-55.1527470","Name":"Banabekistraat"},{"Latitude":"5.8409375","Longitude":"-55.1813449","Name":"Banafowkondrestraat"},{"Latitude":"5.8526127","Longitude":"-55.0861533","Name":"Bananapalmlaan"},{"Latitude":"5.6231146","Longitude":"-55.0948209","Name":"Bananesteeg"},{"Latitude":"5.8373190","Longitude":"-55.1697308","Name":"Banbanstraat"},{"Latitude":"5.8503296","Longitude":"-55.2314199","Name":"Bandroejaweg"},{"Latitude":"5.7765815","Longitude":"-55.1926970","Name":"Bandspannerweg"},{"Latitude":"5.8479774","Longitude":"-55.2154545","Name":"Bangaloreweg"},{"Latitude":"5.8114411","Longitude":"-55.1495557","Name":"Bangoenweg"},{"Latitude":"5.8384037","Longitude":"-55.2294693","Name":"Banjostraat"},{"Latitude":"5.7287218","Longitude":"-55.2109575","Name":"Bankastraat"},{"Latitude":"5.8045388","Longitude":"-55.4875854","Name":"Bankiraiweg"},{"Latitude":"5.8433507","Longitude":"-55.2295120","Name":"Bansradjweg"},{"Latitude":"5.7890465","Longitude":"-55.2082231","Name":"Bantaskinestraat"},{"Latitude":"5.8382830","Longitude":"-55.2464955","Name":"Banyanweg"},{"Latitude":"5.8805056","Longitude":"-55.0422430","Name":"Barastraat"},{"Latitude":"5.8566692","Longitude":"-55.1801087","Name":"Barbadosstraat"},{"Latitude":"5.8206403","Longitude":"-55.2143140","Name":"Barbakoebastraat"},{"Latitude":"5.7861426","Longitude":"-55.8958189","Name":"Barbamanweg"},{"Latitude":"5.8462713","Longitude":"-55.2166054","Name":"Bareillyweg"},{"Latitude":"5.8325688","Longitude":"-55.1832538","Name":"Barendstraat"},{"Latitude":"5.8762042","Longitude":"-55.0785165","Name":"Baretweg"},{"Latitude":"5.8626296","Longitude":"-55.1436888","Name":"Bariumstraat"},{"Latitude":"5.8250810","Longitude":"-55.1915427","Name":"Barnet G.H. Lyonlaan"},{"Latitude":"5.8187026","Longitude":"-55.2089421","Name":"Barnetbloemstraat"},{"Latitude":"5.7917500","Longitude":"-55.2072459","Name":"Baronieweg"},{"Latitude":"5.8480053","Longitude":"-55.1206171","Name":"Baronstraat"},{"Latitude":"5.8449026","Longitude":"-55.1430234","Name":"Bartokstraat"},{"Latitude":"5.7696864","Longitude":"-55.1669956","Name":"Basdewsingweg"},{"Latitude":"5.8291552","Longitude":"-55.2425525","Name":"Basirangatoenstraat"},{"Latitude":"5.8569022","Longitude":"-55.1297260","Name":"Basitostraat"},{"Latitude":"5.8824130","Longitude":"-56.3300061","Name":"Basja Taystraat"},{"Latitude":"5.8628936","Longitude":"-55.1190894","Name":"Basjafowroestraat"},{"Latitude":"5.7973539","Longitude":"-55.1749129","Name":"Basketbalstraat"},{"Latitude":"5.9398190","Longitude":"-56.9820011","Name":"Basralocusstraat"},{"Latitude":"5.8024316","Longitude":"-55.4845625","Name":"Basralocusweg"},{"Latitude":"5.8384040","Longitude":"-55.2273373","Name":"Basstraat"},{"Latitude":"5.9006457","Longitude":"-57.0765738","Name":"Bastieweg"},{"Latitude":"5.7909708","Longitude":"-55.1762648","Name":"Bat En Balstraat"},{"Latitude":"5.8314818","Longitude":"-55.2329013","Name":"Batbatistraat"},{"Latitude":"5.7356474","Longitude":"-55.1813692","Name":"Batotobitaweg"},{"Latitude":"5.8757191","Longitude":"-55.0791629","Name":"Battonweg"},{"Latitude":"5.8614509","Longitude":"-55.1356074","Name":"Bauxietstraat"},{"Latitude":"5.7358543","Longitude":"-55.1804737","Name":"Bayrumweg"},{"Latitude":"5.8612326","Longitude":"-55.1328032","Name":"Bazaltstraat"},{"Latitude":"5.8240232","Longitude":"-55.1996498","Name":"Bealaan"},{"Latitude":"5.9209913","Longitude":"-57.0489005","Name":"Beatrixweg"},{"Latitude":"5.8172072","Longitude":"-55.1895947","Name":"Bechaniestraat"},{"Latitude":"5.8488564","Longitude":"-55.1136016","Name":"Becustraat"},{"Latitude":"5.8511248","Longitude":"-55.1787995","Name":"Bedotistraat"},{"Latitude":"5.7862378","Longitude":"-55.0559826","Name":"Bedstroweg"},{"Latitude":"5.7988168","Longitude":"-55.2644851","Name":"Beefgrasstraat"},{"Latitude":"5.7900145","Longitude":"-55.2092103","Name":"Beekenhorstweg"},{"Latitude":"5.8003224","Longitude":"-55.1717583","Name":"Beekhuyzenbrug"},{"Latitude":"5.7991049","Longitude":"-55.1718537","Name":"Beekhuyzenbrugbrug"},{"Latitude":"5.8346387","Longitude":"-55.1726583","Name":"Beethovenstraat"},{"Latitude":"5.8090055","Longitude":"-55.1782647","Name":"Begoniastraat"},{"Latitude":"5.8517912","Longitude":"-55.1123656","Name":"Behangersbijstraat"},{"Latitude":"5.8446340","Longitude":"-55.1804814","Name":"Bekiokondrestraat"},{"Latitude":"5.8539011","Longitude":"-55.1850025","Name":"Belemstraat"},{"Latitude":"5.8612411","Longitude":"-55.1760329","Name":"Belizeweg"},{"Latitude":"5.8476747","Longitude":"-55.1926236","Name":"Belladonnastraat"},{"Latitude":"5.8518293","Longitude":"-55.0856300","Name":"Bellapalmlaan"},{"Latitude":"5.7864845","Longitude":"-55.0552249","Name":"Bellenplantweg"},{"Latitude":"5.7966599","Longitude":"-55.1942721","Name":"Bellevuestraat"},{"Latitude":"5.8443323","Longitude":"-55.1337214","Name":"Bellstraat"},{"Latitude":"5.8617378","Longitude":"-55.1760255","Name":"Belmopanweg"},{"Latitude":"5.8531073","Longitude":"-55.1821791","Name":"Benaresstraat"},{"Latitude":"5.0166017","Longitude":"-55.1737819","Name":"Beninweg"},{"Latitude":"5.8465733","Longitude":"-55.1324043","Name":"Benjamin Franklinstraat"},{"Latitude":"5.7897326","Longitude":"-55.1985662","Name":"Benny Karamat Aliweg"},{"Latitude":"5.8409421","Longitude":"-55.1690889","Name":"Benschopstraat"},{"Latitude":"5.7987603","Longitude":"-55.2651334","Name":"Bentgrasstraat"},{"Latitude":"5.8766811","Longitude":"-55.1272638","Name":"Berada Hussonstraat"},{"Latitude":"5.8625344","Longitude":"-55.1664127","Name":"Berangerweg"},{"Latitude":"5.7859112","Longitude":"-55.0564870","Name":"Berendruifweg"},{"Latitude":"5.7896504","Longitude":"-55.2087680","Name":"Berendslustweg"},{"Latitude":"5.8658131","Longitude":"-55.1511208","Name":"Bergamotstraat"},{"Latitude":"5.7871193","Longitude":"-55.0558596","Name":"Bergdenweg-Zuid"},{"Latitude":"5.7141347","Longitude":"-55.2060700","Name":"Bergenshoopweg"},{"Latitude":"5.7328940","Longitude":"-55.1814212","Name":"Bergibitaweg"},{"Latitude":"5.7279976","Longitude":"-55.1463264","Name":"Bergigronfoloweg"},{"Latitude":"5.7263924","Longitude":"-55.1478983","Name":"Bergimanbarklakweg"},{"Latitude":"5.8464211","Longitude":"-55.1421526","Name":"Berliozstraat"},{"Latitude":"5.5863010","Longitude":"-55.1889707","Name":"Bernardstraat Vyentstraat"},{"Latitude":"5.7827824","Longitude":"-55.1869933","Name":"Bernaustraat"},{"Latitude":"5.8186766","Longitude":"-55.1780434","Name":"Bernhardstraat"},{"Latitude":"5.7608889","Longitude":"-55.2058188","Name":"Bernhardweg"},{"Latitude":"5.8220551","Longitude":"-55.1955893","Name":"Bersabalaan"},{"Latitude":"5.8665498","Longitude":"-55.1415118","Name":"Bert Storm van Leeuwenstraat"},{"Latitude":"5.8479763","Longitude":"-55.1956210","Name":"Berthastraat"},{"Latitude":"5.8593038","Longitude":"-55.1306415","Name":"Beryllstraat"},{"Latitude":"5.8473972","Longitude":"-55.0832500","Name":"Betelpalmlaan"},{"Latitude":"5.8493678","Longitude":"-55.0875968","Name":"Beterpalmlaan"},{"Latitude":"5.8224029","Longitude":"-55.1697402","Name":"Beterwonenstraat"},{"Latitude":"5.7908089","Longitude":"-55.2094217","Name":"Bethaniaweg"},{"Latitude":"5.8014033","Longitude":"-55.1796987","Name":"Bethelweg"},{"Latitude":"5.7945611","Longitude":"-55.1694732","Name":"Bethesdaweg"},{"Latitude":"5.8758253","Longitude":"-55.0843595","Name":"Bevelhebberweg - Noord"},{"Latitude":"5.8752869","Longitude":"-55.0846756","Name":"Bevelhebberweg - Zuid"},{"Latitude":"5.8253410","Longitude":"-55.2340007","Name":"Bhageloeweg"},{"Latitude":"5.7627447","Longitude":"-55.1975938","Name":"Bhagwandienweg"},{"Latitude":"5.8286034","Longitude":"-55.2443664","Name":"Bhailalweg"},{"Latitude":"5.7591939","Longitude":"-55.1821477","Name":"Bhikhoeweg"},{"Latitude":"5.7694505","Longitude":"-55.1735480","Name":"Bhikieweg"},{"Latitude":"5.7635683","Longitude":"-55.1990359","Name":"Bhoedaiweg"},{"Latitude":"5.7909351","Longitude":"-55.1954453","Name":"Bhoelaiweg"},{"Latitude":"5.7644320","Longitude":"-55.1999793","Name":"Bhoendieweg"},{"Latitude":"5.7906702","Longitude":"-55.2176648","Name":"Bholaweg"},{"Latitude":"5.8515053","Longitude":"-55.2076390","Name":"Bibi Jaitoen Chiragalieweg"},{"Latitude":"5.7837141","Longitude":"-55.1900454","Name":"Bierdjoeweg"},{"Latitude":"5.8501594","Longitude":"-55.1718535","Name":"Biereweg"},{"Latitude":"5.7934279","Longitude":"-55.2045779","Name":"Bierweg"},{"Latitude":"5.7988714","Longitude":"-55.2638704","Name":"Biesgrasstraat"},{"Latitude":"5.7399912","Longitude":"-55.1761772","Name":"Bieslookstraat"},{"Latitude":"5.7866280","Longitude":"-55.0564518","Name":"Bieslookweg"},{"Latitude":"5.7912811","Longitude":"-55.2117846","Name":"Biesramweg"},{"Latitude":"5.8371753","Longitude":"-55.2546457","Name":"Big Jonesstraat"},{"Latitude":"5.8347255","Longitude":"-55.2162043","Name":"Biharielaan"},{"Latitude":"5.7864243","Longitude":"-55.0548320","Name":"Bijenkorfweg"},{"Latitude":"5.7896236","Longitude":"-55.2103623","Name":"Bijgelukweg"},{"Latitude":"5.6456347","Longitude":"-55.2331667","Name":"Bijlhoutweg"},{"Latitude":"5.7795355","Longitude":"-55.1863007","Name":"Bijlstraat"},{"Latitude":"5.8479581","Longitude":"-55.2480952","Name":"Bikanerweg"},{"Latitude":"5.8331806","Longitude":"-55.2534950","Name":"Bikharie Manorathstraat"},{"Latitude":"5.7723455","Longitude":"-55.1898968","Name":"Billaweg"},{"Latitude":"5.6111752","Longitude":"-55.1551992","Name":"Billiton straat 12"},{"Latitude":"5.6121321","Longitude":"-55.1527406","Name":"Billiton straat 5"},{"Latitude":"5.8048699","Longitude":"-55.1330515","Name":"Bindadinweg"},{"Latitude":"5.8193899","Longitude":"-55.1946970","Name":"Bindastraat"},{"Latitude":"5.8451707","Longitude":"-55.2134461","Name":"Bindesarweg"},{"Latitude":"5.8751598","Longitude":"-55.0798704","Name":"Binnenhelmweg"},{"Latitude":"5.8036670","Longitude":"-55.4888272","Name":"Bintangorweg"},{"Latitude":"5.8598579","Longitude":"-55.1327896","Name":"Biotietstraat"},{"Latitude":"5.8208654","Longitude":"-55.1808996","Name":"Birambiestraat"},{"Latitude":"5.8415923","Longitude":"-55.1780223","Name":"Biriehoedoematoestraat"},{"Latitude":"5.8233114","Longitude":"-55.1720999","Name":"Birtantiestraat"},{"Latitude":"5.8345935","Longitude":"-55.2139660","Name":"Bisaiweg"},{"Latitude":"5.7598953","Longitude":"-55.1921766","Name":"Bishnoelaan"},{"Latitude":"5.8604438","Longitude":"-55.1441531","Name":"Bismuthstraat"},{"Latitude":"5.7915090","Longitude":"-55.2029992","Name":"Bisoenweg"},{"Latitude":"5.8446238","Longitude":"-55.2026583","Name":"Bitawiwristraat"},{"Latitude":"5.8708179","Longitude":"-55.0725718","Name":"Bivakweg"},{"Latitude":"5.8459183","Longitude":"-55.1424504","Name":"Bizetstraat"},{"Latitude":"5.8459846","Longitude":"-55.1525469","Name":"Blaasmanstraat"},{"Latitude":"5.6589303","Longitude":"-55.0679363","Name":"Blaasvarenweg"},{"Latitude":"5.8580791","Longitude":"-55.1229571","Name":"Bladwespstraat"},{"Latitude":"5.8437705","Longitude":"-55.1680429","Name":"Blaforkiweg"},{"Latitude":"5.8524578","Longitude":"-55.1562126","Name":"Blaka Kinstraat"},{"Latitude":"5.7361391","Longitude":"-55.1810586","Name":"Blaka Umaweg"},{"Latitude":"5.8499440","Longitude":"-55.1167744","Name":"Blakka-Honiestraat"},{"Latitude":"5.8431115","Longitude":"-55.1505941","Name":"Blauwdasstraat"},{"Latitude":"5.6281996","Longitude":"-55.0896470","Name":"Blauwe Araweg"},{"Latitude":"5.8611247","Longitude":"-55.1146275","Name":"Blauwforkistraat"},{"Latitude":"5.7859748","Longitude":"-55.0569493","Name":"Blauwklaproosweg"},{"Latitude":"5.7761818","Longitude":"-56.6886911","Name":"Blauwtjepankieweg"},{"Latitude":"5.8609519","Longitude":"-55.1092476","Name":"Blauwvinkstraat"},{"Latitude":"5.8538595","Longitude":"-55.1577411","Name":"Blaw Kepankistraat"},{"Latitude":"5.8534308","Longitude":"-55.1564368","Name":"Blawbaka Rowtistraat"},{"Latitude":"5.8634969","Longitude":"-55.1277785","Name":"Bleyertstraat"},{"Latitude":"5.7903601","Longitude":"-55.2105322","Name":"Blijendaalweg"},{"Latitude":"5.7786682","Longitude":"-55.1911397","Name":"Bloemenveldweg"},{"Latitude":"5.8372965","Longitude":"-55.2137402","Name":"Bloemkoolstraat"},{"Latitude":"5.8384064","Longitude":"-55.2301613","Name":"Blokfluitstraat"},{"Latitude":"5.7604557","Longitude":"-55.1585630","Name":"Bloklandweg"},{"Latitude":"5.8757279","Longitude":"-55.1432730","Name":"Blue Mauritiusstraat"},{"Latitude":"5.8568210","Longitude":"-55.1084986","Name":"Bluewingstraat"},{"Latitude":"5.8580003","Longitude":"-55.1841550","Name":"Boa Vistastraat"},{"Latitude":"5.7934103","Longitude":"-55.1859309","Name":"Bocusweg"},{"Latitude":"5.8397151","Longitude":"-55.1744386","Name":"Boedhastraat"},{"Latitude":"5.8175874","Longitude":"-55.1904651","Name":"Boedhiastraat"},{"Latitude":"5.7927928","Longitude":"-55.1914069","Name":"Boedhoedweg"},{"Latitude":"5.7673936","Longitude":"-55.2006709","Name":"Boedhoeweg"},{"Latitude":"5.7466244","Longitude":"-55.1468713","Name":"Boegroemakalaan"},{"Latitude":"5.7950057","Longitude":"-55.1776066","Name":"Boegroestraat"},{"Latitude":"5.8534497","Longitude":"-55.1788863","Name":"Boejoebakastraat"},{"Latitude":"5.6249265","Longitude":"-55.1005766","Name":"Boekbinderweg"},{"Latitude":"5.8200336","Longitude":"-55.2169334","Name":"Boekoestraat"},{"Latitude":"5.8553708","Longitude":"-55.1110197","Name":"Boesdoksistraat"},{"Latitude":"5.8200341","Longitude":"-55.2157507","Name":"Boesikreestraat"},{"Latitude":"5.8623004","Longitude":"-55.1194272","Name":"Boesiskowtustraat"},{"Latitude":"5.8557710","Longitude":"-55.1115872","Name":"Boetaboetastraat"},{"Latitude":"5.9355279","Longitude":"-56.9902074","Name":"Boewanistraat"},{"Latitude":"5.7891272","Longitude":"-55.1809677","Name":"Bofroestraat"},{"Latitude":"5.8527266","Longitude":"-55.1850327","Name":"Bogotastraat"},{"Latitude":"5.8813123","Longitude":"-55.0414239","Name":"Bojostraat"},{"Latitude":"5.8716848","Longitude":"-55.0827158","Name":"Bokketuigweg"},{"Latitude":"5.7321381","Longitude":"-55.1776761","Name":"Bokobokowiwiriweg"},{"Latitude":"5.8478345","Longitude":"-55.1142654","Name":"Boktorstraat"},{"Latitude":"5.6599226","Longitude":"-55.0685090","Name":"Bolletjesvarensweg"},{"Latitude":"5.8705376","Longitude":"-55.2332410","Name":"Bolletriehee"},{"Latitude":"5.8083164","Longitude":"-55.1727262","Name":"Bolletriestraat"},{"Latitude":"5.7597488","Longitude":"-55.2560180","Name":"Bomapolder Serie 11"},{"Latitude":"5.7652496","Longitude":"-55.2788648","Name":"Bomapolder Serie 2"},{"Latitude":"5.8150195","Longitude":"-55.2812599","Name":"Bomaweg"},{"Latitude":"5.8454306","Longitude":"-55.1872444","Name":"Bombaystraat"},{"Latitude":"5.8238673","Longitude":"-55.6310398","Name":"Bombayweg"},{"Latitude":"5.8554686","Longitude":"-55.1814687","Name":"Bonairestraat"},{"Latitude":"5.6696846","Longitude":"-55.2147418","Name":"Bonaireweg"},{"Latitude":"5.7892189","Longitude":"-55.1797613","Name":"Bonbonistraat"},{"Latitude":"5.8013961","Longitude":"-55.2038555","Name":"Bondruweg"},{"Latitude":"5.7407852","Longitude":"-55.1752427","Name":"Bonenkruidstraat"},{"Latitude":"5.8506080","Longitude":"-55.1243476","Name":"Bongostraat"},{"Latitude":"5.8511243","Longitude":"-55.1212404","Name":"Bonistraat"},{"Latitude":"5.8434976","Longitude":"-55.1673657","Name":"Boontjediefweg"},{"Latitude":"5.8009661","Longitude":"-55.1730518","Name":"Boonweg"},{"Latitude":"5.7795355","Longitude":"-55.1863007","Name":"Boorstraat"},{"Latitude":"5.8768938","Longitude":"-55.0423249","Name":"Borimangstraat"},{"Latitude":"5.8332834","Longitude":"-55.5609471","Name":"Borneoweg"},{"Latitude":"5.8280057","Longitude":"-55.1823993","Name":"Borretstraat"},{"Latitude":"5.8440659","Longitude":"-55.2950797","Name":"Bos uiweg"},{"Latitude":"5.7758793","Longitude":"-55.1941041","Name":"Bosbesuilweg"},{"Latitude":"5.7649486","Longitude":"-55.1682436","Name":"Bosch Reitzweg"},{"Latitude":"5.7739048","Longitude":"-55.1942970","Name":"Boserebiaweg"},{"Latitude":"5.8590367","Longitude":"-55.1097236","Name":"Bosnimfstraat"},{"Latitude":"5.8539222","Longitude":"-55.1219699","Name":"Bosoemandraistraat"},{"Latitude":"5.7742960","Longitude":"-55.1949148","Name":"Bosparelvlinderweg"},{"Latitude":"5.8876046","Longitude":"-55.0746790","Name":"Bosrokomanweg"},{"Latitude":"5.8626199","Longitude":"-55.1121205","Name":"Bosrokomastraat"},{"Latitude":"5.7747515","Longitude":"-55.1954336","Name":"Bosspannerweg"},{"Latitude":"5.8489063","Longitude":"-55.1160854","Name":"Bosvlinderstraat"},{"Latitude":"5.7758991","Longitude":"-55.1955159","Name":"Boswitjeweg"},{"Latitude":"5.8165323","Longitude":"-55.1832833","Name":"Boterbloemstraat"},{"Latitude":"5.8023035","Longitude":"-55.1770674","Name":"Botopasiweg"},{"Latitude":"5.7861426","Longitude":"-55.8958189","Name":"Botrofisieweg"},{"Latitude":"5.7756793","Longitude":"-55.1733589","Name":"Botromankiweg"},{"Latitude":"5.8498943","Longitude":"-55.1744165","Name":"Botropesistraat"},{"Latitude":"5.7717024","Longitude":"-55.1701997","Name":"Botrotoertoeroeweg"},{"Latitude":"5.7953066","Longitude":"-55.4766640","Name":"Bougainvillestraat"},{"Latitude":"5.8457713","Longitude":"-55.2048079","Name":"Boulangerstraat"},{"Latitude":"5.5023842","Longitude":"-54.0276282","Name":"Boulevard du Lieutenant-Colonel Tourtet"},{"Latitude":"5.8016230","Longitude":"-55.2118769","Name":"Boven Verwachtingweg"},{"Latitude":"5.7959121","Longitude":"-55.1647918","Name":"Bowlingstraat"},{"Latitude":"5.7009895","Longitude":"-55.1022683","Name":"Boxel Paraweg"},{"Latitude":"5.7175406","Longitude":"-55.2248255","Name":"Braamshoopweg"},{"Latitude":"5.7315145","Longitude":"-55.1765742","Name":"Bradibitaweg"},{"Latitude":"5.8492924","Longitude":"-55.0855632","Name":"Braheapalmlaan"},{"Latitude":"5.8401579","Longitude":"-55.1704216","Name":"Brahma Tewariestraat"},{"Latitude":"5.8459183","Longitude":"-55.1424504","Name":"Brahmsstraat"},{"Latitude":"5.8537581","Longitude":"-55.1140684","Name":"Brandmierstraat"},{"Latitude":"5.7403829","Longitude":"-55.1757503","Name":"Brandnetelstraat"},{"Latitude":"5.8987372","Longitude":"-55.2256648","Name":"Brantimakaweg"},{"Latitude":"5.8447465","Longitude":"-55.2118071","Name":"Brasaring"},{"Latitude":"5.8546641","Longitude":"-55.1175488","Name":"Brasbarkistraat"},{"Latitude":"5.8533134","Longitude":"-55.1850148","Name":"Brasiliastraat"},{"Latitude":"5.8570948","Longitude":"-55.2209385","Name":"Bredelaan-Noord"},{"Latitude":"5.8501418","Longitude":"-55.2214225","Name":"Bredelaan-Zuid"},{"Latitude":"5.8362644","Longitude":"-55.1677442","Name":"Breeveldstraat"},{"Latitude":"5.8858082","Longitude":"-55.0905990","Name":"Breinburgweg"},{"Latitude":"5.8607233","Longitude":"-55.1760468","Name":"Bridgetownweg"},{"Latitude":"5.8102130","Longitude":"-55.2375253","Name":"Bridjlalweg"},{"Latitude":"5.8736414","Longitude":"-55.0838065","Name":"Brigade Generaalweg - Noord"},{"Latitude":"5.8765370","Longitude":"-55.0803159","Name":"Brigade Generaalweg - Zuid"},{"Latitude":"5.8728426","Longitude":"-55.0775273","Name":"Brigadeweg"},{"Latitude":"5.7193580","Longitude":"-55.1618016","Name":"Britshweg"},{"Latitude":"5.7905939","Longitude":"-55.2109085","Name":"Broederschapweg"},{"Latitude":"5.7832791","Longitude":"-55.1890653","Name":"Brokolonkostraat"},{"Latitude":"5.8192909","Longitude":"-55.1920367","Name":"Brokopondolaan"},{"Latitude":"5.8256252","Longitude":"-55.1846869","Name":"Bromeliastraat"},{"Latitude":"5.8635453","Longitude":"-55.1335305","Name":"Brometstraat"},{"Latitude":"5.8645847","Longitude":"-55.1434175","Name":"Bromidestraat"},{"Latitude":"5.8185513","Longitude":"-55.1756105","Name":"Broodboomstraat"},{"Latitude":"5.8472727","Longitude":"-55.1181176","Name":"Broosstraat"},{"Latitude":"5.8035533","Longitude":"-55.1819874","Name":"Brouwerijweg"},{"Latitude":"5.7835760","Longitude":"-55.1853711","Name":"Brownsbergstraat"},{"Latitude":"5.0797371","Longitude":"-55.1132046","Name":"Brownsweg"},{"Latitude":"5.7872944","Longitude":"-55.0558489","Name":"Bruidssluierweg"},{"Latitude":"5.6260822","Longitude":"-55.0939109","Name":"Bruidsvarensweg"},{"Latitude":"5.7309627","Longitude":"-55.1789890","Name":"Bruinbladweg"},{"Latitude":"5.8522698","Longitude":"-55.1737741","Name":"Bruine Boneweg"},{"Latitude":"5.7902803","Longitude":"-55.2192675","Name":"Bruinendaalweg"},{"Latitude":"5.8052277","Longitude":"-55.1742895","Name":"Bruinhartstraat"},{"Latitude":"5.7850501","Longitude":"-55.1983193","Name":"Brunetteweg"},{"Latitude":"5.8507340","Longitude":"-55.1824506","Name":"Brusselstraat"},{"Latitude":"5.8509369","Longitude":"-55.1864623","Name":"Buenos Airesstraat"},{"Latitude":"5.8729974","Longitude":"-55.0826563","Name":"Buitenhelmweg"},{"Latitude":"5.7340034","Longitude":"-55.1813461","Name":"Bunhatimamaweg"},{"Latitude":"5.7987197","Longitude":"-55.2657375","Name":"Buntgrasstraat"},{"Latitude":"5.8275582","Longitude":"-55.1640536","Name":"Burenstraat"},{"Latitude":"5.8015179","Longitude":"-55.1774809","Name":"Burkhardweg"},{"Latitude":"5.7880625","Longitude":"-55.2077034","Name":"Burnsidestraat"},{"Latitude":"5.7323324","Longitude":"-55.1785509","Name":"Busipapayaweg"},{"Latitude":"5.7342276","Longitude":"-55.1790237","Name":"Buskatunweg"},{"Latitude":"5.8603652","Longitude":"-55.1408524","Name":"Butaanstraat"},{"Latitude":"5.8491870","Longitude":"-55.0842110","Name":"Butiapalmlaan"},{"Latitude":"5.8240887","Longitude":"-55.2363367","Name":"C. Daaelaan"},{"Latitude":"5.9364224","Longitude":"-56.9950142","Name":"C. Van Dalstraat"},{"Latitude":"5.8237087","Longitude":"-55.1911749","Name":"C.A. van Drimmelenlaan"},{"Latitude":"5.7626480","Longitude":"-55.4708688","Name":"C.A.M. Oleanderweg"},{"Latitude":"5.8440149","Longitude":"-55.2179063","Name":"C.B. Achthovenweg"},{"Latitude":"5.8995033","Longitude":"-56.9885430","Name":"C.R. Biswamitreweg"},{"Latitude":"5.8455288","Longitude":"-55.2063561","Name":"Cabellstraat"},{"Latitude":"5.7897166","Longitude":"-55.1694530","Name":"Cacaoweg"},{"Latitude":"5.8630031","Longitude":"-55.1454652","Name":"Cadmiumstraat"},{"Latitude":"5.8394039","Longitude":"-55.1440854","Name":"Cadmusstraat"},{"Latitude":"5.8299408","Longitude":"-55.2157833","Name":"Cairolaan"},{"Latitude":"5.8121463","Longitude":"-55.2101766","Name":"Calciumstraat"},{"Latitude":"5.8084608","Longitude":"-55.1755768","Name":"Calcuttastraat"},{"Latitude":"5.8529680","Longitude":"-55.6756956","Name":"Calcuttaweg"},{"Latitude":"5.7912213","Longitude":"-55.2199787","Name":"Caledoniaweg"},{"Latitude":"5.8169597","Longitude":"-55.1806998","Name":"Calliopsestraat"},{"Latitude":"5.8512752","Longitude":"-55.2183786","Name":"Callistostraat"},{"Latitude":"5.8346266","Longitude":"-55.1351383","Name":"Calorstraat"},{"Latitude":"5.8081291","Longitude":"-55.1786025","Name":"Cameliastraat"},{"Latitude":"5.7909497","Longitude":"-55.2200719","Name":"Campenburgweg"},{"Latitude":"5.8461205","Longitude":"-55.1861042","Name":"Canadastraat"},{"Latitude":"5.8663868","Longitude":"-55.1516658","Name":"Canangastraat"},{"Latitude":"5.8533287","Longitude":"-55.0849503","Name":"Canarypalmlaan"},{"Latitude":"5.8510454","Longitude":"-55.2033630","Name":"Cancerstraat"},{"Latitude":"5.8319158","Longitude":"-55.2322396","Name":"Canteloupestraat"},{"Latitude":"5.8647973","Longitude":"-55.1688641","Name":"Capiloweg"},{"Latitude":"5.8508089","Longitude":"-55.2028576","Name":"Capricornusstraat"},{"Latitude":"5.8554969","Longitude":"-55.1820867","Name":"Caracasstraat"},{"Latitude":"5.7974687","Longitude":"-55.4887918","Name":"Caraïbenweg"},{"Latitude":"5.7904402","Longitude":"-55.2202588","Name":"Carl Francoisweg"},{"Latitude":"5.7445911","Longitude":"-55.2077240","Name":"Carlhoweg"},{"Latitude":"5.8267753","Longitude":"-55.2144891","Name":"Carmelitastraat"},{"Latitude":"5.8018613","Longitude":"-55.2632562","Name":"Carmen R. Jankiestraat"},{"Latitude":"5.7179735","Longitude":"-55.1216731","Name":"Carneoolstraat"},{"Latitude":"5.7910471","Longitude":"-55.2207620","Name":"Carolina's Hoopweg"},{"Latitude":"5.8157130","Longitude":"-55.1720740","Name":"Carolinastraat"},{"Latitude":"5.7913701","Longitude":"-55.2241461","Name":"Carthagoweg"},{"Latitude":"5.8452403","Longitude":"-55.1413124","Name":"Carusostraat"},{"Latitude":"5.8289947","Longitude":"-55.1871600","Name":"Casiporastraat"},{"Latitude":"5.9282097","Longitude":"-57.0010135","Name":"Cassaveweg"},{"Latitude":"5.8076266","Longitude":"-55.1921714","Name":"Cassewinicastraat"},{"Latitude":"5.7349927","Longitude":"-55.1591017","Name":"Cassialaan"},{"Latitude":"5.8387219","Longitude":"-55.1439013","Name":"Castorstraat"},{"Latitude":"5.8436317","Longitude":"-55.5877660","Name":"Catharina Sophiastraat"},{"Latitude":"5.7909213","Longitude":"-55.2251920","Name":"Catharina Sophiaweg"},{"Latitude":"5.8381608","Longitude":"-55.1656364","Name":"Catostraat"},{"Latitude":"5.8162432","Longitude":"-55.1785809","Name":"Cattleyastraat"},{"Latitude":"5.7416949","Longitude":"-55.1768949","Name":"Cayennepeperstraat"},{"Latitude":"5.8581402","Longitude":"-55.1749834","Name":"Caymanstraat"},{"Latitude":"5.8372089","Longitude":"-55.1994224","Name":"Cayottestraat"},{"Latitude":"5.9392918","Longitude":"-56.9876580","Name":"Cederstraat"},{"Latitude":"5.8771722","Longitude":"-55.2256987","Name":"Cedreheeweg"},{"Latitude":"5.8457575","Longitude":"-55.1344476","Name":"Celciusstraat"},{"Latitude":"5.8493047","Longitude":"-55.5843626","Name":"Celebesweg"},{"Latitude":"5.8283725","Longitude":"-55.1743416","Name":"Celinastraat"},{"Latitude":"5.8382682","Longitude":"-55.2254311","Name":"Cellostraat"},{"Latitude":"5.8429041","Longitude":"-55.1362565","Name":"Ceresstraat"},{"Latitude":"5.7389504","Longitude":"-55.1695019","Name":"Ceylonstraat"},{"Latitude":"5.9331918","Longitude":"-56.9868770","Name":"Ceyvonistraat"},{"Latitude":"5.8430805","Longitude":"-55.1270832","Name":"Ch. Goodyearstraat"},{"Latitude":"5.8717291","Longitude":"-55.1056845","Name":"Ch. Lontstraat"},{"Latitude":"5.7972098","Longitude":"-55.1989999","Name":"Cha Cha Rahimweg"},{"Latitude":"5.8515231","Longitude":"-55.2556409","Name":"Chabileweg"},{"Latitude":"5.8088771","Longitude":"-55.2402576","Name":"Chanderweg"},{"Latitude":"5.8011201","Longitude":"-55.2506450","Name":"Chandoeweb"},{"Latitude":"5.8084724","Longitude":"-55.2450784","Name":"Chandradebieweg"},{"Latitude":"5.8143444","Longitude":"-55.2082761","Name":"Charanstraat"},{"Latitude":"5.8013027","Longitude":"-55.2010754","Name":"Charismaweg"},{"Latitude":"5.7830940","Longitude":"-55.0428798","Name":"Charles Bergenweg"},{"Latitude":"5.8683668","Longitude":"-55.1391012","Name":"Charles Knelstraat"},{"Latitude":"5.5809855","Longitude":"-55.1855214","Name":"Charles Pinasstraat"},{"Latitude":"5.8447505","Longitude":"-55.2302179","Name":"Charmoeweg"},{"Latitude":"5.8384437","Longitude":"-55.1975452","Name":"Chatterstraat"},{"Latitude":"5.8138478","Longitude":"-55.2091629","Name":"Chaudhariestraat"},{"Latitude":"5.7583489","Longitude":"-55.1673159","Name":"Chautalweg"},{"Latitude":"5.7576042","Longitude":"-55.1748063","Name":"Chautieweg"},{"Latitude":"5.8250704","Longitude":"-55.2213616","Name":"Che Guevarastraat"},{"Latitude":"5.8119506","Longitude":"-55.1543694","Name":"Chediweg"},{"Latitude":"5.5020687","Longitude":"-54.0134135","Name":"Chemin Fatima"},{"Latitude":"3.6393698","Longitude":"-54.0433839","Name":"Chemin du Village Abdallah"},{"Latitude":"5.7696819","Longitude":"-55.1912542","Name":"Chevarroweg"},{"Latitude":"5.8366435","Longitude":"-55.2157653","Name":"Chitoestraat"},{"Latitude":"5.8591964","Longitude":"-55.1448907","Name":"Chloorstraat"},{"Latitude":"5.8651014","Longitude":"-55.1431197","Name":"Chloridestraat"},{"Latitude":"5.8432044","Longitude":"-55.1424905","Name":"Chopinstraat"},{"Latitude":"5.8042324","Longitude":"-55.1452334","Name":"Christendam"},{"Latitude":"5.5791227","Longitude":"-55.1849359","Name":"Christiaan Pinasstraat"},{"Latitude":"5.7847343","Longitude":"-55.1975128","Name":"Christinaweg"},{"Latitude":"5.8511674","Longitude":"-55.1958920","Name":"Christinestraat"},{"Latitude":"5.8087585","Longitude":"-55.1774728","Name":"Christophel Kerstenstraat"},{"Latitude":"5.8526532","Longitude":"-55.1385232","Name":"Chroomstraat"},{"Latitude":"5.8885103","Longitude":"-57.1390157","Name":"Church Street"},{"Latitude":"5.8497685","Longitude":"-55.1202921","Name":"Cimbiastraat"},{"Latitude":"5.7403829","Longitude":"-55.1757503","Name":"Citroengrasstraat"},{"Latitude":"5.7392702","Longitude":"-55.1747794","Name":"Citroenkruidstraat"},{"Latitude":"5.7379285","Longitude":"-55.1732538","Name":"Citroenmelissestraat"},{"Latitude":"5.8211250","Longitude":"-55.1792460","Name":"Citroenstraat"},{"Latitude":"5.9405973","Longitude":"-56.9804410","Name":"Citroenstraat Oost"},{"Latitude":"5.9404557","Longitude":"-56.9819570","Name":"Citroenstraat West"},{"Latitude":"5.8375627","Longitude":"-55.1465600","Name":"Citruslaan"},{"Latitude":"5.8828627","Longitude":"-55.0778338","Name":"Citrusweg"},{"Latitude":"5.9348502","Longitude":"-56.9902246","Name":"Ciwinistraat"},{"Latitude":"5.8012513","Longitude":"-55.2150256","Name":"Claudia Wensweg"},{"Latitude":"5.8168476","Longitude":"-55.1975756","Name":"Claudiastraat"},{"Latitude":"5.8533869","Longitude":"-55.1958067","Name":"Claudinestraat"},{"Latitude":"5.8500400","Longitude":"-55.1953384","Name":"Clementinestraat"},{"Latitude":"5.7889917","Longitude":"-55.1864028","Name":"Cleo Eendragtsteeg"},{"Latitude":"5.7881786","Longitude":"-55.2094636","Name":"Clydestraat"},{"Latitude":"5.8542364","Longitude":"-55.1388770","Name":"Cobaltstraat"},{"Latitude":"5.7663577","Longitude":"-55.2013299","Name":"Cobraweg"},{"Latitude":"5.8306524","Longitude":"-55.2161195","Name":"Cocobiacoweg"},{"Latitude":"5.6704644","Longitude":"-55.0739517","Name":"Cocosdam"},{"Latitude":"5.8369748","Longitude":"-55.1468949","Name":"Cocoslaan"},{"Latitude":"5.8267803","Longitude":"-55.0951777","Name":"Cocosolieweg"},{"Latitude":"5.8093733","Longitude":"-55.1899847","Name":"Coermotibostraat"},{"Latitude":"5.8106627","Longitude":"-55.1982668","Name":"Coeroenistraat"},{"Latitude":"5.8042414","Longitude":"-55.1883210","Name":"Coesewijnestraat"},{"Latitude":"5.8476904","Longitude":"-55.1166526","Name":"Colerusstraat"},{"Latitude":"5.8417515","Longitude":"-55.1573249","Name":"Collilaan"},{"Latitude":"5.8370777","Longitude":"-55.2532657","Name":"Collinstraat"},{"Latitude":"5.8531073","Longitude":"-55.1821791","Name":"Columbiastraat"},{"Latitude":"5.7846429","Longitude":"-55.4830544","Name":"Columbiaweg"},{"Latitude":"5.8070700","Longitude":"-55.1916591","Name":"Commetewanestraat"},{"Latitude":"5.8125944","Longitude":"-55.1817855","Name":"Commewijnestraat"},{"Latitude":"5.8740901","Longitude":"-55.0450602","Name":"Commewijneweg"},{"Latitude":"5.8878911","Longitude":"-55.0837162","Name":"Commissaris Roblesweg"},{"Latitude":"5.8350166","Longitude":"-55.0938082","Name":"Commissaris Thurkowweg"},{"Latitude":"5.8174666","Longitude":"-55.3055314","Name":"Commissaris Weythingweg"},{"Latitude":"5.8825437","Longitude":"-55.0924480","Name":"Commissaris Wormerweg"},{"Latitude":"5.8183460","Longitude":"-55.1680696","Name":"Commissarisstraat"},{"Latitude":"5.7376064","Longitude":"-55.1998165","Name":"Commissarisweg"},{"Latitude":"5.8461974","Longitude":"-55.2122178","Name":"Communicatielaan"},{"Latitude":"5.8347663","Longitude":"-55.1346168","Name":"Comvaliusstraat"},{"Latitude":"5.6118160","Longitude":"-55.1483468","Name":"Conciërgeweg"},{"Latitude":"5.8208084","Longitude":"-55.1939588","Name":"Concordialaan"},{"Latitude":"5.8766391","Longitude":"-55.1105941","Name":"Condorstraat"},{"Latitude":"5.7938958","Longitude":"-55.2053674","Name":"Confianceweg"},{"Latitude":"5.6257075","Longitude":"-54.3947187","Name":"Consessieweg"},{"Latitude":"5.8469654","Longitude":"-55.1298823","Name":"Constant Vredenstraat"},{"Latitude":"5.7921909","Longitude":"-55.2279649","Name":"Constantiaweg"},{"Latitude":"5.8268539","Longitude":"-55.2125194","Name":"Consuelastraat"},{"Latitude":"5.8377158","Longitude":"-55.2125784","Name":"Coomanstraat"},{"Latitude":"5.8449577","Longitude":"-55.1372552","Name":"Copernicusstraat"},{"Latitude":"5.8025803","Longitude":"-55.1729828","Name":"Copiestraat"},{"Latitude":"5.7748612","Longitude":"-55.8912357","Name":"Coppenamebrug"},{"Latitude":"5.7802391","Longitude":"-55.8881413","Name":"Coppenameweg"},{"Latitude":"5.8271642","Longitude":"-55.2255078","Name":"Coprastraat"},{"Latitude":"5.7775203","Longitude":"-55.1938728","Name":"Coralitastraat"},{"Latitude":"5.8141578","Longitude":"-55.1779532","Name":"Corantijnstraat"},{"Latitude":"5.9285905","Longitude":"-57.0707404","Name":"Corantijnweg"},{"Latitude":"5.8206289","Longitude":"-55.2056298","Name":"Cordialaan"},{"Latitude":"5.8261715","Longitude":"-55.1834858","Name":"Cordua"},{"Latitude":"5.7304900","Longitude":"-55.1776684","Name":"Cordylineweg"},{"Latitude":"5.8860528","Longitude":"-57.1374890","Name":"Corentyne Highway"},{"Latitude":"5.8249793","Longitude":"-55.1711053","Name":"Corneliastraat"},{"Latitude":"5.8059807","Longitude":"-55.1779912","Name":"Cornelis Blijdstraat"},{"Latitude":"5.8380082","Longitude":"-55.1639928","Name":"Cornelis Graanoogststraat"},{"Latitude":"5.8303546","Longitude":"-55.1429730","Name":"Cornelis Jongbawstraat"},{"Latitude":"5.8445904","Longitude":"-55.1944017","Name":"Cornelis Prinsstraat"},{"Latitude":"5.8174526","Longitude":"-55.1731107","Name":"Cornelisstraat"},{"Latitude":"5.8425628","Longitude":"-55.1381355","Name":"Coronastraat"},{"Latitude":"5.7890987","Longitude":"-55.2088015","Name":"Coroniestraat"},{"Latitude":"5.8084841","Longitude":"-55.1926864","Name":"Coropinastraat"},{"Latitude":"5.7927784","Longitude":"-55.2286970","Name":"Corpinaboweg"},{"Latitude":"5.7192668","Longitude":"-55.1640490","Name":"Corsicaanse-Denstraat"},{"Latitude":"5.8444374","Longitude":"-55.0882863","Name":"Cortaderiarieweg"},{"Latitude":"5.8331723","Longitude":"-55.1530418","Name":"Costerstraat"},{"Latitude":"5.8537237","Longitude":"-55.2153554","Name":"Cosyville"},{"Latitude":"5.8100725","Longitude":"-55.1799573","Name":"Cotticastraat"},{"Latitude":"5.8750746","Longitude":"-55.0460470","Name":"Cotticaweg"},{"Latitude":"5.8863023","Longitude":"-55.0936570","Name":"Couveelaan"},{"Latitude":"5.7159016","Longitude":"-55.1217613","Name":"Cowvalweg"},{"Latitude":"5.8491313","Longitude":"-55.0835448","Name":"Coyolpalmlaan"},{"Latitude":"5.8431072","Longitude":"-55.1991030","Name":"Creebsburgweg"},{"Latitude":"5.7731975","Longitude":"-55.3453467","Name":"Creolaweg"},{"Latitude":"5.7954269","Longitude":"-55.1782891","Name":"Cricketstraat"},{"Latitude":"5.8250288","Longitude":"-55.1846883","Name":"Crocusstraat"},{"Latitude":"5.8534832","Longitude":"-55.1221420","Name":"Crombiestraat"},{"Latitude":"5.8318520","Longitude":"-55.1463880","Name":"Crommelinstraat"},{"Latitude":"5.9446204","Longitude":"-56.9825594","Name":"Crownstraat"},{"Latitude":"5.7888965","Longitude":"-55.2212733","Name":"Curacaose Appelweg"},{"Latitude":"5.8572392","Longitude":"-55.1800965","Name":"Curacaostraat"},{"Latitude":"5.6712865","Longitude":"-55.2000868","Name":"Curacaoweg"},{"Latitude":"5.8587105","Longitude":"-55.1848143","Name":"Curitibastraat"},{"Latitude":"5.8536440","Longitude":"-55.2011437","Name":"Cygnusstraat"},{"Latitude":"5.9389710","Longitude":"-56.9981793","Name":"DC B.J. Parabirsingweg"},{"Latitude":"5.7537833","Longitude":"-55.3135405","Name":"Dacronweg"},{"Latitude":"5.8280959","Longitude":"-55.2295089","Name":"Dadelpalmstraat"},{"Latitude":"5.7701385","Longitude":"-55.1692156","Name":"Dageraadweg"},{"Latitude":"5.8412163","Longitude":"-55.1747103","Name":"Dagoebladstraat"},{"Latitude":"5.7711721","Longitude":"-55.1718030","Name":"Dagoefisiweg"},{"Latitude":"5.7325830","Longitude":"-55.1794200","Name":"Dagupepreweg"},{"Latitude":"5.8486202","Longitude":"-55.1145159","Name":"Dagvlinderstraat"},{"Latitude":"5.5922488","Longitude":"-55.1923718","Name":"Dahlbergstraat"},{"Latitude":"5.8072907","Longitude":"-55.1789343","Name":"Dahliastraat"},{"Latitude":"5.8443376","Longitude":"-55.1320343","Name":"Daimlerstraat"},{"Latitude":"5.7172184","Longitude":"-55.1203907","Name":"Dalbanastraat"},{"Latitude":"5.7644889","Longitude":"-55.1545945","Name":"Dalsingaarweg"},{"Latitude":"5.8018105","Longitude":"-55.5090061","Name":"Damboentong"},{"Latitude":"5.7855613","Longitude":"-55.1852263","Name":"Dambordstraat"},{"Latitude":"5.8087535","Longitude":"-55.4908606","Name":"Dammalang"},{"Latitude":"5.5939861","Longitude":"-55.1920933","Name":"Damstraat"},{"Latitude":"5.8572796","Longitude":"-55.1585291","Name":"Dandi Zoutweg"},{"Latitude":"5.8231744","Longitude":"-55.1769119","Name":"Daniel Coutinhostraat"},{"Latitude":"5.8500747","Longitude":"-55.1472263","Name":"Daniel IJveraarstraat"},{"Latitude":"5.5876448","Longitude":"-55.1880924","Name":"Daniel Kensiesteeg"},{"Latitude":"5.8488500","Longitude":"-55.1185831","Name":"Daniel Navostraat"},{"Latitude":"5.7934731","Longitude":"-55.2277463","Name":"Dankbaarheidweg"},{"Latitude":"5.8267545","Longitude":"-55.1912285","Name":"Dario Saveedralaan"},{"Latitude":"5.8539727","Longitude":"-55.1274635","Name":"Daristraat"},{"Latitude":"5.7417155","Longitude":"-55.1700812","Name":"Darjeelingstraat"},{"Latitude":"5.8653301","Longitude":"-55.1670411","Name":"Dasmonieweg"},{"Latitude":"5.8400282","Longitude":"-55.1686642","Name":"Datrafisistraat"},{"Latitude":"5.8200049","Longitude":"-55.2211297","Name":"Datrakondrestraat"},{"Latitude":"5.5790732","Longitude":"-55.1870914","Name":"David Loswijkstraat"},{"Latitude":"5.8386280","Longitude":"-55.1370361","Name":"David Simonsstraat"},{"Latitude":"5.8447426","Longitude":"-55.1472765","Name":"David Simonstraat"},{"Latitude":"5.8020743","Longitude":"-55.1777389","Name":"Dawmeweg"},{"Latitude":"5.8577547","Longitude":"-55.1781135","Name":"De Boerbuitenweg"},{"Latitude":"5.6946102","Longitude":"-55.2235862","Name":"De Craneweg"},{"Latitude":"5.7990518","Longitude":"-55.1918712","Name":"De Goede Herinneringweg"},{"Latitude":"5.8003410","Longitude":"-55.1900493","Name":"De Goede Zorgweg"},{"Latitude":"5.7809031","Longitude":"-55.1865551","Name":"De Goejestraat"},{"Latitude":"5.8031368","Longitude":"-55.1821986","Name":"De Jongweg"},{"Latitude":"5.7479900","Longitude":"-55.1976824","Name":"De Nieuwe Grondweg"},{"Latitude":"5.6170829","Longitude":"-55.1061892","Name":"De Watering"},{"Latitude":"5.8187197","Longitude":"-55.1873221","Name":"Debi Bikhariestraat"},{"Latitude":"5.8031200","Longitude":"-55.1770864","Name":"Debikeweg"},{"Latitude":"5.8418468","Longitude":"-55.2598513","Name":"Debipersadweg"},{"Latitude":"5.8523940","Longitude":"-55.1789433","Name":"Decionstraat"},{"Latitude":"5.9294692","Longitude":"-57.0186663","Name":"Dehliweg"},{"Latitude":"5.8424153","Longitude":"-55.1342401","Name":"Deimostraat"},{"Latitude":"5.8325688","Longitude":"-55.1832538","Name":"Del Pradostraat"},{"Latitude":"5.8382444","Longitude":"-55.1431210","Name":"Delphistraat"},{"Latitude":"5.8086744","Longitude":"-55.2367676","Name":"Deltaweg"},{"Latitude":"5.8554686","Longitude":"-55.1814687","Name":"Demerarastraat"},{"Latitude":"5.8488677","Longitude":"-55.1829556","Name":"Denemarkenstraat"},{"Latitude":"5.5910403","Longitude":"-55.1946025","Name":"Denswilstraat"},{"Latitude":"5.8364274","Longitude":"-55.2325227","Name":"Derde Rijweg"},{"Latitude":"5.8710394","Longitude":"-55.1408822","Name":"Desire Bendterstraat"},{"Latitude":"5.8238951","Longitude":"-55.1948501","Name":"Dettalaan"},{"Latitude":"5.8510513","Longitude":"-55.1686701","Name":"Devisweg"},{"Latitude":"5.8471627","Longitude":"-55.1649638","Name":"Dewnarainweg"},{"Latitude":"5.7667102","Longitude":"-55.1560917","Name":"Dhandeiweg"},{"Latitude":"5.8604870","Longitude":"-55.1499150","Name":"Dhandewstraat"},{"Latitude":"5.7447484","Longitude":"-55.2378219","Name":"Dhanradjiweg"},{"Latitude":"5.7797432","Longitude":"-55.2046800","Name":"Dharmawatieweg"},{"Latitude":"5.8636861","Longitude":"-55.1688844","Name":"Dhirajweg"},{"Latitude":"5.8487410","Longitude":"-55.2071914","Name":"Dhoerinderweg"},{"Latitude":"5.8404706","Longitude":"-55.2158757","Name":"Diakonessenstraat"},{"Latitude":"5.8472547","Longitude":"-55.1380703","Name":"Diamantstraat"},{"Latitude":"5.8542829","Longitude":"-55.2090906","Name":"Dianastraat"},{"Latitude":"5.7881292","Longitude":"-55.1768678","Name":"Diastraat"},{"Latitude":"5.8300353","Longitude":"-55.1944025","Name":"Dieterstraat"},{"Latitude":"5.8549583","Longitude":"-55.1296204","Name":"Difoestraat"},{"Latitude":"5.8619270","Longitude":"-55.1571809","Name":"Dilipkumarstraat"},{"Latitude":"5.9377472","Longitude":"-56.9978308","Name":"Dimastraat"},{"Latitude":"5.8248061","Longitude":"-55.1990576","Name":"Dinalaan"},{"Latitude":"5.7646406","Longitude":"-55.1547288","Name":"Dineshweg"},{"Latitude":"5.8440120","Longitude":"-55.2632411","Name":"Dinmohamedweg"},{"Latitude":"5.8587679","Longitude":"-55.1357932","Name":"Diorietstraat"},{"Latitude":"5.8380022","Longitude":"-55.1290255","Name":"Diostraat"},{"Latitude":"5.7774421","Longitude":"-55.4803705","Name":"Dirkshoopweg"},{"Latitude":"5.7716080","Longitude":"-55.1715886","Name":"Discusfisieweg"},{"Latitude":"5.8720636","Longitude":"-55.0809274","Name":"Divisieweg"},{"Latitude":"5.7605673","Longitude":"-55.2293895","Name":"Divyaweg"},{"Latitude":"5.9428516","Longitude":"-57.0083539","Name":"Djakartaweg"},{"Latitude":"5.8391593","Longitude":"-55.1687300","Name":"Djakistraat"},{"Latitude":"5.8076187","Longitude":"-55.4977366","Name":"Djalanweg"},{"Latitude":"5.7954035","Longitude":"-55.1974901","Name":"Djamoenaweg"},{"Latitude":"5.8659179","Longitude":"-55.1059701","Name":"Djamoestraat"},{"Latitude":"5.8409990","Longitude":"-55.1779230","Name":"Djankakondrestraat"},{"Latitude":"5.8458355","Longitude":"-55.1632995","Name":"Djankiweg"},{"Latitude":"5.8494606","Longitude":"-55.1745307","Name":"Djaripesistraat"},{"Latitude":"5.8035761","Longitude":"-55.1723771","Name":"Djedoestraat"},{"Latitude":"5.8561645","Longitude":"-55.1262153","Name":"Djegwasstraat"},{"Latitude":"5.8628418","Longitude":"-55.1032944","Name":"Djerostraat"},{"Latitude":"5.7903123","Longitude":"-55.1816126","Name":"Djindjamakastraat"},{"Latitude":"5.7880281","Longitude":"-55.1804434","Name":"Djinipistraat"},{"Latitude":"5.7934212","Longitude":"-55.1888703","Name":"Djinkoeweg"},{"Latitude":"5.7900607","Longitude":"-55.1801468","Name":"Djoelstraat"},{"Latitude":"5.8024737","Longitude":"-55.1784758","Name":"Djoemoeweg"},{"Latitude":"5.8701322","Longitude":"-55.0742260","Name":"Djompo-baskietaweg"},{"Latitude":"5.7904623","Longitude":"-55.1784654","Name":"Djompofoetoestraat"},{"Latitude":"5.8175805","Longitude":"-55.1956367","Name":"Djotistraat"},{"Latitude":"5.8473962","Longitude":"-55.1461283","Name":"Dobrustraat"},{"Latitude":"5.8748503","Longitude":"-55.1447791","Name":"Dodostraat"},{"Latitude":"5.8403744","Longitude":"-55.2196655","Name":"Doebestraat"},{"Latitude":"5.8527471","Longitude":"-55.1643713","Name":"Doebriesingweg"},{"Latitude":"5.8198868","Longitude":"-55.1873834","Name":"Doebriestraat"},{"Latitude":"5.8119458","Longitude":"-55.1931517","Name":"Doekhieweg Oost"},{"Latitude":"5.9384360","Longitude":"-56.9820695","Name":"Doekhieweg West"},{"Latitude":"5.8132248","Longitude":"-55.2108650","Name":"Doekhieweg-West"},{"Latitude":"5.8877369","Longitude":"-55.0878160","Name":"Doelahasoriweg"},{"Latitude":"5.8256766","Longitude":"-55.2165345","Name":"Doelwijtstraat"},{"Latitude":"5.8196547","Longitude":"-55.1880910","Name":"Doergastraat"},{"Latitude":"5.8666105","Longitude":"-55.1595969","Name":"Doeriannootweg"},{"Latitude":"5.8614614","Longitude":"-55.1671504","Name":"Doerianweg"},{"Latitude":"5.7636597","Longitude":"-55.1729201","Name":"Doesaweg"},{"Latitude":"5.8503976","Longitude":"-55.1796457","Name":"Doewatrastraat"},{"Latitude":"5.8492321","Longitude":"-55.1214997","Name":"Dofenstraat"},{"Latitude":"5.7819278","Longitude":"-55.0168746","Name":"Dojosoepartoweg"},{"Latitude":"5.8772727","Longitude":"-55.0339817","Name":"Dolfijnzicht"},{"Latitude":"5.8516094","Longitude":"-55.1143865","Name":"Dolkwespstraat"},{"Latitude":"5.8541029","Longitude":"-55.1347038","Name":"Dolomietstraat"},{"Latitude":"5.8280456","Longitude":"-55.2125238","Name":"Doloresstraat"},{"Latitude":"5.6817956","Longitude":"-55.0864021","Name":"Domburg 10e straat"},{"Latitude":"5.6802566","Longitude":"-55.0882957","Name":"Domburg 11e straat"},{"Latitude":"5.6774723","Longitude":"-55.0857656","Name":"Domburg 12de straat"},{"Latitude":"5.6752033","Longitude":"-55.0896575","Name":"Domburg 13e straat"},{"Latitude":"5.6990162","Longitude":"-55.0844899","Name":"Domburg 2e straat"},{"Latitude":"5.6968587","Longitude":"-55.0854571","Name":"Domburg 3e straat"},{"Latitude":"5.6938500","Longitude":"-55.0859028","Name":"Domburg 4e straat"},{"Latitude":"5.6918663","Longitude":"-55.0863825","Name":"Domburg 5e straat"},{"Latitude":"5.6900102","Longitude":"-55.0871330","Name":"Domburg 6e straat"},{"Latitude":"5.6881080","Longitude":"-55.0873872","Name":"Domburg 7e straat"},{"Latitude":"5.6858809","Longitude":"-55.0866281","Name":"Domburg 8ste straat"},{"Latitude":"5.6843009","Longitude":"-55.0885352","Name":"Domburg 9e straat"},{"Latitude":"5.6907001","Longitude":"-55.0870379","Name":"Domburg Middenweg"},{"Latitude":"5.8266545","Longitude":"-55.1591390","Name":"Domineestraat"},{"Latitude":"5.8751724","Longitude":"-55.1444919","Name":"Domingo Fernandezstraat"},{"Latitude":"5.8622510","Longitude":"-55.1759886","Name":"Dominicaweg"},{"Latitude":"5.7832049","Longitude":"-55.1867766","Name":"Dondroebaristraat"},{"Latitude":"5.8631856","Longitude":"-55.1181417","Name":"Donfowroestraat"},{"Latitude":"5.8010043","Longitude":"-55.1919739","Name":"Doorbraakweg"},{"Latitude":"5.8357559","Longitude":"-55.1789439","Name":"Doreenstraat"},{"Latitude":"5.8514986","Longitude":"-55.1965257","Name":"Dorinestraat"},{"Latitude":"5.8369219","Longitude":"-55.2040978","Name":"Dorotheastraat"},{"Latitude":"5.8805776","Longitude":"-55.0406333","Name":"Dosistraat"},{"Latitude":"5.8542110","Longitude":"-55.1279835","Name":"Dosoestraat"},{"Latitude":"5.8347616","Longitude":"-55.1357872","Name":"Douglasstraat"},{"Latitude":"5.7931296","Longitude":"-55.4780753","Name":"Dr Ehrlichweg"},{"Latitude":"5.8220071","Longitude":"-55.2094246","Name":"Dr. A. Jamaludinstraat"},{"Latitude":"5.7929693","Longitude":"-55.4874192","Name":"Dr. E. Kochweg"},{"Latitude":"5.8366742","Longitude":"-55.1816256","Name":"Dr. E.J. Abrahamstraat"},{"Latitude":"5.8361412","Longitude":"-55.1362909","Name":"Dr. Einaarstraat"},{"Latitude":"5.8670323","Longitude":"-55.1321026","Name":"Dr. Eugene W. Leckiestraat"},{"Latitude":"5.8250849","Longitude":"-55.1659282","Name":"Dr. Eugène Albert Gesselstraat"},{"Latitude":"5.8219966","Longitude":"-55.2091680","Name":"Dr. F. Tjong Ayongstraat"},{"Latitude":"5.8241411","Longitude":"-55.1828071","Name":"Dr. Gear Pad"},{"Latitude":"5.8206404","Longitude":"-55.2096939","Name":"Dr. H. C. Van Ommerenstraat"},{"Latitude":"5.8367316","Longitude":"-55.1806492","Name":"Dr. Herman Benjaminsstraat"},{"Latitude":"5.8093828","Longitude":"-55.2064362","Name":"Dr. Ir. H.S. Adhinstraat"},{"Latitude":"5.8244966","Longitude":"-55.1830387","Name":"Dr. J. Buenodemesguita Pad"},{"Latitude":"5.8309098","Longitude":"-55.1614007","Name":"Dr. J.F. Nassylaan"},{"Latitude":"5.8625738","Longitude":"-55.1304909","Name":"Dr. Landvreugdstraat"},{"Latitude":"5.8667377","Longitude":"-55.1336888","Name":"Dr. Loestraat"},{"Latitude":"5.8707376","Longitude":"-55.1432211","Name":"Dr. Paul Polakstraat"},{"Latitude":"5.8698361","Longitude":"-55.1320170","Name":"Dr. R. Ch. Phoelsinghstraat"},{"Latitude":"5.8345373","Longitude":"-55.1364852","Name":"Dr. S.H. Axwijkstraat"},{"Latitude":"5.8301560","Longitude":"-55.1718883","Name":"Dr. Sophie Redmondstraat"},{"Latitude":"5.8710940","Longitude":"-55.1166487","Name":"Dr. Voigtstraat"},{"Latitude":"5.8497751","Longitude":"-55.1130773","Name":"Draagmierstraat"},{"Latitude":"5.8788585","Longitude":"-55.0786340","Name":"Draagriemweg"},{"Latitude":"5.8659056","Longitude":"-55.1525512","Name":"Dragonstraat"},{"Latitude":"5.7795002","Longitude":"-55.1846745","Name":"Draibatrastraat"},{"Latitude":"5.5944134","Longitude":"-55.1922507","Name":"Draisinestraat"},{"Latitude":"5.8226727","Longitude":"-55.1664519","Name":"Drambrandersgracht"},{"Latitude":"5.8706486","Longitude":"-55.0816870","Name":"Drie Tonnerweg"},{"Latitude":"5.8710053","Longitude":"-55.0750082","Name":"Drijfvlotweg"},{"Latitude":"5.8252190","Longitude":"-55.2092930","Name":"Dritabikistraat"},{"Latitude":"5.7293359","Longitude":"-55.1775332","Name":"Droseraweg"},{"Latitude":"5.7585224","Longitude":"-55.2804245","Name":"Druivenweg"},{"Latitude":"5.8393089","Longitude":"-55.2313172","Name":"Drumstraat"},{"Latitude":"5.8435003","Longitude":"-55.1503611","Name":"Duikelaarstraat"},{"Latitude":"5.7879187","Longitude":"-55.0558282","Name":"Duinrietweg"},{"Latitude":"5.8056583","Longitude":"-55.2028190","Name":"Duisburglaan"},{"Latitude":"5.7579527","Longitude":"-55.1782429","Name":"Dukharan Ramcharanweg"},{"Latitude":"5.8093104","Longitude":"-55.1310202","Name":"Dulamweg"},{"Latitude":"5.7440090","Longitude":"-55.1365089","Name":"Dwarkaweg"},{"Latitude":"5.8357576","Longitude":"-55.1803258","Name":"Dwarssteeg"},{"Latitude":"5.8303762","Longitude":"-55.2352833","Name":"Dwergpalmstraat"},{"Latitude":"5.7327662","Longitude":"-55.1158490","Name":"Dwotisatweg"},{"Latitude":"5.7948846","Longitude":"-55.1926689","Name":"E. Daalweg"},{"Latitude":"5.8245998","Longitude":"-55.2351467","Name":"E. Vlietlaan"},{"Latitude":"5.7412542","Longitude":"-55.1705876","Name":"Earlgreystraat"},{"Latitude":"5.7815236","Longitude":"-55.1867191","Name":"Ebbatopstraat"},{"Latitude":"5.8004542","Longitude":"-55.1730164","Name":"Eckhardweg"},{"Latitude":"5.8452825","Longitude":"-55.2089684","Name":"Edciusweg"},{"Latitude":"5.8515741","Longitude":"-55.1422646","Name":"Edgar Degasstraat"},{"Latitude":"5.8363958","Longitude":"-55.1984774","Name":"Edmundstraat"},{"Latitude":"5.8745978","Longitude":"-55.1294876","Name":"Edna Gravenbergstraat"},{"Latitude":"5.7565639","Longitude":"-55.2031771","Name":"Eduard Abrahamsstraat"},{"Latitude":"5.8705375","Longitude":"-55.1417929","Name":"Eduard Kaersenhoutstraat"},{"Latitude":"5.8447947","Longitude":"-55.2035017","Name":"Eduard Prachtstraat"},{"Latitude":"5.8874137","Longitude":"-56.3355056","Name":"Eduard Wolfstraat"},{"Latitude":"5.8391196","Longitude":"-55.2072000","Name":"Eduardstraat"},{"Latitude":"5.5042004","Longitude":"-55.2175735","Name":"Egbert Perotieweg"},{"Latitude":"5.7436082","Longitude":"-55.1326002","Name":"Egelboterbloemstraat"},{"Latitude":"5.8332289","Longitude":"-55.2312110","Name":"Eigenweg"},{"Latitude":"5.7697125","Longitude":"-55.1921284","Name":"Eikentandvlinderweg"},{"Latitude":"5.6283410","Longitude":"-55.0937728","Name":"Eikvarenweg"},{"Latitude":"5.7634530","Longitude":"-55.1989796","Name":"Eklavijastraat"},{"Latitude":"5.8640032","Longitude":"-55.1144929","Name":"Eksterstraat"},{"Latitude":"5.8551506","Longitude":"-55.1416467","Name":"El Grecostraat"},{"Latitude":"5.8496671","Longitude":"-55.2197964","Name":"Elarastraat"},{"Latitude":"5.6928171","Longitude":"-55.0861749","Name":"Elburgweg"},{"Latitude":"5.8357480","Longitude":"-55.1448592","Name":"Eldoradolaan"},{"Latitude":"5.8019499","Longitude":"-55.1784335","Name":"Elimweg"},{"Latitude":"5.8501484","Longitude":"-55.1962276","Name":"Elinestraat"},{"Latitude":"5.8011744","Longitude":"-55.1728142","Name":"Elisabethweg"},{"Latitude":"5.8249716","Longitude":"-55.1939580","Name":"Elizelaan"},{"Latitude":"5.7947988","Longitude":"-55.1913897","Name":"Ellenweg"},{"Latitude":"5.7908568","Longitude":"-55.1789669","Name":"Ellestraat"},{"Latitude":"5.8338224","Longitude":"-55.2381279","Name":"Elsje Borkulostraat"},{"Latitude":"5.7862444","Longitude":"-55.1834107","Name":"Elubweg"},{"Latitude":"5.8836100","Longitude":"-55.1305817","Name":"Emelie Alvaresstraat"},{"Latitude":"5.5803827","Longitude":"-55.1853320","Name":"Emelius Alexanderstraat"},{"Latitude":"5.8241317","Longitude":"-55.1959138","Name":"Emielaan"},{"Latitude":"5.8254562","Longitude":"-55.1836231","Name":"Emile Boutersestraat"},{"Latitude":"5.8403744","Longitude":"-55.2530900","Name":"Emile Meinzakstraat"},{"Latitude":"5.8617232","Longitude":"-55.1317094","Name":"Emile de la Fuentestraat"},{"Latitude":"5.7434702","Longitude":"-55.2102201","Name":"Emileweg"},{"Latitude":"5.9429152","Longitude":"-56.9911302","Name":"Emmastraat"},{"Latitude":"5.8096634","Longitude":"-55.1531049","Name":"Engelbrechtweg"},{"Latitude":"5.8224212","Longitude":"-55.1811800","Name":"Engelslootstraat"},{"Latitude":"5.7959035","Longitude":"-55.1740611","Name":"Engelweg"},{"Latitude":"5.8228411","Longitude":"-55.2222336","Name":"Enrico Benjaminstraat"},{"Latitude":"5.8176374","Longitude":"-55.2003431","Name":"Enricolaan"},{"Latitude":"5.8002454","Longitude":"-55.2174217","Name":"Ephraimzegenweg"},{"Latitude":"5.8182050","Longitude":"-55.1996648","Name":"Ericlaan"},{"Latitude":"5.7920617","Longitude":"-55.1841710","Name":"Eridorisstraat"},{"Latitude":"5.8494570","Longitude":"-55.1953415","Name":"Ernestinestraat"},{"Latitude":"5.8366142","Longitude":"-55.1299986","Name":"Erosstraat"},{"Latitude":"5.9461403","Longitude":"-56.9979522","Name":"Erwin M. Abelstraat"},{"Latitude":"5.8702891","Longitude":"-55.1306121","Name":"Eshanhoesen Abdoelrahmanstraat"},{"Latitude":"5.7988569","Longitude":"-55.2629070","Name":"Esperanceweg"},{"Latitude":"5.8516161","Longitude":"-55.1532313","Name":"Esselienstraat"},{"Latitude":"5.8746664","Longitude":"-55.1317342","Name":"Esseline Polanenstraat"},{"Latitude":"5.8160962","Longitude":"-55.1954433","Name":"Esselinestraat"},{"Latitude":"5.8071627","Longitude":"-55.1828120","Name":"Estabrielstraat"},{"Latitude":"5.7848595","Longitude":"-55.1834164","Name":"Estafettestraat"},{"Latitude":"5.8003363","Longitude":"-55.1279422","Name":"Esthel Fatmaweg"},{"Latitude":"5.8197751","Longitude":"-55.2040822","Name":"Estreliastraat"},{"Latitude":"5.8621105","Longitude":"-55.1391248","Name":"Ethaanstraat"},{"Latitude":"5.8163693","Longitude":"-55.2254593","Name":"Etmedoraweg"},{"Latitude":"5.8306944","Longitude":"-55.1986771","Name":"Etnalaan"},{"Latitude":"5.8668604","Longitude":"-55.1529173","Name":"Eucalyptusstraat"},{"Latitude":"5.8674402","Longitude":"-55.1388985","Name":"Eugene Naloopstraat"},{"Latitude":"5.7894210","Longitude":"-55.1970071","Name":"Eugenieweg"},{"Latitude":"5.8584074","Longitude":"-55.2765353","Name":"Eurekaweg"},{"Latitude":"5.8620758","Longitude":"-55.1031542","Name":"Eusieweg"},{"Latitude":"5.7923014","Longitude":"-55.1702514","Name":"Evert Verveerweg"},{"Latitude":"5.8266808","Longitude":"-55.2154395","Name":"Evitastraat"},{"Latitude":"5.7635280","Longitude":"-55.1550150","Name":"Exodusproject"},{"Latitude":"5.9417496","Longitude":"-56.9970243","Name":"F.O. Lashleystraat"},{"Latitude":"5.8802545","Longitude":"-55.0445261","Name":"Fabrikaatstraat"},{"Latitude":"5.8144851","Longitude":"-55.2012307","Name":"Fagarastraat"},{"Latitude":"5.7936874","Longitude":"-55.2158238","Name":"Fairfieldweg"},{"Latitude":"5.7990133","Longitude":"-55.1937927","Name":"Faisalweg"},{"Latitude":"5.8462728","Longitude":"-55.2163833","Name":"Faizabadhweg"},{"Latitude":"5.8150450","Longitude":"-55.1990399","Name":"Fajadjanstraat"},{"Latitude":"5.6941477","Longitude":"-55.2147713","Name":"Fajalobilaan"},{"Latitude":"5.8178095","Longitude":"-55.1778882","Name":"Fajalobistraat"},{"Latitude":"5.7903347","Longitude":"-55.1806992","Name":"Fajastonstraat"},{"Latitude":"5.8099329","Longitude":"-55.1896982","Name":"Falawatrastraat"},{"Latitude":"5.7909778","Longitude":"-55.1949312","Name":"Faridaweg"},{"Latitude":"5.8225913","Longitude":"-55.2334414","Name":"Farishaweg"},{"Latitude":"5.7960288","Longitude":"-55.1858337","Name":"Fatheeweg"},{"Latitude":"5.7843845","Longitude":"-55.1891042","Name":"Fatoeswitistraat"},{"Latitude":"5.8396591","Longitude":"-55.2366589","Name":"Fazoellaweg"},{"Latitude":"5.7925830","Longitude":"-55.1832576","Name":"Fefistonstraat"},{"Latitude":"5.8274755","Longitude":"-55.2106893","Name":"Feliciastraat"},{"Latitude":"5.7950265","Longitude":"-55.2160888","Name":"Felixweg"},{"Latitude":"5.8552257","Longitude":"-55.1475305","Name":"Ferdinand Bolstraat"},{"Latitude":"5.5058577","Longitude":"-55.2133290","Name":"Ferdinand Pierauweg"},{"Latitude":"5.8150301","Longitude":"-55.1747359","Name":"Fernandessteeg"},{"Latitude":"5.7814264","Longitude":"-55.1894692","Name":"Figuurzaagstraat"},{"Latitude":"5.7491033","Longitude":"-55.2000359","Name":"Filemonstraat"},{"Latitude":"5.8135540","Longitude":"-55.1999191","Name":"Finibitastraat"},{"Latitude":"5.8033025","Longitude":"-55.1815438","Name":"Fisherweg"},{"Latitude":"5.8454686","Longitude":"-55.0757689","Name":"Fishtailpalmlaan"},{"Latitude":"5.8133591","Longitude":"-55.2014580","Name":"Fitoniastraat"},{"Latitude":"5.7375031","Longitude":"-55.1442835","Name":"Flamboyantlaan"},{"Latitude":"5.8163459","Longitude":"-55.1770601","Name":"Flamboyantstraat"},{"Latitude":"5.8451689","Longitude":"-55.1527988","Name":"Flamingostraat"},{"Latitude":"5.7749735","Longitude":"-56.6836247","Name":"Flamingoweg"},{"Latitude":"5.8056474","Longitude":"-55.2007881","Name":"Flocislaan"},{"Latitude":"5.8112733","Longitude":"-55.1993780","Name":"Floralaan"},{"Latitude":"5.8379737","Longitude":"-55.1495976","Name":"Florastraat"},{"Latitude":"5.8672924","Longitude":"-55.1535065","Name":"Florentijnstraat"},{"Latitude":"5.8675709","Longitude":"-55.1534231","Name":"Florentijstraat"},{"Latitude":"5.8533869","Longitude":"-55.1958067","Name":"Florinestraat"},{"Latitude":"5.8058977","Longitude":"-55.1941666","Name":"Floris Zwakkestraat"},{"Latitude":"5.8776365","Longitude":"-55.0841267","Name":"Fluitkoordweg"},{"Latitude":"5.8383983","Longitude":"-55.2308560","Name":"Fluitstraat"},{"Latitude":"5.8608912","Longitude":"-55.1369798","Name":"Fluorstraat"},{"Latitude":"5.8374766","Longitude":"-55.1819846","Name":"Flustraat"},{"Latitude":"5.7186021","Longitude":"-55.1218856","Name":"Fluvorietstraat"},{"Latitude":"5.8363895","Longitude":"-55.1367113","Name":"Fockestraat"},{"Latitude":"5.8460071","Longitude":"-55.1149144","Name":"Foelonstraat"},{"Latitude":"5.8644636","Longitude":"-55.1590043","Name":"Foengoenootweg"},{"Latitude":"5.8469875","Longitude":"-55.0834484","Name":"Foengoepalmlaan"},{"Latitude":"5.8280784","Longitude":"-55.2293496","Name":"Foengoestraat"},{"Latitude":"5.8314283","Longitude":"-55.2114947","Name":"Fonteinlaan"},{"Latitude":"5.8517506","Longitude":"-55.0844662","Name":"Formosapalmlaan"},{"Latitude":"5.8544957","Longitude":"-55.1849731","Name":"Fortalezastraat"},{"Latitude":"5.7932582","Longitude":"-55.2147764","Name":"Fortuinweg"},{"Latitude":"5.8655976","Longitude":"-55.1428330","Name":"Fosfietstraat"},{"Latitude":"5.8590825","Longitude":"-55.1458805","Name":"Fosforstraat"},{"Latitude":"5.8202878","Longitude":"-55.1967970","Name":"Franchepanestraat"},{"Latitude":"5.8544820","Longitude":"-55.1428213","Name":"Francisco de Goyastraat"},{"Latitude":"5.8333368","Longitude":"-55.1829921","Name":"Frank Essedstraat"},{"Latitude":"5.7888264","Longitude":"-55.1855293","Name":"Franklynweg"},{"Latitude":"5.8481953","Longitude":"-55.1829814","Name":"Frankrijkstraat"},{"Latitude":"5.8557412","Longitude":"-55.1473831","Name":"Frans Halsstraat"},{"Latitude":"5.8564795","Longitude":"-55.1078880","Name":"Frans Madamstraat"},{"Latitude":"5.5864951","Longitude":"-55.1898197","Name":"Frans Vyentstraat"},{"Latitude":"5.8199245","Longitude":"-55.2013500","Name":"Frans Willemlaan"},{"Latitude":"5.8773694","Longitude":"-55.1299855","Name":"Fransje Gomesstraat"},{"Latitude":"5.8666984","Longitude":"-55.1191836","Name":"Fransmadam Karanistraat"},{"Latitude":"5.8146452","Longitude":"-55.1686449","Name":"Fransstraat"},{"Latitude":"5.8172161","Longitude":"-55.1829733","Name":"Frater Vincentius Smeetsstraat"},{"Latitude":"5.8487725","Longitude":"-55.1461367","Name":"Fred O'Kirkstraat"},{"Latitude":"5.8471759","Longitude":"-55.1828638","Name":"Fredastraat"},{"Latitude":"5.8265323","Longitude":"-55.1684347","Name":"Fredericistraat"},{"Latitude":"5.9405120","Longitude":"-56.9699682","Name":"Fredericiweg"},{"Latitude":"5.8231917","Longitude":"-55.1775104","Name":"Frederik J.A. Murraystraat"},{"Latitude":"5.8350511","Longitude":"-55.2533863","Name":"Frederik Muntslagstraat"},{"Latitude":"5.8373680","Longitude":"-55.1623349","Name":"Frederikalaan"},{"Latitude":"5.8391066","Longitude":"-55.2063843","Name":"Frederikastraat"},{"Latitude":"5.7863640","Longitude":"-55.2001046","Name":"Frederikaweg"},{"Latitude":"5.7810668","Longitude":"-55.1946435","Name":"Frederikshoopweg"},{"Latitude":"5.7986611","Longitude":"-55.1894011","Name":"Frederikslustweg"},{"Latitude":"5.8238268","Longitude":"-55.1682088","Name":"Fredrik Derbystraat"},{"Latitude":"5.7809197","Longitude":"-55.1887789","Name":"Freesstraat"},{"Latitude":"5.8603857","Longitude":"-55.1386216","Name":"Freonstraat"},{"Latitude":"5.8366711","Longitude":"-55.1864902","Name":"Fresolaan"},{"Latitude":"5.7944133","Longitude":"-55.2166473","Name":"Friendshipweg"},{"Latitude":"5.7917878","Longitude":"-55.1836701","Name":"Frigiterestraat"},{"Latitude":"5.7751267","Longitude":"-55.3468351","Name":"Frijmersumweg"},{"Latitude":"5.5803827","Longitude":"-55.1853320","Name":"Frits Barendstraat"},{"Latitude":"5.8570333","Longitude":"-55.1075027","Name":"Frits Groenveldstraat"},{"Latitude":"5.5880135","Longitude":"-55.1893002","Name":"Frits Pinasstraat"},{"Latitude":"5.8568248","Longitude":"-55.1179013","Name":"Fruitvliegstraat"},{"Latitude":"5.8546093","Longitude":"-55.1142779","Name":"Fruityvliegstraat"},{"Latitude":"5.8457258","Longitude":"-55.1303739","Name":"Fultonstraat"},{"Latitude":"5.8466585","Longitude":"-55.1347001","Name":"G. D. Fahrenheitstraat"},{"Latitude":"5.9466870","Longitude":"-56.9924021","Name":"G. G. Maynardstraat"},{"Latitude":"5.8415560","Longitude":"-55.1235544","Name":"G. Marconistraat"},{"Latitude":"5.8245914","Longitude":"-55.2144530","Name":"Gabriellastraat"},{"Latitude":"5.8490755","Longitude":"-55.1501488","Name":"Gaddumstraat"},{"Latitude":"5.8463218","Longitude":"-55.1796654","Name":"Gadjawakastraat"},{"Latitude":"5.7730788","Longitude":"-55.1937854","Name":"Gadjerieweg"},{"Latitude":"5.8417134","Longitude":"-55.2568687","Name":"Gadjrad J. Gosainweg"},{"Latitude":"5.8588778","Longitude":"-55.1120625","Name":"Gadofowroestraat"},{"Latitude":"5.8200281","Longitude":"-55.2177327","Name":"Gadosabistraat"},{"Latitude":"5.7588431","Longitude":"-55.1724271","Name":"Gajadienweg"},{"Latitude":"5.8650381","Longitude":"-55.1607575","Name":"Gajamnootweg"},{"Latitude":"5.8459599","Longitude":"-55.1335363","Name":"Galileistraat"},{"Latitude":"5.8500398","Longitude":"-55.1136541","Name":"Galwestraat"},{"Latitude":"5.8461974","Longitude":"-55.2122178","Name":"Gambasstraat"},{"Latitude":"5.7685707","Longitude":"-55.2045904","Name":"Gamelanstraat"},{"Latitude":"5.8338376","Longitude":"-55.2609570","Name":"Gamineweg"},{"Latitude":"5.8491527","Longitude":"-55.1780595","Name":"Gandaweg"},{"Latitude":"5.8757637","Longitude":"-55.0461104","Name":"Gandhiweg"},{"Latitude":"5.8427941","Longitude":"-55.1555377","Name":"Ganga Jali Maindeweg"},{"Latitude":"5.8430670","Longitude":"-55.2303869","Name":"Gangajaliweg"},{"Latitude":"5.8564718","Longitude":"-55.5926723","Name":"Gangaram Pandayweg"},{"Latitude":"5.7548954","Longitude":"-55.2032726","Name":"Gangastraat"},{"Latitude":"5.8484885","Longitude":"-55.1210652","Name":"Ganimetstraat"},{"Latitude":"5.8498686","Longitude":"-55.1789372","Name":"Ganjakondrestraat"},{"Latitude":"5.8299357","Longitude":"-55.2410459","Name":"Ganpat Sewradjstraat"},{"Latitude":"5.8504784","Longitude":"-55.1789136","Name":"Gansestraat"},{"Latitude":"5.8578949","Longitude":"-55.1118459","Name":"Gansistraat"},{"Latitude":"5.8513391","Longitude":"-55.2190888","Name":"Ganymedesstraat"},{"Latitude":"5.8650537","Longitude":"-55.1521137","Name":"Gardenstraat"},{"Latitude":"5.8774700","Longitude":"-55.0352227","Name":"Garnalenweg"},{"Latitude":"5.8495042","Longitude":"-55.2849126","Name":"Garnizoenspad"},{"Latitude":"5.8317570","Longitude":"-55.2368854","Name":"Gebr. De Randamiestraat"},{"Latitude":"5.8211498","Longitude":"-55.1761490","Name":"Gebroeders Penardstraat"},{"Latitude":"5.8432249","Longitude":"-55.1318358","Name":"Gebroers Wrightstraat"},{"Latitude":"5.8251218","Longitude":"-55.2185427","Name":"Geerlingstraat"},{"Latitude":"5.8374509","Longitude":"-55.2057046","Name":"Geertruidastraat"},{"Latitude":"5.7827826","Longitude":"-55.2001891","Name":"Geertruidaweg"},{"Latitude":"5.7959740","Longitude":"-55.1903382","Name":"Geertruidenbergweg"},{"Latitude":"5.8474576","Longitude":"-55.1628345","Name":"Geetaweg"},{"Latitude":"5.5932511","Longitude":"-55.1918218","Name":"Gegestraat"},{"Latitude":"5.8794742","Longitude":"-55.0789861","Name":"Gelaatsnetweg"},{"Latitude":"5.7478639","Longitude":"-55.1368740","Name":"Gele Lisweg"},{"Latitude":"5.7926021","Longitude":"-55.4791139","Name":"Gelebekstraat"},{"Latitude":"5.8448635","Longitude":"-55.1673485","Name":"Gelebekweg"},{"Latitude":"5.7909557","Longitude":"-55.2267444","Name":"Geluk Zaligheidweg"},{"Latitude":"5.9365469","Longitude":"-57.0278745","Name":"Gemaalweg"},{"Latitude":"5.8392919","Longitude":"-55.2178752","Name":"Gemberstraat"},{"Latitude":"5.8272395","Longitude":"-55.1845465","Name":"Gemenelandsweg"},{"Latitude":"5.8429041","Longitude":"-55.1362565","Name":"Geministraat"},{"Latitude":"5.8137061","Longitude":"-55.2250849","Name":"Genrobinweg"},{"Latitude":"5.8520386","Longitude":"-55.1419989","Name":"George Bracquestraat"},{"Latitude":"5.8529047","Longitude":"-55.1445012","Name":"George Breitnerstraat"},{"Latitude":"5.8491488","Longitude":"-55.2127340","Name":"George Creepsburgstraat"},{"Latitude":"5.8475016","Longitude":"-55.1474662","Name":"George Eelstraat"},{"Latitude":"5.8668185","Longitude":"-55.1392620","Name":"George Hindoristraat"},{"Latitude":"5.8689313","Longitude":"-55.1415003","Name":"George Spierstraat"},{"Latitude":"5.6247077","Longitude":"-55.0885759","Name":"George bolwerksteeg"},{"Latitude":"5.7795369","Longitude":"-55.1997593","Name":"Georgetinaweg"},{"Latitude":"5.8820478","Longitude":"-56.3397857","Name":"Geraniumstraat"},{"Latitude":"5.8529197","Longitude":"-55.1477478","Name":"Gerard Doustraat"},{"Latitude":"5.7111178","Longitude":"-55.1210237","Name":"Gerardstraat"},{"Latitude":"5.8346719","Longitude":"-55.1644822","Name":"Gerardusstraat"},{"Latitude":"5.6923712","Longitude":"-55.2117351","Name":"Gerberalaan"},{"Latitude":"5.8339018","Longitude":"-55.1872693","Name":"Gerbrandstraat"},{"Latitude":"5.8368343","Longitude":"-55.2073183","Name":"Germastraat"},{"Latitude":"5.8246524","Longitude":"-55.1955266","Name":"Geroldlaan"},{"Latitude":"5.8507052","Longitude":"-55.1742292","Name":"Gerpesistraat"},{"Latitude":"5.7874369","Longitude":"-55.2041095","Name":"Gerritweg"},{"Latitude":"5.7897955","Longitude":"-55.1862874","Name":"Geysvlietsteeg"},{"Latitude":"5.7912959","Longitude":"-55.1992963","Name":"Ghiraoweg"},{"Latitude":"5.8034825","Longitude":"-55.2080799","Name":"Ghughriweg"},{"Latitude":"5.8170609","Longitude":"-55.2006606","Name":"Giannilaan"},{"Latitude":"5.8196189","Longitude":"-55.1992331","Name":"Gideonlaan"},{"Latitude":"5.9255776","Longitude":"-56.9930595","Name":"Giebelstraat"},{"Latitude":"5.8056962","Longitude":"-55.1918310","Name":"Gijsbert Dijksteelstraat"},{"Latitude":"5.8353302","Longitude":"-55.2008658","Name":"Gijsbertstraat"},{"Latitude":"5.8421955","Longitude":"-55.1487695","Name":"Gijsbertusstraat"},{"Latitude":"5.8560579","Longitude":"-55.1342907","Name":"Gipssteenstraat"},{"Latitude":"5.8228439","Longitude":"-55.2226465","Name":"Girdharistraat"},{"Latitude":"5.8253683","Longitude":"-55.1980872","Name":"Giselalaan"},{"Latitude":"5.7654358","Longitude":"-55.1554199","Name":"Gishaweg"},{"Latitude":"5.8383877","Longitude":"-55.2313951","Name":"Gitaarstraat"},{"Latitude":"5.8180828","Longitude":"-55.1846387","Name":"Gladiolenstraat"},{"Latitude":"5.7950872","Longitude":"-55.2167836","Name":"Gloriaweg"},{"Latitude":"5.8577345","Longitude":"-55.1370708","Name":"Gneisstraat"},{"Latitude":"5.7285475","Longitude":"-55.1598816","Name":"Gobajolaan"},{"Latitude":"5.8767169","Longitude":"-55.1282482","Name":"Godefrieda Eikensestraat"},{"Latitude":"5.8020743","Longitude":"-55.1777389","Name":"Godoweg"},{"Latitude":"5.7910627","Longitude":"-55.2251349","Name":"Goede Doelenweg"},{"Latitude":"5.7750299","Longitude":"-55.4294611","Name":"Goede Hoopweg"},{"Latitude":"5.8016667","Longitude":"-55.1989125","Name":"Goede Verwachtingweg"},{"Latitude":"5.7897086","Longitude":"-55.2272656","Name":"Goedertierenweg"},{"Latitude":"5.8628871","Longitude":"-55.1310416","Name":"Goedhartstraat"},{"Latitude":"5.8003109","Longitude":"-55.1967008","Name":"Goedheidweg"},{"Latitude":"5.8396523","Longitude":"-55.2508157","Name":"Goedoegoedoe Thijmstraat"},{"Latitude":"5.8472755","Longitude":"-55.2549316","Name":"Goedoenweg"},{"Latitude":"5.7597376","Longitude":"-55.2096268","Name":"Goelamnabiweg"},{"Latitude":"5.8043121","Longitude":"-55.2611567","Name":"Goerdienstraat"},{"Latitude":"5.8416923","Longitude":"-55.1733705","Name":"Gogomangostraat"},{"Latitude":"5.8021560","Longitude":"-55.1373306","Name":"Golekweg"},{"Latitude":"5.7602248","Longitude":"-55.1727420","Name":"Goliweg"},{"Latitude":"5.8548089","Longitude":"-55.1737711","Name":"Gomawiristraat"},{"Latitude":"5.8338645","Longitude":"-55.1959340","Name":"Gondastraat"},{"Latitude":"5.7619681","Longitude":"-55.1715686","Name":"Goneshstraat"},{"Latitude":"5.8838989","Longitude":"-55.0929642","Name":"Goneshweg"},{"Latitude":"5.8323266","Longitude":"-55.1586918","Name":"Gonggrijpstraat"},{"Latitude":"5.8075640","Longitude":"-55.1887060","Name":"Goninistraat"},{"Latitude":"5.7033887","Longitude":"-55.1736515","Name":"Goosenweg"},{"Latitude":"5.7916766","Longitude":"-55.1424417","Name":"Gotong Rojongweg"},{"Latitude":"5.8204359","Longitude":"-55.1838067","Name":"Goudenregenstraat"},{"Latitude":"5.6960127","Longitude":"-55.1031247","Name":"Goudknopjestraat"},{"Latitude":"5.8493920","Longitude":"-55.0869166","Name":"Goudpalmlaan"},{"Latitude":"5.8203720","Longitude":"-55.1836497","Name":"Goudregenstraat"},{"Latitude":"5.8518589","Longitude":"-55.1382401","Name":"Goudstraat"},{"Latitude":"5.9444416","Longitude":"-56.9924924","Name":"Gouverneurstraat"},{"Latitude":"5.8537508","Longitude":"-55.1482161","Name":"Govert Flinckstraat"},{"Latitude":"5.8147015","Longitude":"-55.2117602","Name":"Govindstraat"},{"Latitude":"5.8573023","Longitude":"-55.1216099","Name":"Graafwespstraat"},{"Latitude":"5.8305937","Longitude":"-55.1998190","Name":"Graanoogstlaan"},{"Latitude":"5.9429062","Longitude":"-57.0225466","Name":"Graderweg"},{"Latitude":"5.8200145","Longitude":"-55.2199162","Name":"Gramankondrestraat"},{"Latitude":"5.8085946","Longitude":"-55.1938321","Name":"Gran Riostraat"},{"Latitude":"5.8590098","Longitude":"-55.1035703","Name":"Granaatappelstraat"},{"Latitude":"5.8491039","Longitude":"-55.1369929","Name":"Granaatstraat"},{"Latitude":"5.8028738","Longitude":"-55.1781025","Name":"Granboriweg"},{"Latitude":"5.8405723","Longitude":"-55.2129245","Name":"Grandostraat"},{"Latitude":"5.8609154","Longitude":"-55.1383113","Name":"Granietstraat"},{"Latitude":"5.7474814","Longitude":"-55.2254668","Name":"Grantweg"},{"Latitude":"5.8613244","Longitude":"-55.1341939","Name":"Granulietstraat"},{"Latitude":"5.8645053","Longitude":"-55.1126936","Name":"Grapefruitstraat"},{"Latitude":"5.6243482","Longitude":"-55.1006213","Name":"Graveerderweg"},{"Latitude":"5.5912421","Longitude":"-55.1959985","Name":"Gravenbeekstraat"},{"Latitude":"5.8272592","Longitude":"-55.1756517","Name":"Gravenberchstraat"},{"Latitude":"5.5916454","Longitude":"-55.1976557","Name":"Gravendamstraat"},{"Latitude":"5.7412358","Longitude":"-55.3929380","Name":"Gravensteinweg"},{"Latitude":"5.8559364","Longitude":"-55.1502432","Name":"Gravesstraat"},{"Latitude":"5.7942190","Longitude":"-55.2167599","Name":"Greenfieldweg"},{"Latitude":"5.8632871","Longitude":"-55.1760023","Name":"Grenadaweg"},{"Latitude":"5.7288194","Longitude":"-55.1454439","Name":"Grenenhoutstraat"},{"Latitude":"5.7951750","Longitude":"-55.1727213","Name":"Grensweg"},{"Latitude":"5.8448531","Longitude":"-55.1394799","Name":"Griegstraat"},{"Latitude":"5.8447809","Longitude":"-55.1507348","Name":"Grietjebiestraat"},{"Latitude":"5.7186021","Longitude":"-55.1218856","Name":"Grijskwartsstraat"},{"Latitude":"5.6175203","Longitude":"-55.0948208","Name":"Grindweg"},{"Latitude":"5.8511506","Longitude":"-55.1135820","Name":"Groefbijstraat"},{"Latitude":"5.7323507","Longitude":"-55.1496430","Name":"Groenhartlaan"},{"Latitude":"5.8078384","Longitude":"-55.1743725","Name":"Groenhartstraat"},{"Latitude":"5.9425762","Longitude":"-56.9803565","Name":"Groenhartstraat Oost"},{"Latitude":"5.9424531","Longitude":"-56.9818722","Name":"Groenhartstraat West"},{"Latitude":"5.6391877","Longitude":"-55.2278932","Name":"Groenhartweg"},{"Latitude":"5.9212016","Longitude":"-56.9954729","Name":"Groentenweg"},{"Latitude":"5.8029385","Longitude":"-55.1710808","Name":"Gronfolostraat"},{"Latitude":"5.7537572","Longitude":"-55.2068786","Name":"Gronposrenweg"},{"Latitude":"5.7596409","Longitude":"-55.1949844","Name":"Groot Blijdenshoopweg"},{"Latitude":"5.8284229","Longitude":"-55.1512394","Name":"Grote Combeweg"},{"Latitude":"5.8265604","Longitude":"-55.1549130","Name":"Grote Hofstraat"},{"Latitude":"5.8274330","Longitude":"-55.1554330","Name":"Grote Kerkstraat"},{"Latitude":"5.7213049","Longitude":"-55.1618808","Name":"Grove-Denstraat"},