[{"Latitude":"36.0631608","Longitude":"14.2027746","Name":"1"},{"Latitude":"35.8708764","Longitude":"14.5271974","Name":"10 September 1797"},{"Latitude":"36.0422159","Longitude":"14.2255679","Name":"10 ta' Marzu 1885"},{"Latitude":"35.8766227","Longitude":"14.4304370","Name":"12 ta' Mejju"},{"Latitude":"35.8932042","Longitude":"14.4701027","Name":"1st of May"},{"Latitude":"35.8480827","Longitude":"14.4722719","Name":"2"},{"Latitude":"35.8696111","Longitude":"14.5227842","Name":"21 ta Jannar 1965"},{"Latitude":"35.9126864","Longitude":"14.4348909","Name":"21st Sept Avenue"},{"Latitude":"35.8231337","Longitude":"14.5215085","Name":"22 ta' Frar"},{"Latitude":"36.0483993","Longitude":"14.2632682","Name":"28 t'April 1688"},{"Latitude":"36.0613631","Longitude":"14.2080579","Name":"29 ta' Awissu 1679"},{"Latitude":"35.8307400","Longitude":"14.4769349","Name":"3"},{"Latitude":"35.8255203","Longitude":"14.5261644","Name":"31 ta' Marzu"},{"Latitude":"35.9101210","Longitude":"14.4306104","Name":"4"},{"Latitude":"35.8831073","Longitude":"14.4687253","Name":"5"},{"Latitude":"35.8829755","Longitude":"14.4690525","Name":"6"},{"Latitude":"36.0636547","Longitude":"14.2071809","Name":"6 ta' Majsi"},{"Latitude":"35.8849536","Longitude":"14.5231197","Name":"8 ta' Dicembru"},{"Latitude":"35.9107155","Longitude":"14.4690194","Name":"9 ta' Frar 1799"},{"Latitude":"36.0611409","Longitude":"14.2083584","Name":"9 ta' Rejfel"},{"Latitude":"35.8902407","Longitude":"14.5063966","Name":"A Aguis"},{"Latitude":"35.9089786","Longitude":"14.4696035","Name":"A Cachia"},{"Latitude":"35.8799824","Longitude":"14.5418306","Name":"A Caligari"},{"Latitude":"35.9216124","Longitude":"14.4393812","Name":"A Decontreras St"},{"Latitude":"35.9113186","Longitude":"14.4689916","Name":"A Matrenza"},{"Latitude":"35.9212804","Longitude":"14.3735620","Name":"A. Deguara"},{"Latitude":"35.9126437","Longitude":"14.4879572","Name":"A. Maurois Savelli"},{"Latitude":"35.8728600","Longitude":"14.4574241","Name":"A. Melilli"},{"Latitude":"35.8968104","Longitude":"14.4735511","Name":"A. Sammut"},{"Latitude":"35.8968048","Longitude":"14.4758541","Name":"A. Valletta"},{"Latitude":"35.9178612","Longitude":"14.4462986","Name":"A.Fabriani"},{"Latitude":"35.9181278","Longitude":"14.4459795","Name":"A.J. Arberry"},{"Latitude":"35.8740300","Longitude":"14.4381824","Name":"Achille Ferris Street"},{"Latitude":"35.9005306","Longitude":"14.4703076","Name":"Agnese Schembri"},{"Latitude":"35.8453240","Longitude":"14.4654049","Name":"Ahwa Ghigo"},{"Latitude":"35.9073851","Longitude":"14.4729513","Name":"Akacja"},{"Latitude":"35.9124191","Longitude":"14.4886512","Name":"Albert Mayr"},{"Latitude":"36.0562654","Longitude":"14.2114894","Name":"Albert W Ketelby"},{"Latitude":"35.8764477","Longitude":"14.4955527","Name":"Aldo Moro"},{"Latitude":"35.9083359","Longitude":"14.4693898","Name":"Alessju Xuereb"},{"Latitude":"35.8588706","Longitude":"14.5398022","Name":"Alfier"},{"Latitude":"35.8614756","Longitude":"14.4859890","Name":"Alley in Sqaq tal-Karmnu Nru 4"},{"Latitude":"35.9213742","Longitude":"14.3745057","Name":"Alwiza"},{"Latitude":"35.9199069","Longitude":"14.3738646","Name":"Amaroz"},{"Latitude":"35.9091491","Longitude":"14.4891603","Name":"Ambaxxati"},{"Latitude":"35.9216664","Longitude":"14.4448074","Name":"Andrea Debono"},{"Latitude":"35.8736889","Longitude":"14.4614224","Name":"Angelo Borg"},{"Latitude":"35.8882509","Longitude":"14.5298750","Name":"Anglu Agius"},{"Latitude":"35.8639327","Longitude":"14.5140840","Name":"Anglu Mangion"},{"Latitude":"35.8440843","Longitude":"14.4646189","Name":"Annetto A Caruana"},{"Latitude":"35.8856996","Longitude":"14.4870555","Name":"Anton Buttigieg"},{"Latitude":"35.8930240","Longitude":"14.4842832","Name":"Anton Inglott"},{"Latitude":"35.8893128","Longitude":"14.5378980","Name":"Antonio Falzon"},{"Latitude":"35.9024004","Longitude":"14.4680109","Name":"Antonio Galea"},{"Latitude":"35.8572271","Longitude":"14.5324893","Name":"Antonio Micallef"},{"Latitude":"35.9075372","Longitude":"14.4818481","Name":"Antonio Schembri"},{"Latitude":"35.8562953","Longitude":"14.5389810","Name":"Anġlu Gatt"},{"Latitude":"35.8634798","Longitude":"14.5150469","Name":"Anġlu Mangion"},{"Latitude":"35.8911413","Longitude":"14.4711987","Name":"Aquedott"},{"Latitude":"36.0567941","Longitude":"14.2101880","Name":"Arcipriet Gamri Camilleri"},{"Latitude":"36.0319550","Longitude":"14.2561929","Name":"Arcipriet Guzepp Grech"},{"Latitude":"35.8588766","Longitude":"14.5399670","Name":"Arkibuzier"},{"Latitude":"35.8581829","Longitude":"14.5386178","Name":"Armier"},{"Latitude":"35.8394167","Longitude":"14.4852237","Name":"Artillerija"},{"Latitude":"35.8216038","Longitude":"14.5262755","Name":"Arzella"},{"Latitude":"35.9077840","Longitude":"14.4694118","Name":"Assemblea Nazzjonali"},{"Latitude":"36.0406243","Longitude":"14.2243270","Name":"Avukat Anton Calleja"},{"Latitude":"35.9192927","Longitude":"14.4403335","Name":"Bachiller"},{"Latitude":"35.8201559","Longitude":"14.5243221","Name":"Baden Powell"},{"Latitude":"35.9368141","Longitude":"14.4577393","Name":"Bahar ic-Caghaq"},{"Latitude":"36.0272416","Longitude":"14.2865748","Name":"Bahhara"},{"Latitude":"35.8609450","Longitude":"14.5698878","Name":"Bahrija"},{"Latitude":"35.9264528","Longitude":"14.3559388","Name":"Bakka tac-Carcara"},{"Latitude":"35.9106414","Longitude":"14.4696840","Name":"Balal"},{"Latitude":"35.8826407","Longitude":"14.4932549","Name":"Balbi"},{"Latitude":"35.9030601","Longitude":"14.4317922","Name":"Ballottra"},{"Latitude":"35.9080218","Longitude":"14.4744262","Name":"Ballut"},{"Latitude":"35.8274701","Longitude":"14.5277902","Name":"Bandli"},{"Latitude":"35.9097857","Longitude":"14.4842033","Name":"Barbagann"},{"Latitude":"35.9202917","Longitude":"14.3651337","Name":"Barbara"},{"Latitude":"35.9641098","Longitude":"14.3611359","Name":"Barkazza"},{"Latitude":"35.8348798","Longitude":"14.5442948","Name":"Barrakki"},{"Latitude":"35.8967760","Longitude":"14.5158952","Name":"Barriera Wharf"},{"Latitude":"35.8972537","Longitude":"14.5180765","Name":"Barriera Wharf, Xatt il Barriera"},{"Latitude":"35.8840532","Longitude":"14.4002695","Name":"Bartolomew"},{"Latitude":"35.8449152","Longitude":"14.4653855","Name":"Barumbara"},{"Latitude":"35.8755608","Longitude":"14.4421396","Name":"Baruni V Azzopardi"},{"Latitude":"35.9068971","Longitude":"14.4790255","Name":"Baruża"},{"Latitude":"35.9082706","Longitude":"14.4807523","Name":"Battaljun"},{"Latitude":"35.8884358","Longitude":"14.4720767","Name":"Batterija"},{"Latitude":"35.8693801","Longitude":"14.5639902","Name":"Batterija taz Zonqor"},{"Latitude":"35.8773173","Longitude":"14.4383322","Name":"Batu"},{"Latitude":"35.9269557","Longitude":"14.3979237","Name":"Bdiewa"},{"Latitude":"35.9260888","Longitude":"14.4824722","Name":"Beata Adeodata Pisani"},{"Latitude":"35.9266561","Longitude":"14.4822128","Name":"Beatu Nazju Falzon"},{"Latitude":"35.9061293","Longitude":"14.4771660","Name":"Begonja"},{"Latitude":"35.8823775","Longitude":"14.4964367","Name":"Belt il-Ħazna"},{"Latitude":"35.9098204","Longitude":"14.4355283","Name":"Berquq"},{"Latitude":"35.8565405","Longitude":"14.5406592","Name":"Bettiegh"},{"Latitude":"35.8485267","Longitude":"14.5046550","Name":"Bettina"},{"Latitude":"35.8794525","Longitude":"14.4642470","Name":"Bhajra"},{"Latitude":"36.0377387","Longitude":"14.2520925","Name":"Biccerija"},{"Latitude":"35.8817585","Longitude":"14.5187140","Name":"Bieb Bormla"},{"Latitude":"36.0556616","Longitude":"14.2013804","Name":"Bieb il-Ghar"},{"Latitude":"35.8878545","Longitude":"14.3706587","Name":"Bieb ir-Ruwa"},{"Latitude":"36.0401499","Longitude":"14.2259639","Name":"Bies"},{"Latitude":"35.8637393","Longitude":"14.5120652","Name":"Bir Għeliem"},{"Latitude":"35.8832168","Longitude":"14.3991574","Name":"Bir il-Ljun"},{"Latitude":"36.0338607","Longitude":"14.2700701","Name":"Bir tal-Francizi"},{"Latitude":"35.8640825","Longitude":"14.5125227","Name":"Birbixkilla"},{"Latitude":"35.9112279","Longitude":"14.4876975","Name":"Birkirkara"},{"Latitude":"35.9157191","Longitude":"14.4174092","Name":"Bistra"},{"Latitude":"35.8493259","Longitude":"14.5205764","Name":"Bizzilla"},{"Latitude":"35.9019902","Longitude":"14.5123356","Name":"Boat Street"},{"Latitude":"35.8239813","Longitude":"14.5286410","Name":"Bonnici"},{"Latitude":"35.8954217","Longitude":"14.4710329","Name":"Borg Pantall-Eresco"},{"Latitude":"35.8646658","Longitude":"14.5110268","Name":"Brittanika"},{"Latitude":"35.8300277","Longitude":"14.5247570","Name":"Brolli"},{"Latitude":"35.8320379","Longitude":"14.4799775","Name":"Bronja"},{"Latitude":"35.9088461","Longitude":"14.4727377","Name":"Bruka"},{"Latitude":"35.9076622","Longitude":"14.4845459","Name":"Bufula"},{"Latitude":"35.9086284","Longitude":"14.4739472","Name":"Buganvilla"},{"Latitude":"35.8796548","Longitude":"14.3958409","Name":"Bugeja"},{"Latitude":"35.8652723","Longitude":"14.4805925","Name":"Bughadam Griz"},{"Latitude":"35.8656266","Longitude":"14.5250803","Name":"Bulebel"},{"Latitude":"35.8634798","Longitude":"14.5150469","Name":"Buleben"},{"Latitude":"35.9001972","Longitude":"14.4530960","Name":"Buontempo Estate"},{"Latitude":"35.9041553","Longitude":"14.4088000","Name":"Buqana"},{"Latitude":"35.9041680","Longitude":"14.4089298","Name":"Buqqna"},{"Latitude":"35.9346793","Longitude":"14.4144236","Name":"Burmarrad"},{"Latitude":"35.8695885","Longitude":"14.4286593","Name":"Buskett"},{"Latitude":"35.8640972","Longitude":"14.5545978","Name":"Buttiniera"},{"Latitude":"35.9176673","Longitude":"14.4285091","Name":"Bwieqi"},{"Latitude":"35.8998408","Longitude":"14.4685599","Name":"C Costa"},{"Latitude":"35.9072200","Longitude":"14.4788556","Name":"C Mallia"},{"Latitude":"35.8985310","Longitude":"14.4432409","Name":"C. Farrugia"},{"Latitude":"35.8510374","Longitude":"14.5327411","Name":"Carmelo Carabott"},{"Latitude":"35.9128216","Longitude":"14.4277890","Name":"Carmelo Dimech"},{"Latitude":"35.8779924","Longitude":"14.5200280","Name":"Carmelo Mifsud bonnici"},{"Latitude":"35.9136025","Longitude":"14.4333315","Name":"Carmelo Schembri"},{"Latitude":"35.8953113","Longitude":"14.5111107","Name":"Castille Square"},{"Latitude":"35.8954134","Longitude":"14.5117061","Name":"Castille Street"},{"Latitude":"36.0363457","Longitude":"14.2420601","Name":"Cawla"},{"Latitude":"35.8608776","Longitude":"14.5319866","Name":"Cawsli"},{"Latitude":"35.9079430","Longitude":"14.4732542","Name":"Cedru"},{"Latitude":"36.0235296","Longitude":"14.2866765","Name":"Cens l-Gharus"},{"Latitude":"35.8885863","Longitude":"14.5209213","Name":"Centenarju tal-Parrocca"},{"Latitude":"35.8778714","Longitude":"14.5194970","Name":"Cetta Mintoff"},{"Latitude":"35.8981769","Longitude":"14.4721926","Name":"Cezalpina"},{"Latitude":"35.9097056","Longitude":"14.4291320","Name":"Charles Vassallo"},{"Latitude":"35.9079679","Longitude":"14.4794705","Name":"Cieda"},{"Latitude":"35.9113673","Longitude":"14.4378172","Name":"Cili"},{"Latitude":"35.9088461","Longitude":"14.4727377","Name":"Cipress"},{"Latitude":"35.9087327","Longitude":"14.4717410","Name":"Cirasa"},{"Latitude":"35.9183644","Longitude":"14.4255503","Name":"Civil Defence"},{"Latitude":"35.8948562","Longitude":"14.4883044","Name":"Clarence"},{"Latitude":"35.8758675","Longitude":"14.5104587","Name":"Cospicua"},{"Latitude":"35.8619122","Longitude":"14.5589881","Name":"Crieki"},{"Latitude":"35.8923307","Longitude":"14.5092066","Name":"Crucifix Hill"},{"Latitude":"35.9087558","Longitude":"14.4804281","Name":"Cuze Colombci"},{"Latitude":"35.9217508","Longitude":"14.3647775","Name":"Dahar"},{"Latitude":"36.0715741","Longitude":"14.2021104","Name":"Dahla ta Abdilla"},{"Latitude":"36.0564352","Longitude":"14.2639234","Name":"Dahla ta Bullara"},{"Latitude":"36.0452487","Longitude":"14.3040053","Name":"Dahla ta Gazaman"},{"Latitude":"36.0557353","Longitude":"14.2977950","Name":"Dahla ta San Blas"},{"Latitude":"36.0608862","Longitude":"14.2582928","Name":"Dahla ta' Ghajn Damma"},{"Latitude":"36.0411554","Longitude":"14.2564503","Name":"Dahla ta' Ghajn Lukin"},{"Latitude":"36.0511079","Longitude":"14.2961776","Name":"Dahla ta' San Blas"},{"Latitude":"36.0220723","Longitude":"14.2734180","Name":"Dahla tal-Aghma"},{"Latitude":"36.0424606","Longitude":"14.3059882","Name":"Dahla tal-Knisja"},{"Latitude":"36.0556845","Longitude":"14.2034453","Name":"Dahla tal-Kuna"},{"Latitude":"36.0570105","Longitude":"14.2911778","Name":"Dahla tax-Xaghri"},{"Latitude":"36.0304127","Longitude":"14.3081956","Name":"Dahla taz-Zewwieqa"},{"Latitude":"35.8949012","Longitude":"14.5131792","Name":"Dahlet Gnien is Sultan"},{"Latitude":"35.8968901","Longitude":"14.4450502","Name":"Dahlet Ic-Cawsli"},{"Latitude":"35.8970558","Longitude":"14.4437570","Name":"Dahlet Ic-Cipress"},{"Latitude":"36.0400863","Longitude":"14.3005521","Name":"Dahlet Ix-Xagħri Ta' Barbra"},{"Latitude":"35.8967762","Longitude":"14.4406477","Name":"Dahlet L-Istringitur"},{"Latitude":"36.0557932","Longitude":"14.2074376","Name":"Dahlet Pawluzzu"},{"Latitude":"35.8561785","Longitude":"14.5406736","Name":"Dahlet il-Qadi Nru 2"},{"Latitude":"35.8441254","Longitude":"14.4674833","Name":"Dahlet l-Isptar il-Qadim"},{"Latitude":"35.8968476","Longitude":"14.4434585","Name":"Dahlet l-Oleandri"},{"Latitude":"35.9148143","Longitude":"14.4686342","Name":"Dalja"},{"Latitude":"35.8917295","Longitude":"14.3987128","Name":"Dalji"},{"Latitude":"35.8905989","Longitude":"14.4751931","Name":"Dalli"},{"Latitude":"35.8637973","Longitude":"14.5143673","Name":"Daniel Cecy"},{"Latitude":"35.8450965","Longitude":"14.4845939","Name":"Danny Cremona"},{"Latitude":"35.8930057","Longitude":"14.4655752","Name":"Dar Tal-Kleru"},{"Latitude":"35.8509566","Longitude":"14.5071110","Name":"Dawret Hal-Ghaxaq"},{"Latitude":"35.8610900","Longitude":"14.5718877","Name":"Dawret It-Torri"},{"Latitude":"35.8508709","Longitude":"14.5029404","Name":"Dawret il-Gudja"},{"Latitude":"35.9524002","Longitude":"14.4118856","Name":"Dawret il-Gżejjer"},{"Latitude":"35.8672094","Longitude":"14.5725479","Name":"Dawret il-Kunsill tal-Ewropa"},{"Latitude":"35.8283078","Longitude":"14.5329529","Name":"Dawret il-Qalb Imqaddsa"},{"Latitude":"35.9194453","Longitude":"14.4310955","Name":"Dawret il-Wied"},{"Latitude":"35.8620116","Longitude":"14.5085347","Name":"Dawret it-Torri"},{"Latitude":"35.9668706","Longitude":"14.3588104","Name":"Dawret it-Tunnara"},{"Latitude":"35.8846101","Longitude":"14.5534103","Name":"Dawret ix-Xatt"},{"Latitude":"35.8828315","Longitude":"14.5286613","Name":"Dawret l-Isptar"},{"Latitude":"36.0601694","Longitude":"14.1991759","Name":"Daħla tal-Maxwell"},{"Latitude":"35.8826293","Longitude":"14.3933171","Name":"Daħlet id-Dejr"},{"Latitude":"35.8553417","Longitude":"14.5397013","Name":"Daħlet il-Kamumila 2"},{"Latitude":"35.8147369","Longitude":"14.5180011","Name":"Daħlet il-Mitjar il-Qadim"},{"Latitude":"35.9589599","Longitude":"14.3706783","Name":"Daħlet is-Sardinell"},{"Latitude":"36.0308781","Longitude":"14.2329515","Name":"Daħlet l-Isideri"},{"Latitude":"35.8417222","Longitude":"14.5415895","Name":"Daħlet Ġużeppi Stagno"},{"Latitude":"35.9229467","Longitude":"14.4394528","Name":"De Saavedra"},{"Latitude":"35.8968104","Longitude":"14.4735511","Name":"Deacon"},{"Latitude":"35.9128640","Longitude":"14.4451774","Name":"Dejoa"},{"Latitude":"35.8532620","Longitude":"14.5368550","Name":"Delimara"},{"Latitude":"35.8801579","Longitude":"14.4925969","Name":"Derby"},{"Latitude":"35.8933104","Longitude":"14.4628482","Name":"Dicembru 1630"},{"Latitude":"35.9168681","Longitude":"14.4176225","Name":"Difiza Civili"},{"Latitude":"35.8620409","Longitude":"14.5669981","Name":"Dolmen"},{"Latitude":"35.9251242","Longitude":"14.4931916","Name":"Dragonara"},{"Latitude":"35.8851755","Longitude":"14.4878325","Name":"Duka Ta Edinburgh"},{"Latitude":"35.8769989","Longitude":"14.5350369","Name":"Dukkar"},{"Latitude":"35.8550634","Longitude":"14.5411466","Name":"Dulliegh"},{"Latitude":"35.8718898","Longitude":"14.4402321","Name":"Duluri"},{"Latitude":"36.0588489","Longitude":"14.2074228","Name":"Dun Alwig Mizzi"},{"Latitude":"35.9283742","Longitude":"14.4790667","Name":"Dun Amabile Sisner"},{"Latitude":"35.9138323","Longitude":"14.4294502","Name":"Dun Ang Dingli"},{"Latitude":"35.8586353","Longitude":"14.5284452","Name":"Dun Bert Sant"},{"Latitude":"35.9201388","Longitude":"14.3662630","Name":"Dun Edgar"},{"Latitude":"36.0276035","Longitude":"14.2880727","Name":"Dun Frangisk Mizzi"},{"Latitude":"36.0731323","Longitude":"14.2366900","Name":"Dun Frangisk Stivala"},{"Latitude":"35.9097440","Longitude":"14.4689162","Name":"Dun Frans Camilleri"},{"Latitude":"35.8838395","Longitude":"14.3967373","Name":"Dun Franġisk Catania"},{"Latitude":"35.8599489","Longitude":"14.4866454","Name":"Dun G Callus"},{"Latitude":"35.8606075","Longitude":"14.5309524","Name":"Dun G Theuma"},{"Latitude":"35.9212977","Longitude":"14.3663687","Name":"Dun G. Micallef"},{"Latitude":"35.9224166","Longitude":"14.3662774","Name":"Dun G.Micallef"},{"Latitude":"35.8606771","Longitude":"14.5295237","Name":"Dun Gakbu Tortella"},{"Latitude":"35.9168369","Longitude":"14.4541394","Name":"Dun GioBatta Chetcuti"},{"Latitude":"35.8743072","Longitude":"14.4660472","Name":"Dun Gorg Fenech"},{"Latitude":"35.8672018","Longitude":"14.5170387","Name":"Dun Guzepp Calleja"},{"Latitude":"36.0651871","Longitude":"14.2163418","Name":"Dun Guzepp Cassar"},{"Latitude":"35.8515758","Longitude":"14.5080815","Name":"Dun Guzepp Demicoli"},{"Latitude":"35.8682091","Longitude":"14.5171716","Name":"Dun Guzepp Gonzi"},{"Latitude":"35.8560243","Longitude":"14.4877394","Name":"Dun Guzepp Micallef"},{"Latitude":"35.8741899","Longitude":"14.4614695","Name":"Dun Gwann Cilia"},{"Latitude":"35.8512184","Longitude":"14.5349175","Name":"Dun Gwann Tabone"},{"Latitude":"35.8931748","Longitude":"14.4846271","Name":"Dun Kalcidon Schembri"},{"Latitude":"35.8515192","Longitude":"14.5368295","Name":"Dun Lawrwnz Degabriele"},{"Latitude":"35.8479344","Longitude":"14.5159225","Name":"Dun Mattew Sciriha"},{"Latitude":"35.8581574","Longitude":"14.5293779","Name":"Dun Pawl Brunchel"},{"Latitude":"35.8500018","Longitude":"14.5036555","Name":"Dun Pietru Farrugia"},{"Latitude":"36.0556234","Longitude":"14.2020077","Name":"Dun S Portell"},{"Latitude":"36.0269262","Longitude":"14.2855746","Name":"Dun Speditu Tabone"},{"Latitude":"35.8963569","Longitude":"14.4732639","Name":"Dun Vincenz Saliba"},{"Latitude":"35.8918637","Longitude":"14.4772568","Name":"Dun Xand Cortis"},{"Latitude":"35.8223177","Longitude":"14.5255250","Name":"Dun Ġorg Zammit"},{"Latitude":"36.0475500","Longitude":"14.2926939","Name":"Dun Ġwann Camilleri"},{"Latitude":"35.9097351","Longitude":"14.4839348","Name":"Durrajsa"},{"Latitude":"35.8990539","Longitude":"14.4303143","Name":"Durumblat"},{"Latitude":"35.8794820","Longitude":"14.5187634","Name":"Dwardu"},{"Latitude":"35.8518438","Longitude":"14.5336066","Name":"Dwiemes"},{"Latitude":"35.9106811","Longitude":"14.4731984","Name":"E.Cremona"},{"Latitude":"35.8871621","Longitude":"14.4774033","Name":"Emanuel Attard"},{"Latitude":"35.8879460","Longitude":"14.4791287","Name":"Emanuel Attartd"},{"Latitude":"35.8504135","Longitude":"14.5288651","Name":"Emanuel Cannataci"},{"Latitude":"35.8781175","Longitude":"14.3982405","Name":"Emanuel Stivala"},{"Latitude":"35.9472064","Longitude":"14.4041717","Name":"Emanuele Pinto"},{"Latitude":"35.8926774","Longitude":"14.4642773","Name":"Emmanuel Schembri"},{"Latitude":"35.9034429","Longitude":"14.4940441","Name":"Empire Stadium"},{"Latitude":"35.8992952","Longitude":"14.4462889","Name":"Enejja"},{"Latitude":"36.0422752","Longitude":"14.2403021","Name":"Enrico Mizzi"},{"Latitude":"35.8798449","Longitude":"14.4820678","Name":"Erba Qaddisin"},{"Latitude":"35.9439665","Longitude":"14.4495462","Name":"Ex Coast Road"},{"Latitude":"35.9218355","Longitude":"14.4761087","Name":"F. Assenza"},{"Latitude":"35.8943789","Longitude":"14.4656252","Name":"F. Busuttil"},{"Latitude":"35.9094000","Longitude":"14.4232309","Name":"Fabrizio Bartolo"},{"Latitude":"35.9064335","Longitude":"14.4869250","Name":"Falkun"},{"Latitude":"35.8759910","Longitude":"14.5433695","Name":"Faqqus"},{"Latitude":"35.9188143","Longitude":"14.4300712","Name":"Fdalijiet Preistorici"},{"Latitude":"35.8547862","Longitude":"14.5388268","Name":"Fejgel"},{"Latitude":"36.0574358","Longitude":"14.2072583","Name":"Felic Grech"},{"Latitude":"35.8564765","Longitude":"14.5373740","Name":"Felicia Abela"},{"Latitude":"35.8593081","Longitude":"14.5296011","Name":"Ferdinand Mattei"},{"Latitude":"35.9250317","Longitude":"14.4528048","Name":"Ferdinandu"},{"Latitude":"35.8467141","Longitude":"14.5010614","Name":"Fidwa"},{"Latitude":"35.9089305","Longitude":"14.4741845","Name":"Fikus"},{"Latitude":"35.9083952","Longitude":"14.4855381","Name":"Fjamma"},{"Latitude":"35.8464698","Longitude":"14.4651997","Name":"Fjuri"},{"Latitude":"35.8934592","Longitude":"14.4737347","Name":"Fleur-de-Lys Junction"},{"Latitude":"35.9515215","Longitude":"14.4180649","Name":"Fliegu"},{"Latitude":"35.8796178","Longitude":"14.4666245","Name":"Flores"},{"Latitude":"35.8984151","Longitude":"14.4732429","Name":"Fonsu M. Galea"},{"Latitude":"35.9261385","Longitude":"14.4810422","Name":"Forti Pembroke"},{"Latitude":"35.8075695","Longitude":"14.5301246","Name":"Fortizza"},{"Latitude":"35.9175124","Longitude":"14.4274011","Name":"Fortizza tal-Mosta"},{"Latitude":"35.8545576","Longitude":"14.5386707","Name":"Fossa Tal-Qamh Żagħrun"},{"Latitude":"35.8762351","Longitude":"14.5132807","Name":"Fr Charles Plater"},{"Latitude":"35.8635074","Longitude":"14.5170210","Name":"Francesco Crispi"},{"Latitude":"35.9268621","Longitude":"14.4835962","Name":"Francesco Wizzino"},{"Latitude":"35.8806285","Longitude":"14.5419135","Name":"Francis X Attard"},{"Latitude":"36.0430776","Longitude":"14.2975900","Name":"Frangisk Attard"},{"Latitude":"35.9109849","Longitude":"14.4346646","Name":"Frangisku Pisani"},{"Latitude":"35.8502894","Longitude":"14.5279322","Name":"Frank Ghio"},{"Latitude":"35.8905103","Longitude":"14.3980203","Name":"Frans Galea"},{"Latitude":"35.9170728","Longitude":"14.4372259","Name":"Freemantle"},{"Latitude":"36.0606781","Longitude":"14.2089866","Name":"Frenc tal-Gharb"},{"Latitude":"35.8922979","Longitude":"14.3989606","Name":"Frezja"},{"Latitude":"35.9375356","Longitude":"14.4545426","Name":"Fugassa"},{"Latitude":"35.8814043","Longitude":"14.5192722","Name":"Fuq San Pawl"},{"Latitude":"35.8801014","Longitude":"14.5233700","Name":"Fuq Verdala"},{"Latitude":"35.8858596","Longitude":"14.5247452","Name":"Fuq il-Fortini"},{"Latitude":"35.8820626","Longitude":"14.5283574","Name":"Fuq tal-Hawli"},{"Latitude":"35.9077319","Longitude":"14.4876807","Name":"G Despott"},{"Latitude":"35.9113186","Longitude":"14.4689916","Name":"G Grech"},{"Latitude":"35.8196487","Longitude":"14.5242871","Name":"G Marconi"},{"Latitude":"35.8596642","Longitude":"14.4936707","Name":"G Saliba"},{"Latitude":"35.8588688","Longitude":"14.4860628","Name":"G Spiteri"},{"Latitude":"35.9128702","Longitude":"14.4371174","Name":"G Vitale"},{"Latitude":"35.9079306","Longitude":"14.4696799","Name":"G abela"},{"Latitude":"35.8210844","Longitude":"14.5243071","Name":"G garibaldi"},{"Latitude":"35.8952933","Longitude":"14.4725752","Name":"G. A. Ciantar"},{"Latitude":"35.8636862","Longitude":"14.5137459","Name":"G. Buhagiar"},{"Latitude":"35.9191219","Longitude":"14.3652279","Name":"G. Camilleri"},{"Latitude":"35.8981797","Longitude":"14.4773771","Name":"G. Psaila"},{"Latitude":"35.8945108","Longitude":"14.4735923","Name":"G. Vassallo"},{"Latitude":"35.8627557","Longitude":"14.5641989","Name":"G.Lanzon"},{"Latitude":"35.9199195","Longitude":"14.4443792","Name":"G.Sandys"},{"Latitude":"35.8878450","Longitude":"14.5242846","Name":"GF Abela"},{"Latitude":"35.9079511","Longitude":"14.4728582","Name":"Gakaranda"},{"Latitude":"35.9094947","Longitude":"14.4846447","Name":"Gallina"},{"Latitude":"35.8187938","Longitude":"14.5219970","Name":"Gandoffla"},{"Latitude":"35.8637864","Longitude":"14.5670223","Name":"Gandoffli"},{"Latitude":"35.8685153","Longitude":"14.4479820","Name":"Ganni Cilja"},{"Latitude":"35.8627823","Longitude":"14.5146534","Name":"Ganni Faure"},{"Latitude":"35.9138323","Longitude":"14.4294502","Name":"Ganni Vella"},{"Latitude":"35.8502489","Longitude":"14.5179998","Name":"Garakol"},{"Latitude":"35.9072852","Longitude":"14.4854534","Name":"Gardell"},{"Latitude":"35.8747031","Longitude":"14.5240135","Name":"Gardjola"},{"Latitude":"35.8823563","Longitude":"14.3908330","Name":"Gargir"},{"Latitude":"35.9176906","Longitude":"14.4527877","Name":"Gaspare Formica"},{"Latitude":"36.0293190","Longitude":"14.2881632","Name":"Gawwi"},{"Latitude":"35.9123891","Longitude":"14.4437525","Name":"Gdida"},{"Latitude":"35.8626414","Longitude":"14.5596547","Name":"Gebel Hanxul"},{"Latitude":"35.9105699","Longitude":"14.4364467","Name":"Gellews"},{"Latitude":"36.0475627","Longitude":"14.2570837","Name":"George McAdam"},{"Latitude":"35.9106780","Longitude":"14.4705685","Name":"Gerolmo Ganni"},{"Latitude":"35.9083283","Longitude":"14.4742116","Name":"Gewza"},{"Latitude":"35.8812159","Longitude":"14.4907817","Name":"Ghabex"},{"Latitude":"35.8798459","Longitude":"14.5178014","Name":"Ghajn Dwieli"},{"Latitude":"36.0431940","Longitude":"14.2167466","Name":"Ghajn Ghabdun"},{"Latitude":"35.8862120","Longitude":"14.4002217","Name":"Ghajn Hammam"},{"Latitude":"35.8848025","Longitude":"14.3856403","Name":"Ghajn Klieb"},{"Latitude":"36.0473919","Longitude":"14.2565338","Name":"Ghajn Lukin"},{"Latitude":"35.8345456","Longitude":"14.5432269","Name":"Ghajn Osiris"},{"Latitude":"35.9110913","Longitude":"14.4387830","Name":"Ghakkies"},{"Latitude":"35.9059873","Longitude":"14.4127195","Name":"Ghansal Ikhal"},{"Latitude":"35.8618670","Longitude":"14.5038509","Name":"Ghansar"},{"Latitude":"35.9502349","Longitude":"14.3842507","Name":"Ghar Berbah"},{"Latitude":"35.8476396","Longitude":"14.5262916","Name":"Ghar Dalam"},{"Latitude":"35.8073958","Longitude":"14.5214941","Name":"Ghar Hasan"},{"Latitude":"35.9151825","Longitude":"14.4228655","Name":"Gharghar"},{"Latitude":"35.8825868","Longitude":"14.4710199","Name":"Gharghar 1979"},{"Latitude":"35.9047458","Longitude":"14.4631748","Name":"Gharghur"},{"Latitude":"35.9408002","Longitude":"14.3553127","Name":"Ghasafar"},{"Latitude":"35.8909724","Longitude":"14.5259031","Name":"Ghassieli"},{"Latitude":"35.9197664","Longitude":"14.3634056","Name":"Ghelejjel"},{"Latitude":"35.8949854","Longitude":"14.3697187","Name":"Ghemieri, l-Irziezet ta"},{"Latitude":"35.9337513","Longitude":"14.4575390","Name":"Gherien"},{"Latitude":"35.9186252","Longitude":"14.4312528","Name":"Gherim Tal-Wied"},{"Latitude":"35.8914574","Longitude":"14.4761238","Name":"Ghollieq"},{"Latitude":"36.0251134","Longitude":"14.2392457","Name":"Ghoxrin ta' Lulju"},{"Latitude":"35.9234754","Longitude":"14.4806937","Name":"Giacchino Lebrun"},{"Latitude":"35.9206959","Longitude":"14.4459141","Name":"Giacomo Bosio"},{"Latitude":"35.8735542","Longitude":"14.4212044","Name":"Gianpula"},{"Latitude":"35.8930983","Longitude":"14.3995945","Name":"Gilju"},{"Latitude":"35.9115901","Longitude":"14.4699638","Name":"Giorgio Preca"},{"Latitude":"35.8867692","Longitude":"14.4845338","Name":"Giovanni Barbara"},{"Latitude":"35.8999320","Longitude":"14.4470943","Name":"Giraldu Azzopardi"},{"Latitude":"35.9234167","Longitude":"14.3912225","Name":"Girna"},{"Latitude":"35.8506794","Longitude":"14.5188566","Name":"Gistakor"},{"Latitude":"35.8803791","Longitude":"14.5183084","Name":"Giuliermu"},{"Latitude":"35.8560664","Longitude":"14.5302564","Name":"Gius Caruana"},{"Latitude":"35.9116684","Longitude":"14.4750755","Name":"Giuseppe Briffa"},{"Latitude":"35.9235236","Longitude":"14.4555833","Name":"Giuseppe Cali"},{"Latitude":"36.0349246","Longitude":"14.2531717","Name":"Gizi"},{"Latitude":"35.8928053","Longitude":"14.3996752","Name":"Gizimin"},{"Latitude":"36.0327360","Longitude":"14.2471620","Name":"Gnien is-Sultan"},{"Latitude":"36.0399312","Longitude":"14.2280737","Name":"Gojjin"},{"Latitude":"35.8971022","Longitude":"14.4754023","Name":"Gorg Borg St"},{"Latitude":"35.8738425","Longitude":"14.4624407","Name":"Gorg Zammit"},{"Latitude":"35.8992502","Longitude":"14.4764039","Name":"Graffitti Navali"},{"Latitude":"35.8961879","Longitude":"14.5061706","Name":"Great Siege Road"},{"Latitude":"35.8978656","Longitude":"14.4709706","Name":"Grech Delicata"},{"Latitude":"35.8837989","Longitude":"14.5249134","Name":"Gublew tal-Fidda"},{"Latitude":"35.8493502","Longitude":"14.5143945","Name":"Gudja"},{"Latitude":"35.8834908","Longitude":"14.4863421","Name":"Guze Bajada"},{"Latitude":"35.9089786","Longitude":"14.4696035","Name":"Guze Borg"},{"Latitude":"35.8748890","Longitude":"14.4632210","Name":"Guze Cardona"},{"Latitude":"36.0387056","Longitude":"14.2427052","Name":"Guze Cremona"},{"Latitude":"35.8768813","Longitude":"14.4718479","Name":"Guze Galea"},{"Latitude":"36.0371841","Longitude":"14.2401682","Name":"Guze Micallef"},{"Latitude":"35.8759323","Longitude":"14.4686406","Name":"Guze Muscat Azzopardi"},{"Latitude":"36.0413666","Longitude":"14.2294059","Name":"Guzeppi Briffa"},{"Latitude":"35.9133297","Longitude":"14.4280424","Name":"Guzeppi Hyzler"},{"Latitude":"35.8629599","Longitude":"14.5160160","Name":"Guzeppi Montebello"},{"Latitude":"35.9046135","Longitude":"14.4536931","Name":"Gwann Mamo"},{"Latitude":"35.9171497","Longitude":"14.4396353","Name":"Gwejdja"},{"Latitude":"35.9019682","Longitude":"14.4674546","Name":"Għar Il-Ġobon"},{"Latitude":"35.9169815","Longitude":"14.4474488","Name":"Għargħur"},{"Latitude":"35.9226451","Longitude":"14.4456175","Name":"H.Megiser"},{"Latitude":"35.9403717","Longitude":"14.3509231","Name":"Habb Il-Qamm"},{"Latitude":"35.8539666","Longitude":"14.5401857","Name":"Habb il-Qamh"},{"Latitude":"35.9167708","Longitude":"14.4216412","Name":"Haddied"},{"Latitude":"35.9156343","Longitude":"14.4379652","Name":"Hal Musulmett"},{"Latitude":"35.8392771","Longitude":"14.4827136","Name":"Hal Safi"},{"Latitude":"35.8952473","Longitude":"14.4655162","Name":"Hal-Qormi"},{"Latitude":"35.9226451","Longitude":"14.4456175","Name":"Hannibal Scicluna"},{"Latitude":"35.8806078","Longitude":"14.5209092","Name":"Hanover"},{"Latitude":"35.8700497","Longitude":"14.5660315","Name":"Haraq"},{"Latitude":"35.8466519","Longitude":"14.5213485","Name":"Hareb"},{"Latitude":"35.9086152","Longitude":"14.4730889","Name":"Harrub"},{"Latitude":"35.9108230","Longitude":"14.4359050","Name":"Hawh"},{"Latitude":"35.9224847","Longitude":"14.3653955","Name":"Hawlija"},{"Latitude":"35.8847358","Longitude":"14.5435351","Name":"Haż Żabbar"},{"Latitude":"35.8558671","Longitude":"14.5290878","Name":"Hector Dalli"},{"Latitude":"35.8895960","Longitude":"14.4132910","Name":"Hemsija"},{"Latitude":"35.8893545","Longitude":"14.4934859","Name":"Herbert Ganado"},{"Latitude":"35.9109582","Longitude":"14.4697742","Name":"Hgejjeg"},{"Latitude":"35.9079304","Longitude":"14.4820599","Name":"Hida"},{"Latitude":"35.8732839","Longitude":"14.3726468","Name":"Hofret ir-Rizz, Limiti ta"},{"Latitude":"35.8723578","Longitude":"14.5216762","Name":"Hompesch Road"},{"Latitude":"36.0388331","Longitude":"14.2266668","Name":"Horg"},{"Latitude":"36.0336081","Longitude":"14.2707426","Name":"Horob"},{"Latitude":"35.8688104","Longitude":"14.5656553","Name":"Hurd's bank"},{"Latitude":"35.9069569","Longitude":"14.4880884","Name":"Huttaf"},{"Latitude":"35.8719199","Longitude":"14.5153180","Name":"Huttafa"},{"Latitude":"35.9114817","Longitude":"14.4739071","Name":"Hyzler"},{"Latitude":"35.8800849","Longitude":"14.5435983","Name":"IL-Bikri"},{"Latitude":"35.8791880","Longitude":"14.5415211","Name":"IL-Ħofra"},{"Latitude":"35.8864872","Longitude":"14.3581901","Name":"Ic-Cens l-iswed"},{"Latitude":"35.9168610","Longitude":"14.4298395","Name":"Id-Dura"},{"Latitude":"35.8732125","Longitude":"14.5062627","Name":"Il-Belt Valletta"},{"Latitude":"35.9098110","Longitude":"14.4068430","Name":"Il-Bezbizija, Limiti tal"},{"Latitude":"35.9115629","Longitude":"14.4107170","Name":"Il-Beżbiżija, Limiti ta'"},{"Latitude":"35.9106404","Longitude":"14.4858441","Name":"Il-Bibla"},{"Latitude":"35.8435918","Longitude":"14.5494200","Name":"Il-Bizantini"},{"Latitude":"35.9218435","Longitude":"14.3552304","Name":"Il-Bokka Taċ-Ċarċara"},{"Latitude":"35.9106404","Longitude":"14.4858441","Name":"Il-Buqrajq"},{"Latitude":"35.8951459","Longitude":"14.4416694","Name":"Il-Flora"},{"Latitude":"35.8815916","Longitude":"14.5182182","Name":"Il-Fortini ta' Feic"},{"Latitude":"35.9277904","Longitude":"14.4620793","Name":"Il-Fortizza"},{"Latitude":"35.8919357","Longitude":"14.5015585","Name":"Il-Foss Ta'Notre Dame"},{"Latitude":"35.8874952","Longitude":"14.5242052","Name":"Il-Foss tas-Sur"},{"Latitude":"35.9190337","Longitude":"14.4288580","Name":"Il-Fuhhar"},{"Latitude":"35.9197421","Longitude":"14.3733592","Name":"Il-Ganfra"},{"Latitude":"35.9271757","Longitude":"14.4690683","Name":"Il-Gladjoli"},{"Latitude":"35.9263125","Longitude":"14.4636186","Name":"Il-Gmiel"},{"Latitude":"35.9065559","Longitude":"14.4828101","Name":"Il-Gojjin"},{"Latitude":"35.9275302","Longitude":"14.4699309","Name":"Il-Hummejr"},{"Latitude":"35.8575936","Longitude":"14.5357356","Name":"Il-Kanonku Dedomenico"},{"Latitude":"35.9209274","Longitude":"14.4751442","Name":"Il-Kartocc"},{"Latitude":"35.9222931","Longitude":"14.4650022","Name":"Il-Lbic"},{"Latitude":"35.8938218","Longitude":"14.4688626","Name":"Il-Madonna Ta' Pompej"},{"Latitude":"35.9355250","Longitude":"14.4535414","Name":"Il-Maghtab"},{"Latitude":"35.9241150","Longitude":"14.4662413","Name":"Il-Majjistral"},{"Latitude":"35.8940730","Longitude":"14.5057164","Name":"Il-Mall"},{"Latitude":"35.9203327","Longitude":"14.4748046","Name":"Il-Mezza"},{"Latitude":"35.9160269","Longitude":"14.4302858","Name":"Il-Midbah"},{"Latitude":"35.8733295","Longitude":"14.5254040","Name":"Il-Misk"},{"Latitude":"35.8590026","Longitude":"14.3829561","Name":"Il-Mithna"},{"Latitude":"35.8955829","Longitude":"14.4421815","Name":"Il-Mixtla"},{"Latitude":"35.8806030","Longitude":"14.4964523","Name":"Il-Moll ta-Knisja"},{"Latitude":"35.8872637","Longitude":"14.5232796","Name":"Il-Palazz ta' L-isqof"},{"Latitude":"35.8877840","Longitude":"14.3984403","Name":"Il-Pont ta' l-Imtarfa"},{"Latitude":"35.8862357","Longitude":"14.3800710","Name":"Il-Pont tal-Fiddien"},{"Latitude":"35.9265661","Longitude":"14.4695587","Name":"Il-Prekursur"},{"Latitude":"35.9088668","Longitude":"14.4530910","Name":"Il-Prinjol"},{"Latitude":"35.8939863","Longitude":"14.4409952","Name":"Il-Pruna"},{"Latitude":"35.8257276","Longitude":"14.5251101","Name":"Il-Qolla"},{"Latitude":"35.9246926","Longitude":"14.4645855","Name":"Il-Veduta"},{"Latitude":"35.9076054","Longitude":"14.4897711","Name":"Il-Virdun"},{"Latitude":"35.8916522","Longitude":"14.5096045","Name":"Il-Vittimi Furjianizi"},{"Latitude":"36.0506059","Longitude":"14.2567195","Name":"Il-Wesgha tal-Kortoll"},{"Latitude":"35.8868910","Longitude":"14.4688814","Name":"Imhazen"},{"Latitude":"35.8142097","Longitude":"14.5283400","Name":"Immakulata Kuncizzjoni"},{"Latitude":"35.9222670","Longitude":"14.3773337","Name":"Imqades"},{"Latitude":"35.9081391","Longitude":"14.4810717","Name":"Imsierah"},{"Latitude":"35.9255634","Longitude":"14.4687809","Name":"In-Narcis"},{"Latitude":"35.8434859","Longitude":"14.4692896","Name":"In-Nazzarenu"},{"Latitude":"35.8764522","Longitude":"14.4429901","Name":"In-Niżla Ta' San Pawl"},{"Latitude":"35.9517100","Longitude":"14.4182400","Name":"Indipendenza"},{"Latitude":"35.8801620","Longitude":"14.5422856","Name":"Indivja"},{"Latitude":"35.8904239","Longitude":"14.4726351","Name":"Indjana"},{"Latitude":"35.9104988","Longitude":"14.4350528","Name":"Indri Bezzina"},{"Latitude":"35.8485322","Longitude":"14.4846914","Name":"Industrija"},{"Latitude":"35.8399815","Longitude":"14.4849853","Name":"Infanterija"},{"Latitude":"35.9106788","Longitude":"14.4734339","Name":"Inglott"},{"Latitude":"35.8600593","Longitude":"14.3786473","Name":"Inguanez"},{"Latitude":"35.8807897","Longitude":"14.5197225","Name":"Inkurunazzjoni"},{"Latitude":"35.8784327","Longitude":"14.4389468","Name":"Insig"},{"Latitude":"35.8241227","Longitude":"14.5222968","Name":"Ir-Raddiena"},{"Latitude":"35.9117892","Longitude":"14.4323024","Name":"Ir-Raghajja"},{"Latitude":"35.9408002","Longitude":"14.3553127","Name":"Ir-Rahhala"},{"Latitude":"35.9142215","Longitude":"14.4937512","Name":"Ir-Rampa Ta'San Ǵiljan"},{"Latitude":"35.8989902","Longitude":"14.5003731","Name":"Ir-Rampa Ta'Xbiex"},{"Latitude":"35.9071960","Longitude":"14.4749393","Name":"Ir-Rummien"},{"Latitude":"35.8805815","Longitude":"14.4938970","Name":"Irham"},{"Latitude":"35.8801757","Longitude":"14.5219617","Name":"Irlandizi"},{"Latitude":"35.8765890","Longitude":"14.5204818","Name":"Is Sur ta San Gwann"},{"Latitude":"35.8824594","Longitude":"14.4027045","Name":"Is-Saqajja"},{"Latitude":"35.8830630","Longitude":"14.4030176","Name":"Is-Saqqajja"},{"Latitude":"35.9191122","Longitude":"14.3790784","Name":"Is-Sebħ"},{"Latitude":"35.8801620","Longitude":"14.5422856","Name":"Is-Selq"},{"Latitude":"35.9101099","Longitude":"14.4859822","Name":"Is-Seqer"},{"Latitude":"35.9332496","Longitude":"14.4558720","Name":"Is-Sies"},{"Latitude":"35.8607383","Longitude":"14.4447662","Name":"Is-Siggiewi"},{"Latitude":"35.9077709","Longitude":"14.4803626","Name":"Is-Sorijiet Frangiskani"},{"Latitude":"35.8790057","Longitude":"14.5231720","Name":"Is-Sur ta Santa Liena"},{"Latitude":"35.9093932","Longitude":"14.4701715","Name":"Ismek Tifhirek"},{"Latitude":"35.8823264","Longitude":"14.4859449","Name":"Isouard"},{"Latitude":"35.9104370","Longitude":"14.4853819","Name":"Ispanjulett"},{"Latitude":"35.8895005","Longitude":"14.4959638","Name":"Ispartani"},{"Latitude":"35.8769864","Longitude":"14.5106293","Name":"Isqof Buhagiar"},{"Latitude":"36.0633557","Longitude":"14.2082877","Name":"Isqof Mikiel Molina"},{"Latitude":"35.9179692","Longitude":"14.4533829","Name":"Isqof S Gaffiero"},{"Latitude":"35.9538283","Longitude":"14.3732159","Name":"It-Telgha Ta Selmun"},{"Latitude":"35.9545795","Longitude":"14.3773372","Name":"It-Telgha Ta` Selmun"},{"Latitude":"36.0499998","Longitude":"14.2984789","Name":"It-Telgha ta Wistin"},{"Latitude":"36.0449808","Longitude":"14.2389200","Name":"It-Telgħa tal-Belt"},{"Latitude":"35.9133447","Longitude":"14.5020358","Name":"It-Trejqa Tar-Regina Vittorja"},{"Latitude":"35.9100983","Longitude":"14.5097964","Name":"Ix-Xatt ta' Qui-Si-Sana"},{"Latitude":"35.9671151","Longitude":"14.3675539","Name":"Ix-Xatt ta' Santa Marija"},{"Latitude":"35.9187464","Longitude":"14.4896362","Name":"Ix-Xatt ta' Spinola"},{"Latitude":"35.9069651","Longitude":"14.5083782","Name":"Ix-Xatt ta' Tigné"},{"Latitude":"35.8873945","Longitude":"14.5206833","Name":"Ix-Xatt tal-Birgu"},{"Latitude":"35.9184188","Longitude":"14.4602028","Name":"Ix-Xwieki, Limita ta"},{"Latitude":"35.8747603","Longitude":"14.4969578","Name":"Ix-Xwieni"},{"Latitude":"35.9259665","Longitude":"14.4711927","Name":"Iz-Zerniq"},{"Latitude":"35.8914015","Longitude":"14.4814642","Name":"Iz-Zonqor"},{"Latitude":"35.8953522","Longitude":"14.4412082","Name":"Iz-Zragen"},{"Latitude":"35.9193274","Longitude":"14.3625040","Name":"Iċ-Ċagħaq"},{"Latitude":"35.8996724","Longitude":"14.4867557","Name":"Iċ-Ċirku Tal-Imsida"},{"Latitude":"35.9255626","Longitude":"14.4421794","Name":"J howard"},{"Latitude":"35.9079679","Longitude":"14.4794705","Name":"J.F Marks"},{"Latitude":"36.0427093","Longitude":"14.2458938","Name":"J.F. Kennedy"},{"Latitude":"35.8664590","Longitude":"14.5086439","Name":"Joanne Garden"},{"Latitude":"35.8885418","Longitude":"14.4925317","Name":"Joe Sciberras Street"},{"Latitude":"35.9271669","Longitude":"14.4450903","Name":"John Adye"},{"Latitude":"35.8520214","Longitude":"14.5283997","Name":"John Borg"},{"Latitude":"36.0333556","Longitude":"14.2369378","Name":"John Gaspard leMerchant"},{"Latitude":"35.8848219","Longitude":"14.4831306","Name":"Joseph Abela Scolaro"},{"Latitude":"35.8512970","Longitude":"14.5084374","Name":"Joseph Gravina"},{"Latitude":"35.8424090","Longitude":"14.5464455","Name":"Joseph M Barbara"},{"Latitude":"35.8828914","Longitude":"14.5284163","Name":"Joseph Mary Genuis"},{"Latitude":"35.9028984","Longitude":"14.4652753","Name":"Josette Galea Curmi"},{"Latitude":"35.9251491","Longitude":"14.4438369","Name":"Juan B Azzopardo"},{"Latitude":"35.9223388","Longitude":"14.4383779","Name":"Jules Verne"},{"Latitude":"35.8890875","Longitude":"14.4929456","Name":"K Darmanin"},{"Latitude":"35.8198692","Longitude":"14.5223859","Name":"K Frendo"},{"Latitude":"35.8900912","Longitude":"14.4937545","Name":"K Mifsud"},{"Latitude":"35.8828752","Longitude":"14.4861523","Name":"K abela"},{"Latitude":"35.9143311","Longitude":"14.4299544","Name":"K. Darmanin"},{"Latitude":"35.9263125","Longitude":"14.4636186","Name":"Kajjarum"},{"Latitude":"35.8142902","Longitude":"14.5340853","Name":"Kalafrana"},{"Latitude":"36.0401499","Longitude":"14.2259639","Name":"Kalandrijiet"},{"Latitude":"35.8979628","Longitude":"14.4691112","Name":"Kalcidon Gatt"},{"Latitude":"35.8932061","Longitude":"14.4758896","Name":"Kaless"},{"Latitude":"35.9030932","Longitude":"14.4653664","Name":"Kan Karmenu Pirotta"},{"Latitude":"35.8192274","Longitude":"14.5249692","Name":"Kangu"},{"Latitude":"35.8903434","Longitude":"14.4825940","Name":"Kanonku Bonnici"},{"Latitude":"36.0582772","Longitude":"14.2097311","Name":"Kanonku Frangisk Mangion"},{"Latitude":"35.8797008","Longitude":"14.3978955","Name":"Kanonku G Gatt Said"},{"Latitude":"35.9230672","Longitude":"14.4426652","Name":"Kantilena"},{"Latitude":"35.8760380","Longitude":"14.5447718","Name":"Kappar"},{"Latitude":"36.0345714","Longitude":"14.2371489","Name":"Kardinal Alessio Franchi"},{"Latitude":"35.8860560","Longitude":"14.5216479","Name":"Kardinal F Sciberras"},{"Latitude":"35.8634718","Longitude":"14.5139418","Name":"Karlu Maratta"},{"Latitude":"35.9074228","Longitude":"14.4809735","Name":"Karm longo"},{"Latitude":"35.8749219","Longitude":"14.4643784","Name":"Karmelo Camilleri"},{"Latitude":"35.9029860","Longitude":"14.4643507","Name":"Karmenu Pirotta"},{"Latitude":"36.0552421","Longitude":"14.2009444","Name":"Karmnu Grima"},{"Latitude":"35.8956381","Longitude":"14.4868031","Name":"Karozzin"},{"Latitude":"35.8835140","Longitude":"14.4032246","Name":"Karrijiet"},{"Latitude":"35.9172847","Longitude":"14.4309152","Name":"Kartaginizi"},{"Latitude":"35.9049734","Longitude":"14.4127439","Name":"Karwiela"},{"Latitude":"35.8400033","Longitude":"14.4837328","Name":"Karwija"},{"Latitude":"35.8806378","Longitude":"14.3983501","Name":"Katakombi"},{"Latitude":"35.9518190","Longitude":"14.3836305","Name":"Katerina Vitale"},{"Latitude":"35.9015513","Longitude":"14.4662094","Name":"Kav Giovanni Alentorn"},{"Latitude":"35.8634215","Longitude":"14.5156186","Name":"Kavallerija"},{"Latitude":"35.8611699","Longitude":"14.5640139","Name":"Kavallieri Ta Malta"},{"Latitude":"35.8618086","Longitude":"14.5669189","Name":"Kavetti"},{"Latitude":"35.8577951","Longitude":"14.5363404","Name":"Kebbies il-Fanali"},{"Latitude":"35.8643676","Longitude":"14.5101356","Name":"Kelinu Cachia"},{"Latitude":"36.0287898","Longitude":"14.2942073","Name":"Kemmunet"},{"Latitude":"35.9185787","Longitude":"14.3750284","Name":"Klin"},{"Latitude":"35.9404509","Longitude":"14.3532636","Name":"Knisja Il-Qadima"},{"Latitude":"35.8950828","Longitude":"14.4626737","Name":"Knisja l-Qadima"},{"Latitude":"35.9095081","Longitude":"14.4861942","Name":"Kokka"},{"Latitude":"35.8934940","Longitude":"14.5036465","Name":"Konservatorju"},{"Latitude":"35.9097242","Longitude":"14.4705592","Name":"Konti thelma Castelletti"},{"Latitude":"35.8905512","Longitude":"14.5370235","Name":"Konvoj ta' Santa Marija"},{"Latitude":"36.0492132","Longitude":"14.2579440","Name":"Kortoll"},{"Latitude":"35.9065314","Longitude":"14.4799768","Name":"Korvu"},{"Latitude":"35.8703000","Longitude":"14.5662724","Name":"Kosbor"},{"Latitude":"35.8490966","Longitude":"14.5394706","Name":"Kotob"},{"Latitude":"35.9109946","Longitude":"14.4858497","Name":"Kuccard"},{"Latitude":"35.8861433","Longitude":"14.4719090","Name":"Kummerc"},{"Latitude":"35.8804800","Longitude":"14.5195910","Name":"Kuncizzjoni"},{"Latitude":"35.9002168","Longitude":"14.3519275","Name":"Kuncizzjoni, Limiti tal-"},{"Latitude":"35.8938098","Longitude":"14.4859162","Name":"Kunzar"},{"Latitude":"35.8553598","Longitude":"14.5314725","Name":"Kunċizzjoni"},{"Latitude":"35.9192439","Longitude":"14.3662751","Name":"Kurat Chetcuti"},{"Latitude":"35.8749092","Longitude":"14.4780176","Name":"Kus"},{"Latitude":"35.8635074","Longitude":"14.5170210","Name":"Kutnent"},{"Latitude":"35.8330046","Longitude":"14.4884597","Name":"Kwadru"},{"Latitude":"35.9213861","Longitude":"14.4744831","Name":"Kwarta"},{"Latitude":"35.9054994","Longitude":"14.4787811","Name":"Kwartier ta' Xindi"},{"Latitude":"35.9184028","Longitude":"14.4295481","Name":"Kwies"},{"Latitude":"35.8885838","Longitude":"14.5213311","Name":"L gafa"},{"Latitude":"35.9139560","Longitude":"14.4363105","Name":"L-Abbate Savoia"},{"Latitude":"35.9064271","Longitude":"14.4883227","Name":"L-Alwett"},{"Latitude":"35.8672641","Longitude":"14.5107889","Name":"L-Annunziata"},{"Latitude":"35.8855599","Longitude":"14.5186986","Name":"L-Arcisqof Mattei"},{"Latitude":"35.8937780","Longitude":"14.5029287","Name":"L-Argotti"},{"Latitude":"35.8912811","Longitude":"14.4698535","Name":"L-Arkati"},{"Latitude":"35.8931960","Longitude":"14.4002385","Name":"L-Arlogg"},{"Latitude":"35.9255634","Longitude":"14.4687809","Name":"L-Awrikarja"},{"Latitude":"35.9112234","Longitude":"14.4420882","Name":"L-Ghenieq"},{"Latitude":"35.8948613","Longitude":"14.4392308","Name":"L-Ghenieqed"},{"Latitude":"35.9184028","Longitude":"14.4295481","Name":"L-Imsiebah"},{"Latitude":"35.8914868","Longitude":"14.4754562","Name":"L-Institut"},{"Latitude":"35.8434988","Longitude":"14.5626150","Name":"L-Irziezet ta Xrobb l-Ghagin"},{"Latitude":"35.8675548","Longitude":"14.5087470","Name":"L-Iskola"},{"Latitude":"35.9218556","Longitude":"14.3776712","Name":"L-Iskorba"},{"Latitude":"35.8448781","Longitude":"14.5181222","Name":"L-Isparvier"},{"Latitude":"35.9097196","Longitude":"14.4762424","Name":"L-Ispika"},{"Latitude":"35.8552827","Longitude":"14.5319817","Name":"L-Ispirtu s-Santu"},{"Latitude":"35.8960025","Longitude":"14.4861245","Name":"L-Ispizjar Joseph Sciberras"},{"Latitude":"35.8715976","Longitude":"14.5177031","Name":"L-Isponsun"},{"Latitude":"35.8631211","Longitude":"14.5120106","Name":"L-Isqajjaq"},{"Latitude":"35.8581963","Longitude":"14.5328651","Name":"L-Isqof Antonio Zahra"},{"Latitude":"35.8556765","Longitude":"14.5385979","Name":"L-Isqof Emmanuel Galea"},{"Latitude":"36.0494826","Longitude":"14.2697811","Name":"L-Isqof Rużar Farruġia"},{"Latitude":"35.9117959","Longitude":"14.4770124","Name":"L-Istefanotis"},{"Latitude":"35.9212546","Longitude":"14.3752990","Name":"L-ispika"},{"Latitude":"35.8725049","Longitude":"14.4563075","Name":"L. Garmier"},{"Latitude":"35.8996039","Longitude":"14.4725066","Name":"L. Gatt"},{"Latitude":"35.8989263","Longitude":"14.4752649","Name":"L. Onofrio"},{"Latitude":"35.9273984","Longitude":"14.4844310","Name":"L. Rosato"},{"Latitude":"35.9189613","Longitude":"14.3642294","Name":"L.Pisani"},{"Latitude":"35.8837175","Longitude":"14.4008867","Name":"Labini"},{"Latitude":"35.8508782","Longitude":"14.5262117","Name":"Labour"},{"Latitude":"35.9054389","Longitude":"14.4382113","Name":"Labour Avenue"},{"Latitude":"35.8791436","Longitude":"14.5313131","Name":"Labour Road"},{"Latitude":"35.9087802","Longitude":"14.4882268","Name":"Laferla"},{"Latitude":"35.8584201","Longitude":"14.5677584","Name":"Lampuka"},{"Latitude":"35.8666118","Longitude":"14.5107278","Name":"Lanzon"},{"Latitude":"35.9014601","Longitude":"14.4637223","Name":"Laqxija"},{"Latitude":"35.8972723","Longitude":"14.4341653","Name":"Laring"},{"Latitude":"35.9075633","Longitude":"14.4723586","Name":"Laringa"},{"Latitude":"35.9432827","Longitude":"14.4247109","Name":"Latmija"},{"Latitude":"35.9199162","Longitude":"14.3645486","Name":"Latnija"},{"Latitude":"35.8944292","Longitude":"14.4666980","Name":"Lawrenz"},{"Latitude":"35.9186715","Longitude":"14.3638398","Name":"Lazzaru Pisani"},{"Latitude":"35.8803284","Longitude":"14.5383292","Name":"Lembija"},{"Latitude":"35.9036040","Longitude":"14.4511941","Name":"Lewis F. Mizzi"},{"Latitude":"36.0528007","Longitude":"14.2618841","Name":"Liberat Grech"},{"Latitude":"35.9097182","Longitude":"14.4361813","Name":"Libya"},{"Latitude":"35.8804052","Longitude":"14.5409410","Name":"Liftija"},{"Latitude":"35.8607071","Longitude":"14.5712285","Name":"Likama"},{"Latitude":"35.9324539","Longitude":"14.3687990","Name":"LimitI ta' Mrejnu"},{"Latitude":"35.9075455","Longitude":"14.4007690","Name":"Limiti ta Id-Dwejra"},{"Latitude":"35.8750719","Longitude":"14.5494684","Name":"Limiti tax-Xaqqa"},{"Latitude":"35.8797788","Longitude":"14.5208564","Name":"Ljun"},{"Latitude":"35.8840113","Longitude":"14.4856191","Name":"Logga"},{"Latitude":"35.9204820","Longitude":"14.4434212","Name":"Lord Byron"},{"Latitude":"35.9109269","Longitude":"14.4839140","Name":"Lorenz"},{"Latitude":"35.8520214","Longitude":"14.5283997","Name":"Lorenzo Gafa"},{"Latitude":"35.8624962","Longitude":"14.5142276","Name":"Lorenzo Gonzi"},{"Latitude":"35.8933485","Longitude":"14.4418639","Name":"Lorenzo Manche"},{"Latitude":"35.9279196","Longitude":"14.4818304","Name":"Luigi Billion"},{"Latitude":"35.8724164","Longitude":"14.4681580","Name":"Luigi Maria Galea"},{"Latitude":"35.9073760","Longitude":"14.4726313","Name":"Lumija"},{"Latitude":"35.8900653","Longitude":"14.5298217","Name":"Luqqata"},{"Latitude":"35.8832615","Longitude":"14.4846401","Name":"M Attard"},{"Latitude":"35.8483203","Longitude":"14.5158288","Name":"M Gerada"},{"Latitude":"35.8843011","Longitude":"14.4856068","Name":"M Scerri"},{"Latitude":"35.9212459","Longitude":"14.4740677","Name":"M. Pianta"},{"Latitude":"35.9124368","Longitude":"14.4368506","Name":"MA Sciortino"},{"Latitude":"35.8912463","Longitude":"14.5078073","Name":"Macerata"},{"Latitude":"35.8799555","Longitude":"14.5183334","Name":"Madonna tal-Grazzja"},{"Latitude":"35.8507451","Longitude":"14.5272064","Name":"Madonna tal-Hniena"},{"Latitude":"35.8477032","Longitude":"14.5162306","Name":"Maestro Guzeppi Spiteri"},{"Latitude":"35.8936541","Longitude":"14.4667562","Name":"Maggur A Aquilina"},{"Latitude":"35.9204855","Longitude":"14.3727189","Name":"Maghkuba"},{"Latitude":"35.8614978","Longitude":"14.5596560","Name":"Maghluq"},{"Latitude":"35.9333904","Longitude":"14.4142506","Name":"Maghsar"},{"Latitude":"36.0382639","Longitude":"14.2524343","Name":"Magna tal-Halib"},{"Latitude":"35.8624953","Longitude":"14.5658875","Name":"Majjistral"},{"Latitude":"36.0344232","Longitude":"14.2617043","Name":"Majmuna"},{"Latitude":"35.9073435","Longitude":"14.4880022","Name":"Malvizz"},{"Latitude":"35.9079694","Longitude":"14.4718584","Name":"Mandolina"},{"Latitude":"35.9238611","Longitude":"14.4638309","Name":"Manwel Agius"},{"Latitude":"35.8728163","Longitude":"14.4688213","Name":"Manwel Borg Gauci"},{"Latitude":"35.8681889","Longitude":"14.5081019","Name":"Manwel Buhagiar"},{"Latitude":"35.9135480","Longitude":"14.4940152","Name":"Manwel Dimech"},{"Latitude":"35.9046052","Longitude":"14.4341217","Name":"Manwella"},{"Latitude":"35.8446285","Longitude":"14.5499409","Name":"Maqdes ta' Gunu"},{"Latitude":"35.8613616","Longitude":"14.5702981","Name":"Maqsab"},{"Latitude":"35.8740090","Longitude":"14.4668173","Name":"Marcell Attard Vagnolo"},{"Latitude":"35.9187414","Longitude":"14.4465670","Name":"Margaret A Murray"},{"Latitude":"35.8749673","Longitude":"14.4674245","Name":"Mario Pace"},{"Latitude":"35.8791449","Longitude":"14.5189170","Name":"Marjanu Gerada"},{"Latitude":"35.9197656","Longitude":"14.4437704","Name":"Markiz Guiseppe Scicluna"},{"Latitude":"35.8902524","Longitude":"14.4796211","Name":"Markiż John Scicluna"},{"Latitude":"35.8544853","Longitude":"14.5404945","Name":"Marrubja"},{"Latitude":"35.8729767","Longitude":"14.4898515","Name":"Marsa old Racing Track"},{"Latitude":"35.9020185","Longitude":"14.5132593","Name":"Marsamxett Street"},{"Latitude":"35.8719056","Longitude":"14.5329635","Name":"Marsaskala Bypass"},{"Latitude":"35.8479285","Longitude":"14.5346057","Name":"Marsaxlokk"},{"Latitude":"36.0267644","Longitude":"14.2994451","Name":"Martino Gracies"},{"Latitude":"35.8713846","Longitude":"14.5171230","Name":"Marzu 1972"},{"Latitude":"35.8983654","Longitude":"14.4933358","Name":"Maskli"},{"Latitude":"35.9097383","Longitude":"14.4800303","Name":"Massabiele"},{"Latitude":"35.8542008","Longitude":"14.5308087","Name":"Mater Boni Consigli Street"},{"Latitude":"35.8947564","Longitude":"14.4723947","Name":"Mawru Inguanez"},{"Latitude":"35.9245922","Longitude":"14.4812892","Name":"Medjez"},{"Latitude":"35.9510715","Longitude":"14.3827191","Name":"Megalitiku"},{"Latitude":"35.8774437","Longitude":"14.5452172","Name":"Mehriez"},{"Latitude":"35.8505674","Longitude":"14.5285240","Name":"Melchiore Gafa"},{"Latitude":"35.8898541","Longitude":"14.5305519","Name":"Melchiore de Robles"},{"Latitude":"35.9192005","Longitude":"14.3763305","Name":"Melissa"},{"Latitude":"35.9010559","Longitude":"14.4630871","Name":"Melitella"},{"Latitude":"35.9552982","Longitude":"14.3579029","Name":"Mellieha"},{"Latitude":"35.9062205","Longitude":"14.4862733","Name":"Merill"},{"Latitude":"35.9033501","Longitude":"14.4461238","Name":"Merino"},{"Latitude":"36.0312862","Longitude":"14.2742031","Name":"Merkanti"},{"Latitude":"36.0709591","Longitude":"14.2595287","Name":"Michalengelo Refalo"},{"Latitude":"35.9003907","Longitude":"14.4472297","Name":"Mikelang Borg"},{"Latitude":"36.0473919","Longitude":"14.2565338","Name":"Mikelang Pace"},{"Latitude":"35.8611820","Longitude":"14.5315086","Name":"Mikiel Busuttil"},{"Latitude":"35.8557897","Longitude":"14.5361979","Name":"Mikiel Cachia"},{"Latitude":"35.8675136","Longitude":"14.5171069","Name":"Mikiel Calleja"},{"Latitude":"35.8829828","Longitude":"14.4722504","Name":"Milied"},{"Latitude":"35.9267226","Longitude":"14.4643337","Name":"Militar"},{"Latitude":"35.9091041","Longitude":"14.4727075","Name":"Mimosa"},{"Latitude":"35.8603257","Longitude":"14.5334074","Name":"Minzel E Attard Bezzina"},{"Latitude":"35.9187821","Longitude":"14.3781325","Name":"Misq"},{"Latitude":"35.8826709","Longitude":"14.5234051","Name":"Misrah Bonnici"},{"Latitude":"35.8835694","Longitude":"14.5236178","Name":"Misrah Bormla"},{"Latitude":"35.9100626","Longitude":"14.4755052","Name":"Misrah Centawrja"},{"Latitude":"35.8943715","Longitude":"14.4656889","Name":"Misrah Frar 28"},{"Latitude":"35.8608454","Longitude":"14.3820992","Name":"Misrah Frenc Abela"},{"Latitude":"35.8934455","Longitude":"14.4888252","Name":"Misrah G Debono"},{"Latitude":"35.8808550","Longitude":"14.5197393","Name":"Misrah Gavino Gulia"},{"Latitude":"35.8536322","Longitude":"14.5355492","Name":"Misrah Gorg Busuttil"},{"Latitude":"35.8418830","Longitude":"14.4850192","Name":"Misrah Hal Kirkop"},{"Latitude":"35.8505674","Longitude":"14.5285240","Name":"Misrah Kan Giov Vella"},{"Latitude":"35.8944200","Longitude":"14.4642066","Name":"Misrah Karm Rizzo"},{"Latitude":"35.8308466","Longitude":"14.4734986","Name":"Misrah Mattia Preti"},{"Latitude":"35.8571208","Longitude":"14.5329502","Name":"Misrah Mikiel Anton Vassalli"},{"Latitude":"35.8714900","Longitude":"14.4413975","Name":"Misrah San Filippu"},{"Latitude":"35.8292298","Longitude":"14.4713128","Name":"Misrah San Lazzru"},{"Latitude":"35.8330374","Longitude":"14.4572517","Name":"Misrah San Mattew"},{"Latitude":"35.8600610","Longitude":"14.4890721","Name":"Misrah Sant' Andrija"},{"Latitude":"35.8351891","Longitude":"14.4584345","Name":"Misrah Santa Marija"},{"Latitude":"35.8573666","Longitude":"14.5344271","Name":"Misrah il-Bandolier"},{"Latitude":"35.8579250","Longitude":"14.5341247","Name":"Misrah il-Bjar"},{"Latitude":"35.8832634","Longitude":"14.3910181","Name":"Misrah il-Fenici"},{"Latitude":"35.8454916","Longitude":"14.4695698","Name":"Misrah il-Fidwa"},{"Latitude":"35.8775540","Longitude":"14.4016717","Name":"Misrah il-Forok"},{"Latitude":"35.8263124","Longitude":"14.4704535","Name":"Misrah il-Karmelitani"},{"Latitude":"35.8772203","Longitude":"14.4678358","Name":"Misrah il-Kittieba"},{"Latitude":"35.8272531","Longitude":"14.5274915","Name":"Misrah il-Knisja"},{"Latitude":"36.0495725","Longitude":"14.2669544","Name":"Misrah il-Kunsill tal-Ewropa"},{"Latitude":"35.8427988","Longitude":"14.4830081","Name":"Misrah il-Menhir"},{"Latitude":"35.8438397","Longitude":"14.4643079","Name":"Misrah il-Missjoni z-Zghira"},{"Latitude":"35.8694359","Longitude":"14.5286379","Name":"Misrah il-Qalbiena Maltin"},{"Latitude":"35.8531353","Longitude":"14.4395637","Name":"Misrah il-Vittmi tal-Gwerra"},{"Latitude":"35.8552495","Longitude":"14.5330965","Name":"Misrah ir-Repubblika"},{"Latitude":"35.8255203","Longitude":"14.5261644","Name":"Misrah ir-Republikka"},{"Latitude":"35.8830986","Longitude":"14.4854936","Name":"Misrah is-7 ta' Gunju 1919"},{"Latitude":"35.9209329","Longitude":"14.3803841","Name":"Misrah is-Sebbieh"},{"Latitude":"35.8235474","Longitude":"14.5287947","Name":"Misrah is-Summit"},{"Latitude":"35.8651604","Longitude":"14.5111662","Name":"Misrah is-Suq"},{"Latitude":"35.9017582","Longitude":"14.4471769","Name":"Misrah it-Trasfigurazzjoni"},{"Latitude":"35.8580468","Longitude":"14.4908444","Name":"Misrah iz-Zghazagh"},{"Latitude":"35.8886459","Longitude":"14.5277935","Name":"Misrah l-Arcisqof Gonzi"},{"Latitude":"35.8515535","Longitude":"14.5344593","Name":"Misrah ta' Pizzuta"},{"Latitude":"35.8317577","Longitude":"14.4561169","Name":"Misrah tal-Maqluba"},{"Latitude":"35.8266431","Longitude":"14.5263866","Name":"Misrah tal-Pajtier"},{"Latitude":"35.8800238","Longitude":"14.5352837","Name":"Misraħ Alofju Wignacourt"},{"Latitude":"35.8216821","Longitude":"14.5285993","Name":"Misraħ Barka Hamilkar"},{"Latitude":"35.9070720","Longitude":"14.4231833","Name":"Misraħ Britannja"},{"Latitude":"35.8894018","Longitude":"14.5149496","Name":"Misraħ Dom M. Inguanez"},{"Latitude":"35.8850532","Longitude":"14.5191940","Name":"Misraħ Gorġ Mitrovich"},{"Latitude":"35.8452992","Longitude":"14.4695670","Name":"Misraħ Il-Fidwa"},{"Latitude":"35.9265117","Longitude":"14.4772311","Name":"Misraħ Il-Paċi"},{"Latitude":"35.9008689","Longitude":"14.5124033","Name":"Misraħ Indipendenza"},{"Latitude":"35.8537471","Longitude":"14.5315147","Name":"Misraħ Karlo Diacono"},{"Latitude":"35.8709122","Longitude":"14.4430839","Name":"Misraħ L-Isptar"},{"Latitude":"35.8999316","Longitude":"14.5103183","Name":"Misraħ Mattia Preti"},{"Latitude":"35.8742754","Longitude":"14.4371535","Name":"Misraħ Muxi"},{"Latitude":"35.8947938","Longitude":"14.3466523","Name":"Misraħ Patri Martin Caruana O.P."},{"Latitude":"35.8302140","Longitude":"14.4749636","Name":"Misraħ Repubblika"},{"Latitude":"35.8759844","Longitude":"14.3986004","Name":"Misraħ San Dominku"},{"Latitude":"35.8813540","Longitude":"14.4705097","Name":"Misraħ San Frangisk"},{"Latitude":"35.8312806","Longitude":"14.4832102","Name":"Misraħ San Mattew"},{"Latitude":"35.8785512","Longitude":"14.5411709","Name":"Misraħ San Nikola"},{"Latitude":"35.8492858","Longitude":"14.5169140","Name":"Misraħ San Ġorġ"},{"Latitude":"35.8331026","Longitude":"14.4849625","Name":"Misraħ San Ġużepp"},{"Latitude":"35.9010847","Longitude":"14.5176708","Name":"Misraħ Sant' Iermu"},{"Latitude":"35.8843335","Longitude":"14.5224615","Name":"Misraħ Santa Margerita"},{"Latitude":"35.8244865","Longitude":"14.4779532","Name":"Misraħ Santa Marija"},{"Latitude":"35.8914958","Longitude":"14.4782779","Name":"Misraħ Santa Venera"},{"Latitude":"35.8874605","Longitude":"14.3925308","Name":"Misraħ Tal-Palma"},{"Latitude":"35.8551594","Longitude":"14.5342215","Name":"Misraħ Wistin Abela"},{"Latitude":"35.8903078","Longitude":"14.4807953","Name":"Misraħ il-Kebbies"},{"Latitude":"35.8335220","Longitude":"14.4836643","Name":"Misraħ il-Knisja"},{"Latitude":"35.9552765","Longitude":"14.3674497","Name":"Misraħ is-Salib Sqaq Nru. 1"},{"Latitude":"35.8419929","Longitude":"14.4864304","Name":"Misraħ iż-Żernieq"},{"Latitude":"35.9600502","Longitude":"14.3615427","Name":"Misraħ iż-Żjara tal-Papa Ġwanni Pawlu II"},{"Latitude":"35.8602215","Longitude":"14.4893443","Name":"Misraħ tal-Knisja"},{"Latitude":"35.8311827","Longitude":"14.4564387","Name":"Misraħ tal-Maqluba"},{"Latitude":"35.9552293","Longitude":"14.3676709","Name":"Misraħ tas-Salib"},{"Latitude":"35.8796781","Longitude":"14.4668682","Name":"Misraħ Ġuże Flores"},{"Latitude":"35.8602473","Longitude":"14.3816757","Name":"Misraħ Ġużè Abela"},{"Latitude":"35.8888276","Longitude":"14.5329927","Name":"Missjoni Taljana"},{"Latitude":"35.9525886","Longitude":"14.3860483","Name":"Mistra"},{"Latitude":"36.0351800","Longitude":"14.2404887","Name":"Mithna"},{"Latitude":"35.9048443","Longitude":"14.4122133","Name":"Mitjar ta' Qali"},{"Latitude":"35.9442390","Longitude":"14.3726834","Name":"Mizieb"},{"Latitude":"35.8826032","Longitude":"14.3898364","Name":"Moghdija Tal-Faqqiegh"},{"Latitude":"35.9020535","Longitude":"14.4637969","Name":"Moghdija l-Vitorja"},{"Latitude":"35.8856664","Longitude":"14.4978169","Name":"Moll iċ-Ċangatura"},{"Latitude":"35.8749459","Longitude":"14.5248792","Name":"Mondian"},{"Latitude":"35.8967930","Longitude":"14.4782909","Name":"Mons Arthuro Bonnici"},{"Latitude":"35.9103335","Longitude":"14.4252939","Name":"Mons Bartilmew Bezzina"},{"Latitude":"35.9087802","Longitude":"14.4882268","Name":"Mons Debono"},{"Latitude":"35.9149694","Longitude":"14.4286698","Name":"Mons Mikiel Ang Mifsud"},{"Latitude":"36.0333556","Longitude":"14.2369378","Name":"Mons Mikiel F Buttigieg"},{"Latitude":"35.9042449","Longitude":"14.4556426","Name":"Mons Pietru Pawl Saydon"},{"Latitude":"35.9091342","Longitude":"14.4299035","Name":"Mons Salv Magro"},{"Latitude":"35.8616812","Longitude":"14.4889160","Name":"Mons. G. Debono"},{"Latitude":"35.8987821","Longitude":"14.4680932","Name":"Mons. K. Bonnici"},{"Latitude":"35.9191219","Longitude":"14.3652279","Name":"Mons. O.Vella"},{"Latitude":"35.9005306","Longitude":"14.4703076","Name":"Mons. Ġuzeppi Depiro"},{"Latitude":"35.8598221","Longitude":"14.5294642","Name":"Monsinjur Cachia Abela"},{"Latitude":"35.8837132","Longitude":"14.5192642","Name":"Monsinjur Panzavecchia"},{"Latitude":"35.9002993","Longitude":"14.4689371","Name":"Mose Gatt"},{"Latitude":"35.9180633","Longitude":"14.4262468","Name":"Mosta Bridge"},{"Latitude":"35.8885765","Longitude":"14.4959512","Name":"Mountbatten"},{"Latitude":"36.0291439","Longitude":"14.2777201","Name":"Mrejzet"},{"Latitude":"36.0705929","Longitude":"14.2595223","Name":"Mungbell"},{"Latitude":"35.9193047","Longitude":"14.4376103","Name":"N Monsarrat"},{"Latitude":"35.8919676","Longitude":"14.3990611","Name":"Narcis"},{"Latitude":"36.0343716","Longitude":"14.2544049","Name":"Narciz"},{"Latitude":"35.9079300","Longitude":"14.4761241","Name":"Narċis"},{"Latitude":"35.8687756","Longitude":"14.5076471","Name":"Nazzarenu"},{"Latitude":"35.9100810","Longitude":"14.4223913","Name":"Nerik Mizzi"},{"Latitude":"35.8704627","Longitude":"14.5377553","Name":"Newl"},{"Latitude":"36.0558439","Longitude":"14.2011326","Name":"Nicholas Monsarrat"},{"Latitude":"35.8626933","Longitude":"14.5649479","Name":"Nigel Dennis"},{"Latitude":"35.8196487","Longitude":"14.5242871","Name":"Nightingale"},{"Latitude":"35.9232496","Longitude":"14.4447193","Name":"Nigret"},{"Latitude":"35.8579052","Longitude":"14.5378799","Name":"Nikol Attard"},{"Latitude":"35.8740652","Longitude":"14.4649732","Name":"Nikol Baldacchino"},{"Latitude":"35.8751881","Longitude":"14.4668031","Name":"Nikol Montebello"},{"Latitude":"35.9036881","Longitude":"14.4575408","Name":"Ninu Cremona"},{"Latitude":"35.9134066","Longitude":"14.4426767","Name":"Nissieg"},{"Latitude":"35.8293539","Longitude":"14.5277105","Name":"Noqra"},{"Latitude":"35.9235650","Longitude":"14.4812053","Name":"Normandy"},{"Latitude":"35.9077558","Longitude":"14.4722353","Name":"Nurcipriska"},{"Latitude":"35.8967135","Longitude":"14.4717383","Name":"Olaf Gollcher"},{"Latitude":"35.8979817","Longitude":"14.5141019","Name":"Old Theatre Street"},{"Latitude":"35.9069089","Longitude":"14.4751102","Name":"Olmu"},{"Latitude":"35.8853881","Longitude":"14.5180180","Name":"Oratorju"},{"Latitude":"35.9083325","Longitude":"14.4866740","Name":"Ornitoloġija"},{"Latitude":"35.8879384","Longitude":"14.4901733","Name":"Our Lady of Sorrow Street"},{"Latitude":"35.8843007","Longitude":"14.4844926","Name":"P Debattista"},{"Latitude":"35.8971369","Longitude":"14.4740470","Name":"P. Borg Olivier"},{"Latitude":"35.9212888","Longitude":"14.4439929","Name":"PH Skippon"},{"Latitude":"35.8885734","Longitude":"14.5213003","Name":"Palazz Antik tal-Gvernatur"},{"Latitude":"35.9116102","Longitude":"14.4309091","Name":"Palazz Ta` Kaspru"},{"Latitude":"35.8628961","Longitude":"14.5131453","Name":"Palm"},{"Latitude":"35.8658320","Longitude":"14.5125593","Name":"Palma"},{"Latitude":"35.8617886","Longitude":"14.3670309","Name":"Panoramika"},{"Latitude":"35.9050476","Longitude":"14.4370078","Name":"Pantar"},{"Latitude":"36.0622046","Longitude":"14.2084320","Name":"Papa Klement XIV"},{"Latitude":"35.8755805","Longitude":"14.5413378","Name":"Papa Piju XII"},{"Latitude":"35.9153656","Longitude":"14.4485113","Name":"Parish Street"},{"Latitude":"35.9154432","Longitude":"14.4493426","Name":"Parrocca"},{"Latitude":"35.8939449","Longitude":"14.4588739","Name":"Parroċċa Santa Marija"},{"Latitude":"35.8905003","Longitude":"14.5263779","Name":"Patist Borda"},{"Latitude":"36.0581467","Longitude":"14.2077766","Name":"Patri Albert Caruana"},{"Latitude":"35.8604832","Longitude":"14.4847555","Name":"Patri Damjan Taljana"},{"Latitude":"35.8838304","Longitude":"14.5385840","Name":"Patri Felicjan Grech"},{"Latitude":"36.0301083","Longitude":"14.2945185","Name":"Patri Frangisk Cauchi"},{"Latitude":"36.0337208","Longitude":"14.3087452","Name":"Patri Guzepp Portelli"},{"Latitude":"35.9052402","Longitude":"14.4547815","Name":"Patri Marjanu Vella"},{"Latitude":"36.0294255","Longitude":"14.2934760","Name":"Patri Odorik Grima"},{"Latitude":"35.8907400","Longitude":"14.4960388","Name":"Patri V. Portelli"},{"Latitude":"35.8885024","Longitude":"14.5219968","Name":"Patri Vella OP"},{"Latitude":"35.8792579","Longitude":"14.5435058","Name":"Patri matteo Sultana"},{"Latitude":"35.8831848","Longitude":"14.3995955","Name":"Patrijiet"},{"Latitude":"35.8948484","Longitude":"14.4385414","Name":"Pawlu Borg"},{"Latitude":"35.9075472","Longitude":"14.4695727","Name":"Pawlu Galea"},{"Latitude":"35.8736452","Longitude":"14.4611332","Name":"Pawlu Sammut"},{"Latitude":"35.8801832","Longitude":"14.5207102","Name":"Pellegrinagg"},{"Latitude":"35.8734596","Longitude":"14.4342079","Name":"Penit"},{"Latitude":"35.8924434","Longitude":"14.3997883","Name":"Peprin"},{"Latitude":"36.0407426","Longitude":"14.2312913","Name":"Petri"},{"Latitude":"35.8491515","Longitude":"14.5014533","Name":"Pietro Gagliardi"},{"Latitude":"35.8734324","Longitude":"14.4625331","Name":"Pietru Felice"},{"Latitude":"35.9085025","Longitude":"14.4705281","Name":"Pietru Pawl Bezzina"},{"Latitude":"35.9079305","Longitude":"14.4854994","Name":"Pitiross"},{"Latitude":"36.0384811","Longitude":"14.2507051","Name":"Pitkalija"},{"Latitude":"35.9166968","Longitude":"14.4227948","Name":"Pizatur"},{"Latitude":"36.0375824","Longitude":"14.2940642","Name":"Pjazza 28 Ta' April 1688"},{"Latitude":"35.8983125","Longitude":"14.4516918","Name":"Pjazza Bertu Fenech"},{"Latitude":"35.9162688","Longitude":"14.4433307","Name":"Pjazza Celsi"},{"Latitude":"35.9142660","Longitude":"14.4390177","Name":"Pjazza Darnino"},{"Latitude":"35.9090441","Longitude":"14.4286211","Name":"Pjazza Dun Ang Camilleri"},{"Latitude":"35.8655876","Longitude":"14.5630449","Name":"Pjazza Dun Tarciz Agius"},{"Latitude":"35.8801946","Longitude":"14.4687252","Name":"Pjazza Federico Maempel"},{"Latitude":"36.0622841","Longitude":"14.2093277","Name":"Pjazza Gerano"},{"Latitude":"36.0272436","Longitude":"14.2901045","Name":"Pjazza Indipendenza"},{"Latitude":"35.9011906","Longitude":"14.4638579","Name":"Pjazza Joseph Briffa"},{"Latitude":"35.8834352","Longitude":"14.4006023","Name":"Pjazza L'Isle Adam"},{"Latitude":"36.0303963","Longitude":"14.2178396","Name":"Pjazza L-Anfori"},{"Latitude":"36.0268281","Longitude":"14.2896319","Name":"Pjazza Madonna ta Loreto"},{"Latitude":"35.8748908","Longitude":"14.5327143","Name":"Pjazza Medjatriċi"},{"Latitude":"35.8777958","Longitude":"14.4779753","Name":"Pjazza Mons P P Psaila"},{"Latitude":"35.9042881","Longitude":"14.4566136","Name":"Pjazza Ninu Cremona"},{"Latitude":"36.0404655","Longitude":"14.2287481","Name":"Pjazza Orvieto"},{"Latitude":"35.8927076","Longitude":"14.5062692","Name":"Pjazza Papa Giovanni XXIII"},{"Latitude":"35.8847082","Longitude":"14.4902937","Name":"Pjazza Patri Magri"},{"Latitude":"35.8735485","Longitude":"14.5209117","Name":"Pjazza Reggie Miller"},{"Latitude":"36.0388034","Longitude":"14.3092442","Name":"Pjazza Republika"},{"Latitude":"35.8900908","Longitude":"14.5055574","Name":"Pjazza Robert Samut"},{"Latitude":"36.0586960","Longitude":"14.2266356","Name":"Pjazza S-Salvatur"},{"Latitude":"36.0419585","Longitude":"14.2298769","Name":"Pjazza Salvatore Busuttil"},{"Latitude":"36.0424621","Longitude":"14.2405899","Name":"Pjazza San Frangisk"},{"Latitude":"36.0418576","Longitude":"14.2278087","Name":"Pjazza San Girgor"},{"Latitude":"36.0353836","Longitude":"14.3114139","Name":"Pjazza San Guzepp"},{"Latitude":"35.8937780","Longitude":"14.5029287","Name":"Pjazza San Kalcidonju"},{"Latitude":"36.0342893","Longitude":"14.3207780","Name":"Pjazza San Kurraw"},{"Latitude":"36.0552566","Longitude":"14.2038849","Name":"Pjazza San Lawrenz"},{"Latitude":"35.9084913","Longitude":"14.4244656","Name":"Pjazza San Leonardu"},{"Latitude":"35.8929861","Longitude":"14.4936149","Name":"Pjazza San Luqa"},{"Latitude":"35.8932556","Longitude":"14.4936328","Name":"Pjazza San Luqa - St. Luke's Square"},{"Latitude":"35.8546421","Longitude":"14.4383838","Name":"Pjazza San Nikola"},{"Latitude":"36.0712939","Longitude":"14.2609504","Name":"Pjazza San Pawl"},{"Latitude":"36.0378779","Longitude":"14.2930445","Name":"Pjazza San Pietru u San Pawl"},{"Latitude":"35.8930044","Longitude":"14.5047953","Name":"Pjazza San Publju"},{"Latitude":"36.0361550","Longitude":"14.3109589","Name":"Pjazza San Ġużepp"},{"Latitude":"35.8554198","Longitude":"14.4361148","Name":"Pjazza San Ġwann"},{"Latitude":"36.0321788","Longitude":"14.2609008","Name":"Pjazza San Ġwann Battista"},{"Latitude":"36.0464720","Longitude":"14.2624229","Name":"Pjazza Sant Anton"},{"Latitude":"35.8492169","Longitude":"14.5180023","Name":"Pjazza Santa Marija"},{"Latitude":"36.0749037","Longitude":"14.2374506","Name":"Pjazza Santa Marija tal-Virtut"},{"Latitude":"35.8901344","Longitude":"14.5069626","Name":"Pjazza Sir Luigi Preziosi"},{"Latitude":"36.0424889","Longitude":"14.2404320","Name":"Pjazza St. Frangisk"},{"Latitude":"36.0272161","Longitude":"14.2909333","Name":"Pjazza Tad-Dehra"},{"Latitude":"36.0305279","Longitude":"14.2347165","Name":"Pjazza Tal-Knisja"},{"Latitude":"35.9592385","Longitude":"14.3640874","Name":"Pjazza Thomas Spratt"},{"Latitude":"36.0293242","Longitude":"14.2879232","Name":"Pjazza Tolfa"},{"Latitude":"35.9150202","Longitude":"14.4449972","Name":"Pjazza Vittorja"},{"Latitude":"36.0500377","Longitude":"14.2642877","Name":"Pjazza il-Vitorja"},{"Latitude":"36.0375270","Longitude":"14.2947851","Name":"Pjazza l-Arcipriet Martin Camilleri"},{"Latitude":"35.8969680","Longitude":"14.4753065","Name":"Pjazza l-Eroj"},{"Latitude":"36.0346816","Longitude":"14.3097134","Name":"Pjazza l-Isqof Mikiel Buttigieg"},{"Latitude":"35.9115038","Longitude":"14.4236307","Name":"Pjazza s-16 ta' Settembru"},{"Latitude":"35.8880427","Longitude":"14.5218761","Name":"Pjazza tal-Belt Vittoriosa"},{"Latitude":"35.9111983","Longitude":"14.5033816","Name":"Pjazza tal-Lunziata"},{"Latitude":"35.9594236","Longitude":"14.3610111","Name":"Pjazza tal-Parroċċa"},{"Latitude":"36.0597855","Longitude":"14.2090645","Name":"Pjazza taz-Zjara tal-Madonna"},{"Latitude":"36.0426094","Longitude":"14.2386991","Name":"Pjazzetta Patri Akkursju Xerri"},{"Latitude":"35.8888120","Longitude":"14.5215305","Name":"Pjazzetta San Filippu"},{"Latitude":"35.8920508","Longitude":"14.4428608","Name":"Pjazzetta Sant' Anna"},{"Latitude":"35.9102780","Longitude":"14.4528850","Name":"Plejju"},{"Latitude":"35.8717521","Longitude":"14.5165676","Name":"Pluviera"},{"Latitude":"35.8785558","Longitude":"14.5195616","Name":"Polverista"},{"Latitude":"36.0716578","Longitude":"14.2580555","Name":"Port"},{"Latitude":"35.8886121","Longitude":"14.5221033","Name":"Post is-Sagra Infermerija"},{"Latitude":"35.9505833","Longitude":"14.3823301","Name":"Preistorja"},{"Latitude":"35.8732427","Longitude":"14.4971890","Name":"Prince Albert"},{"Latitude":"35.9079430","Longitude":"14.4732542","Name":"Prinjola"},{"Latitude":"35.8719849","Longitude":"14.4373900","Name":"Prof. D. Callus"},{"Latitude":"35.8249672","Longitude":"14.5276313","Name":"Profs Anton Tabone"},{"Latitude":"35.8856188","Longitude":"14.5399036","Name":"Profs JG Baldacchino"},{"Latitude":"35.9282741","Longitude":"14.4827488","Name":"Projs J Debono"},{"Latitude":"36.0289236","Longitude":"14.2819413","Name":"Provigarju"},{"Latitude":"35.9070071","Longitude":"14.4733053","Name":"Pruna"},{"Latitude":"35.8303075","Longitude":"14.5411708","Name":"Qajjenza"},{"Latitude":"35.8885771","Longitude":"14.4812577","Name":"Qalb Imqaddsa"},{"Latitude":"35.8563575","Longitude":"14.5373412","Name":"Qalb ta' Gesu"},{"Latitude":"35.9096894","Longitude":"14.4678675","Name":"Qalbiena"},{"Latitude":"35.9446219","Longitude":"14.4100855","Name":"Qarbuni"},{"Latitude":"35.8919741","Longitude":"14.4685099","Name":"Qarcilla"},{"Latitude":"36.0340417","Longitude":"14.2446264","Name":"Qasam"},{"Latitude":"35.8540907","Longitude":"14.5426664","Name":"Qasam Hal-Tmiem, Blokk A"},{"Latitude":"35.8681643","Longitude":"14.4789199","Name":"Qasam Sperimentali"},{"Latitude":"35.9260826","Longitude":"14.4814355","Name":"Qasam tad-Djar Sant' Andrija"},{"Latitude":"35.8332781","Longitude":"14.4880534","Name":"Qasam tal-Bini tal-Gvern"},{"Latitude":"35.8953279","Longitude":"14.4353627","Name":"Qasam tal-Bini tal-Gvern, Block A1"},{"Latitude":"35.8929009","Longitude":"14.4847892","Name":"Qawsalla"},{"Latitude":"35.8612718","Longitude":"14.5662458","Name":"Qawwara"},{"Latitude":"36.0297835","Longitude":"14.2779283","Name":"Qieghan"},{"Latitude":"36.0235209","Longitude":"14.2380139","Name":"Qortina"},{"Latitude":"35.8998572","Longitude":"14.4945119","Name":"Qoton"},{"Latitude":"35.8494325","Longitude":"14.4382599","Name":"Qrendi"},{"Latitude":"35.8196539","Longitude":"14.5257708","Name":"Qroll"},{"Latitude":"35.8926203","Longitude":"14.3985512","Name":"Qronfol"},{"Latitude":"35.8921151","Longitude":"14.4695218","Name":"Quccija"},{"Latitude":"35.8822146","Longitude":"14.5251931","Name":"Queen Alexandra Street"},{"Latitude":"35.8653357","Longitude":"14.5598619","Name":"Quċċata"},{"Latitude":"35.9145532","Longitude":"14.4293502","Name":"R Caruana Dingli"},{"Latitude":"35.9166405","Longitude":"14.4279058","Name":"Raddet ir-Roti"},{"Latitude":"35.9201522","Longitude":"14.3685919","Name":"Ramiro Cali"},{"Latitude":"35.9072025","Longitude":"14.4746300","Name":"Rand"},{"Latitude":"35.9195808","Longitude":"14.3822864","Name":"Ras Il-Gebel"},{"Latitude":"35.8482978","Longitude":"14.5028653","Name":"Raymond Caruana"},{"Latitude":"35.8820908","Longitude":"14.5221524","Name":"Regatta"},{"Latitude":"35.8810989","Longitude":"14.5225118","Name":"Rikkardu Taylor"},{"Latitude":"35.9023054","Longitude":"14.4837622","Name":"Ring Road"},{"Latitude":"36.0523957","Longitude":"14.2087164","Name":"Rokon"},{"Latitude":"35.8751362","Longitude":"14.5242413","Name":"Romano Carapecchia Street"},{"Latitude":"35.8783955","Longitude":"14.4695161","Name":"Rossa"},{"Latitude":"35.8797008","Longitude":"14.3978955","Name":"Rudolph Saliba"},{"Latitude":"35.9034932","Longitude":"14.4922872","Name":"Rue D'Argens"},{"Latitude":"35.8657634","Longitude":"14.5555614","Name":"Rummien"},{"Latitude":"35.9341136","Longitude":"14.4445482","Name":"Rummiena"},{"Latitude":"35.8769152","Longitude":"14.4378697","Name":"S Attard"},{"Latitude":"35.8929108","Longitude":"14.4637736","Name":"S. Mizzi"},{"Latitude":"35.9212689","Longitude":"14.4436822","Name":"S. Taylor Coleridge"},{"Latitude":"35.9136002","Longitude":"14.4312042","Name":"S.Barbara"},{"Latitude":"35.9090257","Longitude":"14.4816026","Name":"S.Mikiel"},{"Latitude":"35.8784268","Longitude":"14.3974625","Name":"S.Patrizju"},{"Latitude":"35.9212123","Longitude":"14.4430316","Name":"S.Taylor Coleridge"},{"Latitude":"35.9219922","Longitude":"14.4657343","Name":"Saghtar"},{"Latitude":"35.8839170","Longitude":"14.4964095","Name":"Sajjieda"},{"Latitude":"35.8660258","Longitude":"14.5661632","Name":"Sallur"},{"Latitude":"35.9262544","Longitude":"14.4835720","Name":"Salvatore Castaldi"},{"Latitude":"35.8569559","Longitude":"14.5343962","Name":"Salvatur"},{"Latitude":"35.8811129","Longitude":"14.3899536","Name":"Salvja"},{"Latitude":"35.8641362","Longitude":"14.4466698","Name":"Salvu Borg Olivier"},{"Latitude":"35.9093179","Longitude":"14.4702270","Name":"Salvu Gatt"},{"Latitude":"35.8603172","Longitude":"14.4874054","Name":"Salvu Zammit"},{"Latitude":"35.8684661","Longitude":"14.5060748","Name":"San Alwigi"},{"Latitude":"35.8785046","Longitude":"14.5533962","Name":"San Anard"},{"Latitude":"35.8772908","Longitude":"14.3971324","Name":"San Aristarku"},{"Latitude":"35.9242416","Longitude":"14.4505771","Name":"San Bartilmew"},{"Latitude":"35.8795775","Longitude":"14.4800212","Name":"San Bastjan"},{"Latitude":"35.8456930","Longitude":"14.4683158","Name":"San Bażilju"},{"Latitude":"35.8399783","Longitude":"14.4843343","Name":"San Benedettu"},{"Latitude":"35.8823701","Longitude":"14.4947987","Name":"San Bernard"},{"Latitude":"36.0466738","Longitude":"14.2995323","Name":"San Blas"},{"Latitude":"35.8510562","Longitude":"14.5299805","Name":"San Duminku"},{"Latitude":"35.8774561","Longitude":"14.4025144","Name":"San Dwardu"},{"Latitude":"35.8236094","Longitude":"14.5264026","Name":"San Edwardu"},{"Latitude":"35.8502821","Longitude":"14.5159140","Name":"San Filippu"},{"Latitude":"35.9085396","Longitude":"14.4813791","Name":"San Frangisk"},{"Latitude":"35.8226324","Longitude":"14.5272214","Name":"San Frangisk Saverju"},{"Latitude":"35.9342246","Longitude":"14.4601029","Name":"San Frangisk t'Assisi"},{"Latitude":"35.9065649","Longitude":"14.4784410","Name":"San Giljan"},{"Latitude":"35.8872345","Longitude":"14.4816867","Name":"San Gorg"},{"Latitude":"35.8486751","Longitude":"14.5159518","Name":"San Gorg Preca"},{"Latitude":"36.0478896","Longitude":"14.2622482","Name":"San Guzepp"},{"Latitude":"35.8864080","Longitude":"14.4865187","Name":"San Gwann"},{"Latitude":"35.9089608","Longitude":"14.4997853","Name":"San Gwann Battista"},{"Latitude":"35.9349044","Longitude":"14.4583987","Name":"San Gwann l-Evangelista"},{"Latitude":"35.8784615","Longitude":"14.5191068","Name":"San Gwann t'Ghuxa, Block 4B"},{"Latitude":"35.8879544","Longitude":"14.5299546","Name":"San Lawrenz"},{"Latitude":"35.8830871","Longitude":"14.5223159","Name":"San Lazzru"},{"Latitude":"35.8809832","Longitude":"14.5480532","Name":"San Leonardu"},{"Latitude":"35.8986352","Longitude":"14.4390692","Name":"San Lucinju"},{"Latitude":"35.8784107","Longitude":"14.3967243","Name":"San Luqa"},{"Latitude":"35.9231181","Longitude":"14.4447524","Name":"San Mark"},{"Latitude":"35.8838002","Longitude":"14.3992972","Name":"San Martin"},{"Latitude":"35.9233442","Longitude":"14.4457587","Name":"San Mattew"},{"Latitude":"35.8775865","Longitude":"14.4019733","Name":"San Mikiel"},{"Latitude":"36.0491843","Longitude":"14.2199745","Name":"San Niklaw"},{"Latitude":"35.8445307","Longitude":"14.4897817","Name":"San Nikola"},{"Latitude":"35.9249312","Longitude":"14.4401765","Name":"San Pawl"},{"Latitude":"35.9118297","Longitude":"14.4218521","Name":"San Pawl Eremita"},{"Latitude":"35.9042464","Longitude":"14.4098341","Name":"San Pawl tal-Qliegha"},{"Latitude":"35.8459238","Longitude":"14.4869075","Name":"San Pietru"},{"Latitude":"36.0410739","Longitude":"14.2270702","Name":"San Pietru u San Pawl"},{"Latitude":"35.9208716","Longitude":"14.3624005","Name":"San Piju"},{"Latitude":"36.0657093","Longitude":"14.2161632","Name":"San Publiju"},{"Latitude":"35.8401602","Longitude":"14.4815904","Name":"San Remig"},{"Latitude":"35.8784975","Longitude":"14.4011395","Name":"San Rokku"},{"Latitude":"35.8843505","Longitude":"14.4933608","Name":"San Tumas"},{"Latitude":"35.8680161","Longitude":"14.4755002","Name":"San Vincenz de Paule"},{"Latitude":"35.8818919","Longitude":"14.4909507","Name":"San Vincenż"},{"Latitude":"36.0649910","Longitude":"14.2091218","Name":"San kataldu"},{"Latitude":"35.8485035","Longitude":"14.5161147","Name":"San pawl"},{"Latitude":"35.8652978","Longitude":"14.5644109","Name":"San Ġorġ"},{"Latitude":"35.8283866","Longitude":"14.5267785","Name":"San Ġużepp"},{"Latitude":"35.9041808","Longitude":"14.4796497","Name":"San Ġwann tal-Għargħar"},{"Latitude":"35.8581743","Longitude":"14.5346788","Name":"Sana Cecilia"},{"Latitude":"35.9109326","Longitude":"14.4950542","Name":"Sant Anglu"},{"Latitude":"35.9097225","Longitude":"14.4282100","Name":"Sant Anna"},{"Latitude":"35.8729448","Longitude":"14.5244287","Name":"Sant Antnin"},{"Latitude":"35.8654496","Longitude":"14.5139854","Name":"Sant' Anna"},{"Latitude":"35.8630355","Longitude":"14.5542495","Name":"Sant' Antnin"},{"Latitude":"35.8551679","Longitude":"14.5310946","Name":"Sant' Anġlu"},{"Latitude":"36.0270386","Longitude":"14.2848681","Name":"Sant' Indrija"},{"Latitude":"35.8691101","Longitude":"14.5054118","Name":"Sant' Ubbaldeska"},{"Latitude":"36.0364191","Longitude":"14.2387904","Name":"Santa Duminka"},{"Latitude":"35.9170237","Longitude":"14.4387392","Name":"Santa Fawstina Kowalska"},{"Latitude":"35.9185704","Longitude":"14.4612663","Name":"Santa Katerina"},{"Latitude":"35.8913280","Longitude":"14.3969108","Name":"Santa Lucija"},{"Latitude":"35.8530299","Longitude":"14.5330515","Name":"Santa Luċija"},{"Latitude":"35.9101254","Longitude":"14.4768705","Name":"Santa Margerita"},{"Latitude":"35.8784119","Longitude":"14.4390117","Name":"Santa Marija"},{"Latitude":"35.8822396","Longitude":"14.4904132","Name":"Santa Rita"},{"Latitude":"35.8777240","Longitude":"14.4014514","Name":"Santa Rosa"},{"Latitude":"35.8483241","Longitude":"14.5215311","Name":"Santa Tereza"},{"Latitude":"35.8496424","Longitude":"14.5328160","Name":"Santu Kristu"},{"Latitude":"36.0232096","Longitude":"14.2857989","Name":"Santu Liju"},{"Latitude":"35.8918588","Longitude":"14.5339113","Name":"Santu Rokku"},{"Latitude":"35.8560196","Longitude":"14.5348885","Name":"Santu Wistin"},{"Latitude":"35.9225242","Longitude":"14.3770947","Name":"Saqwi"},{"Latitude":"35.8935005","Longitude":"14.3985304","Name":"Sardinell"},{"Latitude":"35.8962545","Longitude":"14.4428744","Name":"Sardinella"},{"Latitude":"35.9103603","Longitude":"14.4836112","Name":"Saver Zarb"},{"Latitude":"35.8876632","Longitude":"14.4932383","Name":"Schembri"},{"Latitude":"35.8725257","Longitude":"14.4416110","Name":"Sciortino"},{"Latitude":"35.9009897","Longitude":"14.5153055","Name":"Sebastian Street"},{"Latitude":"35.9205943","Longitude":"14.3650849","Name":"Sentinarju"},{"Latitude":"35.8766663","Longitude":"14.4638166","Name":"Serer"},{"Latitude":"35.8453915","Longitude":"14.5192540","Name":"Settembrina"},{"Latitude":"35.8637641","Longitude":"14.5691793","Name":"Siberja"},{"Latitude":"35.8711598","Longitude":"14.4401551","Name":"Sidtna ta-Anġli"},{"Latitude":"35.8603976","Longitude":"14.3836910","Name":"Sienja"},{"Latitude":"35.8757805","Longitude":"14.5224609","Name":"Sigismondo Savona"},{"Latitude":"35.9126346","Longitude":"14.4475721","Name":"Simblija"},{"Latitude":"35.8811665","Longitude":"14.4936080","Name":"Simpson"},{"Latitude":"35.8586575","Longitude":"14.5391344","Name":"Siniskalk"},{"Latitude":"35.9094819","Longitude":"14.4694893","Name":"Sir Luigi Camilleri"},{"Latitude":"35.9114662","Longitude":"14.4139605","Name":"Sir Luigi Preziosi"},{"Latitude":"35.8501444","Longitude":"14.5267420","Name":"Sir Paul Boffa"},{"Latitude":"35.9226372","Longitude":"14.4437183","Name":"Sir Walter Scott"},{"Latitude":"35.9059607","Longitude":"14.4877535","Name":"Sliema"},{"Latitude":"35.8866174","Longitude":"14.4706071","Name":"Snajja"},{"Latitude":"36.0601687","Longitude":"14.2075990","Name":"Sqaq 1"},{"Latitude":"36.0554761","Longitude":"14.2066738","Name":"Sqaq 1, Il-Hotba"},{"Latitude":"36.0609818","Longitude":"14.2074434","Name":"Sqaq 1, Ta Betta"},{"Latitude":"36.0518235","Longitude":"14.2039714","Name":"Sqaq 2, Tal-Lewza"},{"Latitude":"35.8314641","Longitude":"14.4776265","Name":"Sqaq Alessandru"},{"Latitude":"36.0705670","Longitude":"14.2354083","Name":"Sqaq Anton Mallia"},{"Latitude":"35.8226508","Longitude":"14.4839996","Name":"Sqaq Ballott"},{"Latitude":"35.8773481","Longitude":"14.5323088","Name":"Sqaq Berqi"},{"Latitude":"35.8780330","Longitude":"14.5419260","Name":"Sqaq Bursett"},{"Latitude":"35.9003750","Longitude":"14.4645711","Name":"Sqaq Buzaq"},{"Latitude":"35.8997992","Longitude":"14.4641529","Name":"Sqaq Cancella"},{"Latitude":"35.9130060","Longitude":"14.4382990","Name":"Sqaq Cejlu"},{"Latitude":"35.9257349","Longitude":"14.4527749","Name":"Sqaq Charlotte"},{"Latitude":"35.8808916","Longitude":"14.5195722","Name":"Sqaq Cordina"},{"Latitude":"35.8958109","Longitude":"14.4859360","Name":"Sqaq Dun Andre'"},{"Latitude":"36.0374635","Longitude":"14.2966621","Name":"Sqaq Dun Karm Caruana"},{"Latitude":"36.0322009","Longitude":"14.2323265","Name":"Sqaq Dun Mikiel Anġ Spiteri"},{"Latitude":"35.8990374","Longitude":"14.4636573","Name":"Sqaq Dun Perin"},{"Latitude":"35.8842921","Longitude":"14.4004462","Name":"Sqaq Fra Diegu"},{"Latitude":"35.8761915","Longitude":"14.5451289","Name":"Sqaq Fwieni"},{"Latitude":"35.8962630","Longitude":"14.4867220","Name":"Sqaq Garcin"},{"Latitude":"35.9112371","Longitude":"14.4451865","Name":"Sqaq Giuseppe Stivala"},{"Latitude":"35.9014522","Longitude":"14.4685585","Name":"Sqaq Għargħar"},{"Latitude":"35.8921643","Longitude":"14.5075488","Name":"Sqaq Harper"},{"Latitude":"35.9114698","Longitude":"14.4844724","Name":"Sqaq Is-Sigra"},{"Latitude":"35.8992061","Longitude":"14.4662220","Name":"Sqaq Karla"},{"Latitude":"35.8365800","Longitude":"14.4963815","Name":"Sqaq Karwija"},{"Latitude":"35.8338977","Longitude":"14.4579440","Name":"Sqaq Knisja"},{"Latitude":"35.9097507","Longitude":"14.4944220","Name":"Sqaq L-Imrabat"},{"Latitude":"35.8974455","Longitude":"14.4645735","Name":"Sqaq L-Imsida"},{"Latitude":"35.8446122","Longitude":"14.4675900","Name":"Sqaq L-Isptar"},{"Latitude":"35.9242648","Longitude":"14.4863596","Name":"Sqaq Lourdes"},{"Latitude":"35.9095279","Longitude":"14.4311952","Name":"Sqaq Madre Maria TeresaSpinelli"},{"Latitude":"35.8995757","Longitude":"14.4641890","Name":"Sqaq Mohli"},{"Latitude":"35.9017881","Longitude":"14.4639906","Name":"Sqaq Nannuwa"},{"Latitude":"35.9113658","Longitude":"14.4430720","Name":"Sqaq Nru 1"},{"Latitude":"35.9269557","Longitude":"14.3979237","Name":"Sqaq Nru 4"},{"Latitude":"36.0634262","Longitude":"14.2073525","Name":"Sqaq Nru 7 taz-Zikk"},{"Latitude":"35.8694289","Longitude":"14.4431079","Name":"Sqaq Numru 2"},{"Latitude":"35.8879815","Longitude":"14.5485295","Name":"Sqaq Qaċċawiet"},{"Latitude":"35.8876450","Longitude":"14.5489409","Name":"Sqaq Ras il-Ġebel"},{"Latitude":"35.8976825","Longitude":"14.4628245","Name":"Sqaq Rigu"},{"Latitude":"35.8727095","Longitude":"14.5151361","Name":"Sqaq Rjallu"},{"Latitude":"35.8801338","Longitude":"14.4930213","Name":"Sqaq Ross"},{"Latitude":"35.8586005","Longitude":"14.5333538","Name":"Sqaq San Bastjan"},{"Latitude":"35.8857361","Longitude":"14.5419904","Name":"Sqaq San Lawrenz"},{"Latitude":"35.8616367","Longitude":"14.4859352","Name":"Sqaq San Mark"},{"Latitude":"35.8281329","Longitude":"14.4761919","Name":"Sqaq San Mikiel"},{"Latitude":"35.8861990","Longitude":"14.4916293","Name":"Sqaq San Pawl"},{"Latitude":"35.8787860","Longitude":"14.4722818","Name":"Sqaq San Rafel Nru. 2"},{"Latitude":"35.8866474","Longitude":"14.4933123","Name":"Sqaq San Tumas"},{"Latitude":"35.8298159","Longitude":"14.4734257","Name":"Sqaq San Ġakbu"},{"Latitude":"35.8658025","Longitude":"14.5625939","Name":"Sqaq San Ġwakkin"},{"Latitude":"35.8812280","Longitude":"14.4950186","Name":"Sqaq Sannat"},{"Latitude":"35.8660781","Longitude":"14.5626558","Name":"Sqaq Sant Anna"},{"Latitude":"35.8250455","Longitude":"14.4773284","Name":"Sqaq Sant'Antnin"},{"Latitude":"35.8939087","Longitude":"14.4852993","Name":"Sqaq Santa Venera"},{"Latitude":"35.8613957","Longitude":"14.4860157","Name":"Sqaq Tal-Karmnu Nru 4"},{"Latitude":"35.8499629","Longitude":"14.4546120","Name":"Sqaq Tal-Ħandaq"},{"Latitude":"35.9070840","Longitude":"14.4906021","Name":"Sqaq Taliana"},{"Latitude":"35.8438698","Longitude":"14.4436152","Name":"Sqaq Tax-Xurraf"},{"Latitude":"35.9110549","Longitude":"14.4814846","Name":"Sqaq Tomna"},{"Latitude":"35.9011344","Longitude":"14.5171800","Name":"Sqaq Toni Bajada"},{"Latitude":"36.0661734","Longitude":"14.2181572","Name":"Sqaq Wied tal-Qattus"},{"Latitude":"35.9067075","Longitude":"14.4270550","Name":"Sqaq Xorxa"},{"Latitude":"36.0236334","Longitude":"14.2875375","Name":"Sqaq il-Ballju"},{"Latitude":"35.8467466","Longitude":"14.4621622","Name":"Sqaq il-Barriera"},{"Latitude":"35.9484641","Longitude":"14.3970396","Name":"Sqaq il-Blat"},{"Latitude":"36.0566646","Longitude":"14.2137589","Name":"Sqaq il-Fgura"},{"Latitude":"35.8869878","Longitude":"14.4886788","Name":"Sqaq il-Ghajn"},{"Latitude":"35.9009237","Longitude":"14.4719959","Name":"Sqaq il-Ghoġla"},{"Latitude":"35.8872856","Longitude":"14.5485296","Name":"Sqaq il-Grawnd"},{"Latitude":"35.8795346","Longitude":"14.4892830","Name":"Sqaq il-Haddiem"},{"Latitude":"35.9008160","Longitude":"14.4643699","Name":"Sqaq il-Kantur"},{"Latitude":"35.8746963","Longitude":"14.5337846","Name":"Sqaq il-Knisja"},{"Latitude":"35.8880311","Longitude":"14.4965285","Name":"Sqaq il-Kubrit"},{"Latitude":"35.8196219","Longitude":"14.4945580","Name":"Sqaq il-Kuni"},{"Latitude":"35.8391603","Longitude":"14.4623082","Name":"Sqaq il-Mithna"},{"Latitude":"35.8603118","Longitude":"14.3833463","Name":"Sqaq il-Museum"},{"Latitude":"35.8535452","Longitude":"14.4404528","Name":"Sqaq il-Qajjied"},{"Latitude":"35.8766729","Longitude":"14.4492684","Name":"Sqaq il-Qenċ"},{"Latitude":"35.9024797","Longitude":"14.4640350","Name":"Sqaq il-Vitorja"},{"Latitude":"35.9448818","Longitude":"14.3856712","Name":"Sqaq il-Ward"},{"Latitude":"35.8469903","Longitude":"14.5256859","Name":"Sqaq il-Wilga"},{"Latitude":"35.9074052","Longitude":"14.4229963","Name":"Sqaq il-Ġnejna"},{"Latitude":"35.8315187","Longitude":"14.5300200","Name":"Sqaq in-Nadur"},{"Latitude":"35.9296747","Longitude":"14.3658874","Name":"Sqaq in-Nahal"},{"Latitude":"35.9027041","Longitude":"14.4702259","Name":"Sqaq it-Tiġieg"},{"Latitude":"35.8744245","Longitude":"14.4690403","Name":"Sqaq it-Tiġieġ"},{"Latitude":"35.9097140","Longitude":"14.5056255","Name":"Sqaq it-Torri"},{"Latitude":"35.8633359","Longitude":"14.5104502","Name":"Sqaq it-Tramuntana"},{"Latitude":"35.8950088","Longitude":"14.4471243","Name":"Sqaq it-Twil"},{"Latitude":"36.0477134","Longitude":"14.2576144","Name":"Sqaq ix-Xaghri"},{"Latitude":"35.8930132","Longitude":"14.4955722","Name":"Sqaq ix-Xatt 1"},{"Latitude":"35.9192403","Longitude":"14.3634247","Name":"Sqaq iz-Zabra"},{"Latitude":"35.8354637","Longitude":"14.4604874","Name":"Sqaq iz-Zurrieq"},{"Latitude":"36.0603801","Longitude":"14.2094495","Name":"Sqaq l-Arcipriet"},{"Latitude":"35.8752466","Longitude":"14.4370405","Name":"Sqaq l-Gheneb"},{"Latitude":"35.9201251","Longitude":"14.4477739","Name":"Sqaq l-Imnieqa"},{"Latitude":"35.8962603","Longitude":"14.4615108","Name":"Sqaq l-Imriehel"},{"Latitude":"36.0610941","Longitude":"14.2276255","Name":"Sqaq l-Istellamaris"},{"Latitude":"35.8815211","Longitude":"14.5210056","Name":"Sqaq l-Oratorju"},{"Latitude":"35.9027517","Longitude":"14.4447926","Name":"Sqaq nru.2"},{"Latitude":"35.8840727","Longitude":"14.4623938","Name":"Sqaq ta Awzara"},{"Latitude":"35.8239529","Longitude":"14.5038764","Name":"Sqaq ta B'Xejn"},{"Latitude":"36.0684456","Longitude":"14.1978356","Name":"Sqaq ta Cini"},{"Latitude":"36.0360121","Longitude":"14.2193997","Name":"Sqaq ta Klula"},{"Latitude":"35.9284040","Longitude":"14.4082471","Name":"Sqaq ta San Pawl Milqi"},{"Latitude":"36.0400775","Longitude":"14.2233517","Name":"Sqaq ta Xirfi"},{"Latitude":"35.8276461","Longitude":"14.5227195","Name":"Sqaq ta' Faqqanija"},{"Latitude":"35.8298389","Longitude":"14.5281989","Name":"Sqaq ta' Pultu"},{"Latitude":"35.9302622","Longitude":"14.4163172","Name":"Sqaq ta' Ċampra"},{"Latitude":"36.0197809","Longitude":"14.2667388","Name":"Sqaq ta' Ċenċ"},{"Latitude":"35.8783900","Longitude":"14.3980848","Name":"Sqaq tac-Caghki"},{"Latitude":"35.8808290","Longitude":"14.4130114","Name":"Sqaq tac-Cawla"},{"Latitude":"35.8814018","Longitude":"14.4810327","Name":"Sqaq tal-Armal"},{"Latitude":"35.8917489","Longitude":"14.4510288","Name":"Sqaq tal-Hofra"},{"Latitude":"35.9190210","Longitude":"14.4481429","Name":"Sqaq tal-Laqx"},{"Latitude":"35.8188753","Longitude":"14.4961796","Name":"Sqaq tal-Mejdiet"},{"Latitude":"35.8784016","Longitude":"14.4596253","Name":"Sqaq tal-Ħlas"},{"Latitude":"35.8584447","Longitude":"14.4269588","Name":"Sqaq tan-Nadur"},{"Latitude":"35.9489010","Longitude":"14.3976758","Name":"Sqaq tax-Xama'"},{"Latitude":"35.9136964","Longitude":"14.4904922","Name":"Sqaq Ċiantar"},{"Latitude":"35.8709156","Longitude":"14.5299672","Name":"Sqaq Ġanton"},{"Latitude":"35.9366017","Longitude":"14.4369057","Name":"Sqaq Ħabel Żwejra"},{"Latitude":"35.9069593","Longitude":"14.4808465","Name":"Sqaq Żbibu"},{"Latitude":"35.9026588","Longitude":"14.4140139","Name":"Sriedek"},{"Latitude":"36.0536269","Longitude":"14.2556185","Name":"Sruġ"},{"Latitude":"35.8817090","Longitude":"14.5254653","Name":"St Nicholas Road"},{"Latitude":"35.9007338","Longitude":"14.5154508","Name":"St. Nicholas Street"},{"Latitude":"35.9220346","Longitude":"14.3731598","Name":"Staguni"},{"Latitude":"35.9216016","Longitude":"14.4520266","Name":"Stiefnu Zerafa"},{"Latitude":"35.9104008","Longitude":"14.4288499","Name":"Stivala"},{"Latitude":"35.8519614","Longitude":"14.5492218","Name":"Strejnu"},{"Latitude":"35.8662524","Longitude":"14.4804082","Name":"Sturnell Roża"},{"Latitude":"36.0391670","Longitude":"14.2283091","Name":"Summien"},{"Latitude":"35.8706160","Longitude":"14.4453876","Name":"TRIQ IZ-ZEBBUGA L-BAJDA"},{"Latitude":"35.8893953","Longitude":"14.4991139","Name":"Ta Braxia"},{"Latitude":"36.0395726","Longitude":"14.2654439","Name":"Ta Hamet"},{"Latitude":"35.8863672","Longitude":"14.3625661","Name":"Ta Landrijiet"},{"Latitude":"35.9151297","Longitude":"14.4314507","Name":"Ta Novembru"},{"Latitude":"35.8980948","Longitude":"14.4713294","Name":"Ta Paris, Ringiela C"},{"Latitude":"35.8976975","Longitude":"14.4712587","Name":"Ta Paris, Ringiela E1"},{"Latitude":"35.8974411","Longitude":"14.4731509","Name":"Ta Paris, Ringiela E3"},{"Latitude":"35.8945148","Longitude":"14.3922696","Name":"Ta Slampa"},{"Latitude":"35.8690681","Longitude":"14.3709827","Name":"Ta' Baldu"},{"Latitude":"35.8553603","Longitude":"14.4424940","Name":"Ta' Brandin"},{"Latitude":"36.0640458","Longitude":"14.2166312","Name":"Ta' Ghammar"},{"Latitude":"35.9203335","Longitude":"14.3797205","Name":"Ta' Qarawas"},{"Latitude":"35.9459581","Longitude":"14.4345945","Name":"Ta' Saverja"},{"Latitude":"35.8529719","Longitude":"14.5304329","Name":"Ta' Tavlin"},{"Latitude":"35.8503881","Longitude":"14.5307144","Name":"Ta' Tnella"},{"Latitude":"35.9109254","Longitude":"14.4131579","Name":"Ta' Zejfa"},{"Latitude":"35.9149915","Longitude":"14.3661641","Name":"Ta' l-Armagg"},{"Latitude":"35.9192847","Longitude":"14.3671487","Name":"Ta' Ħaġrat"},{"Latitude":"35.8879749","Longitude":"14.5045861","Name":"Ta'L-Ghereb"},{"Latitude":"35.9031569","Longitude":"14.3348490","Name":"Ta` San Martin"},{"Latitude":"35.8970545","Longitude":"14.4349032","Name":"Tahhan"},{"Latitude":"35.9138319","Longitude":"14.4630601","Name":"Tal-Balal"},{"Latitude":"36.0359949","Longitude":"14.2512534","Name":"Tal-Baqqari"},{"Latitude":"36.0338955","Longitude":"14.2617876","Name":"Tal-Barrieri"},{"Latitude":"35.8923274","Longitude":"14.4764431","Name":"Tal-Fawwara"},{"Latitude":"35.9186711","Longitude":"14.4556742","Name":"Tal-Ferha"},{"Latitude":"35.8849938","Longitude":"14.3714047","Name":"Tal-Fisqal"},{"Latitude":"35.9073764","Longitude":"14.4782483","Name":"Tal-Ghorghar"},{"Latitude":"35.8222132","Longitude":"14.4660850","Name":"Tal-Gibjun"},{"Latitude":"35.8600265","Longitude":"14.5172739","Name":"Tal-Hotba"},{"Latitude":"35.8885461","Longitude":"14.5203580","Name":"Tal-Karmnu"},{"Latitude":"36.0293417","Longitude":"14.2876833","Name":"Tal-Latini"},{"Latitude":"36.0700695","Longitude":"14.2608642","Name":"Tal-Plejju"},{"Latitude":"35.9169376","Longitude":"14.4199108","Name":"Tal-Qares"},{"Latitude":"35.9077342","Longitude":"14.4651344","Name":"Tal-Qasbi"},{"Latitude":"35.9132676","Longitude":"14.4320180","Name":"Tal-Wej"},{"Latitude":"35.8642305","Longitude":"14.4655239","Name":"Tal-Ħandaq"},{"Latitude":"35.9091041","Longitude":"14.4727075","Name":"Tamar"},{"Latitude":"35.9089654","Longitude":"14.3618541","Name":"Taqsisa"},{"Latitude":"35.9574811","Longitude":"14.3660759","Name":"Taraġ il-Baqquniera"},{"Latitude":"35.8539837","Longitude":"14.5093833","Name":"Tarxien"},{"Latitude":"35.8864492","Longitude":"14.4694243","Name":"Tarznara"},{"Latitude":"35.8902423","Longitude":"14.3818836","Name":"Tas-Salib"},{"Latitude":"35.8886271","Longitude":"14.3827375","Name":"Tas-Salib, Limiti ta"},{"Latitude":"35.8808969","Longitude":"14.3831095","Name":"Tas-Salvatur, Limita ta"},{"Latitude":"35.8454403","Longitude":"14.4594550","Name":"Tas-Sejba"},{"Latitude":"35.8427394","Longitude":"14.5487349","Name":"Tas-Silg"},{"Latitude":"35.9263210","Longitude":"14.4394038","Name":"Telgha t'Alla w'Ommu"},{"Latitude":"35.8836603","Longitude":"14.4953164","Name":"Telgha tal-Gizwiti"},{"Latitude":"35.9336234","Longitude":"14.4630622","Name":"Telgha tal-Madliena"},{"Latitude":"35.9138307","Longitude":"14.4900605","Name":"Telghet Birkirkara"},{"Latitude":"35.8744685","Longitude":"14.5041741","Name":"Telghet Rahal Gdid"},{"Latitude":"35.9129250","Longitude":"14.4938015","Name":"Telghet San Giljan"},{"Latitude":"35.8879043","Longitude":"14.5242082","Name":"Telghet il-Foss"},{"Latitude":"35.8835237","Longitude":"14.5075991","Name":"Telgħa ta' Ras Il-Ħanżir"},{"Latitude":"35.8826260","Longitude":"14.4030691","Name":"Telgħa tas-Saqqajja"},{"Latitude":"35.8922048","Longitude":"14.4952234","Name":"Telgħet Gwardamangia"},{"Latitude":"35.9140324","Longitude":"14.4938252","Name":"Telgħet San Ġiljan"},{"Latitude":"35.9498889","Longitude":"14.3857938","Name":"Telgħet ix-Xemxija"},{"Latitude":"35.9057802","Longitude":"14.4861993","Name":"Tellerit"},{"Latitude":"35.8460260","Longitude":"14.5149695","Name":"Telleritu"},{"Latitude":"35.8815799","Longitude":"14.4744348","Name":"Tensila"},{"Latitude":"35.8889559","Longitude":"14.4624593","Name":"Territorials"},{"Latitude":"36.0370855","Longitude":"14.2565701","Name":"Tessuti"},{"Latitude":"35.9025146","Longitude":"14.4947258","Name":"The Strand"},{"Latitude":"35.8805083","Longitude":"14.4915424","Name":"Tigrija"},{"Latitude":"35.8744158","Longitude":"14.4776614","Name":"Tin"},{"Latitude":"35.8803075","Longitude":"14.4800904","Name":"Tirq Dun A. Psaila"},{"Latitude":"35.9115444","Longitude":"14.4974746","Name":"Tirq is-Salvatur"},{"Latitude":"35.8792656","Longitude":"14.5177537","Name":"Tliet Ibliet"},