[{"Latitude":"15.3392718","Longitude":"-61.3885422","Name":"12th Street"},{"Latitude":"15.3394576","Longitude":"-61.3876323","Name":"13th Street"},{"Latitude":"15.3400490","Longitude":"-61.3883730","Name":"15th Street"},{"Latitude":"15.3294877","Longitude":"-61.3887747","Name":"1st Street"},{"Latitude":"15.3292450","Longitude":"-61.3883051","Name":"2nd Street"},{"Latitude":"15.3287182","Longitude":"-61.3879143","Name":"3rd Street"},{"Latitude":"15.3285335","Longitude":"-61.3874641","Name":"4th Street"},{"Latitude":"15.3260001","Longitude":"-61.3845408","Name":"5th Street"},{"Latitude":"15.3383976","Longitude":"-61.3900689","Name":"8th Street"},{"Latitude":"15.3392495","Longitude":"-61.3898345","Name":"9th Street"},{"Latitude":"15.3095645","Longitude":"-61.3851239","Name":"Alamander Drive"},{"Latitude":"15.6062102","Longitude":"-61.4587741","Name":"Alleynes Lane"},{"Latitude":"15.2807213","Longitude":"-61.3716906","Name":"Anne Marie Street"},{"Latitude":"15.2797408","Longitude":"-61.3722779","Name":"Anne-Marie Street"},{"Latitude":"15.3038147","Longitude":"-61.3793531","Name":"Balata Avenue"},{"Latitude":"15.3272913","Longitude":"-61.2562877","Name":"Balizier Back Road"},{"Latitude":"15.3296748","Longitude":"-61.2483668","Name":"Balizier Road"},{"Latitude":"15.5552667","Longitude":"-61.4578266","Name":"Banana Trail"},{"Latitude":"15.5625701","Longitude":"-61.3078210","Name":"Baptiste Road"},{"Latitude":"15.5679188","Longitude":"-61.4544201","Name":"Baron Lane"},{"Latitude":"15.3025832","Longitude":"-61.3812170","Name":"Bath Estate Bridge"},{"Latitude":"15.2954934","Longitude":"-61.3830424","Name":"Bath Road"},{"Latitude":"15.5801512","Longitude":"-61.4587651","Name":"Bay Street"},{"Latitude":"15.5767488","Longitude":"-61.4544817","Name":"Bedford Street"},{"Latitude":"15.2807646","Longitude":"-61.3735516","Name":"Ben Street"},{"Latitude":"15.3061929","Longitude":"-61.3868675","Name":"Benjamin Lane"},{"Latitude":"15.3061571","Longitude":"-61.3872954","Name":"Bowers Lane"},{"Latitude":"15.3007208","Longitude":"-61.3841595","Name":"Boyds Avenue"},{"Latitude":"15.5667974","Longitude":"-61.4548394","Name":"Bridgewater Avenue"},{"Latitude":"15.3054827","Longitude":"-61.3796425","Name":"Bully Gap"},{"Latitude":"15.3026346","Longitude":"-61.3881907","Name":"Canal Lane"},{"Latitude":"15.2973486","Longitude":"-61.3862846","Name":"Castle Street"},{"Latitude":"15.5662994","Longitude":"-61.4556724","Name":"Chambers Street"},{"Latitude":"15.3058979","Longitude":"-61.3873445","Name":"Charles Avenue"},{"Latitude":"15.3029288","Longitude":"-61.3885355","Name":"Church Lane"},{"Latitude":"15.5656547","Longitude":"-61.3096170","Name":"Church Street"},{"Latitude":"15.3052437","Longitude":"-61.3829474","Name":"Churchill Lane"},{"Latitude":"15.2811635","Longitude":"-61.3709516","Name":"Clinton Street"},{"Latitude":"15.5927700","Longitude":"-61.3962315","Name":"Comfort Cottages"},{"Latitude":"15.2815865","Longitude":"-61.3688756","Name":"Conrad Street"},{"Latitude":"15.2982733","Longitude":"-61.3872714","Name":"Cork Street"},{"Latitude":"15.2947652","Longitude":"-61.3840692","Name":"Cornwall Street"},{"Latitude":"15.6080258","Longitude":"-61.4640132","Name":"Cottage Route"},{"Latitude":"15.2976095","Longitude":"-61.3863908","Name":"Cross Lane"},{"Latitude":"15.4234385","Longitude":"-61.4307633","Name":"Cuba Boulevard"},{"Latitude":"15.2962724","Longitude":"-61.3868118","Name":"Dame Mary Eugenia Charles Boulevard"},{"Latitude":"15.2799095","Longitude":"-61.2601559","Name":"Delices Main Road"},{"Latitude":"15.3083308","Longitude":"-61.3872344","Name":"Didier Lane"},{"Latitude":"15.2998976","Longitude":"-61.3901725","Name":"Dominica/China Friendship Bridge"},{"Latitude":"15.3055164","Longitude":"-61.3814815","Name":"Downing Gap"},{"Latitude":"15.5474437","Longitude":"-61.2945924","Name":"Dr Nicholas Liverpool Highway"},{"Latitude":"15.2984171","Longitude":"-61.3888015","Name":"Drury Lane"},{"Latitude":"15.3055027","Longitude":"-61.3849686","Name":"Dupigny Lane"},{"Latitude":"15.6066834","Longitude":"-61.4595578","Name":"Dèyè Wavin Lane"},{"Latitude":"15.3010887","Longitude":"-61.3880632","Name":"E.C. Loblack Bridge"},{"Latitude":"15.3062410","Longitude":"-61.3819604","Name":"Edens Lane"},{"Latitude":"15.3088223","Longitude":"-61.3891822","Name":"Edward Olivier Leblanc Highway"},{"Latitude":"15.5754489","Longitude":"-61.4530225","Name":"Egmont Street"},{"Latitude":"15.3004726","Longitude":"-61.3901899","Name":"Elliot Avenue"},{"Latitude":"15.3016205","Longitude":"-61.3729233","Name":"Elms Hall Road"},{"Latitude":"15.3038732","Longitude":"-61.3873488","Name":"Federation Drive"},{"Latitude":"15.3076633","Longitude":"-61.3876510","Name":"Felix Lane"},{"Latitude":"15.2995924","Longitude":"-61.3854334","Name":"Fields Lane"},{"Latitude":"15.2964621","Longitude":"-61.3865164","Name":"Fort Lane"},{"Latitude":"15.3048472","Longitude":"-61.3835608","Name":"Francis Lane"},{"Latitude":"15.3057316","Longitude":"-61.3839213","Name":"Franklyn Lane"},{"Latitude":"15.3332420","Longitude":"-61.2455216","Name":"French Island"},{"Latitude":"15.3022912","Longitude":"-61.3893723","Name":"Goodwill Road"},{"Latitude":"15.3057023","Longitude":"-61.3850554","Name":"Goodwill Roundabout"},{"Latitude":"15.5742545","Longitude":"-61.4533212","Name":"Granby Street"},{"Latitude":"15.2698846","Longitude":"-61.3505928","Name":"Grand Bay Main Road"},{"Latitude":"15.5900607","Longitude":"-61.4483155","Name":"Grange Road"},{"Latitude":"15.3040773","Longitude":"-61.3847000","Name":"Grants Lane"},{"Latitude":"15.2991988","Longitude":"-61.3875925","Name":"Great George Street"},{"Latitude":"15.3001345","Longitude":"-61.3861213","Name":"Great Malborough Street"},{"Latitude":"15.3038511","Longitude":"-61.3882971","Name":"Greens Lane"},{"Latitude":"15.2656482","Longitude":"-61.3479122","Name":"Grenville Road"},{"Latitude":"15.5990641","Longitude":"-61.4614597","Name":"Guilett-peineville Road"},{"Latitude":"15.5741589","Longitude":"-61.4557430","Name":"Halifax Street"},{"Latitude":"15.2984171","Longitude":"-61.3888015","Name":"Hanover Street"},{"Latitude":"15.5756777","Longitude":"-61.4562438","Name":"Harbour Lane"},{"Latitude":"15.2952677","Longitude":"-61.3841155","Name":"High Street"},{"Latitude":"15.3000014","Longitude":"-61.3876812","Name":"Hillsborough Street"},{"Latitude":"15.2978217","Longitude":"-61.3881261","Name":"Hodges Lane"},{"Latitude":"15.5767643","Longitude":"-61.4565941","Name":"Holland Street"},{"Latitude":"15.5682190","Longitude":"-61.4558152","Name":"Hot Spring Avenue"},{"Latitude":"15.3930944","Longitude":"-61.3175009","Name":"Imperial Road"},{"Latitude":"15.2983745","Longitude":"-61.3851738","Name":"Independence Street"},{"Latitude":"15.3062501","Longitude":"-61.3824406","Name":"James Lane"},{"Latitude":"15.3035563","Longitude":"-61.3870770","Name":"Jeffers Lane"},{"Latitude":"15.3062167","Longitude":"-61.3813915","Name":"Jepson Lane"},{"Latitude":"15.2966416","Longitude":"-61.3858993","Name":"Jewel Street"},{"Latitude":"15.3058416","Longitude":"-61.3865220","Name":"Jolly Lane"},{"Latitude":"15.3055000","Longitude":"-61.3833496","Name":"Jules Lane"},{"Latitude":"15.2814007","Longitude":"-61.3704184","Name":"Julie's Gap"},{"Latitude":"15.2995907","Longitude":"-61.3872397","Name":"Kennedy Avenue"},{"Latitude":"15.2984175","Longitude":"-61.3859781","Name":"King George V Street"},{"Latitude":"15.2988587","Longitude":"-61.3879401","Name":"King's Lane"},{"Latitude":"15.3324856","Longitude":"-61.3903605","Name":"KingBird Drive"},{"Latitude":"15.2896734","Longitude":"-61.2665670","Name":"La Roche Road"},{"Latitude":"15.5679761","Longitude":"-61.4564696","Name":"Labour Street"},{"Latitude":"15.2763643","Longitude":"-61.3733563","Name":"Lahaut Road"},{"Latitude":"15.2988277","Longitude":"-61.3898023","Name":"Laing Lane"},{"Latitude":"15.3035345","Longitude":"-61.3769716","Name":"Lakoudwe Drive"},{"Latitude":"15.2805415","Longitude":"-61.3691729","Name":"Laurie Street"},{"Latitude":"15.4069404","Longitude":"-61.4250401","Name":"Layou Road"},{"Latitude":"15.5604017","Longitude":"-61.4589461","Name":"Le Blanc Trail"},{"Latitude":"15.3078522","Longitude":"-61.3872264","Name":"Leblanc Lane"},{"Latitude":"15.2806777","Longitude":"-61.3709646","Name":"Lenny Street"},{"Latitude":"15.2810607","Longitude":"-61.3720361","Name":"Leona Drive"},{"Latitude":"15.2803997","Longitude":"-61.3699960","Name":"Leslie Street South"},{"Latitude":"15.5582325","Longitude":"-61.4587190","Name":"Lizard Trail"},{"Latitude":"15.4123552","Longitude":"-61.3427257","Name":"Local Road"},{"Latitude":"15.2970568","Longitude":"-61.3845602","Name":"Long Acre"},{"Latitude":"15.2977360","Longitude":"-61.3885792","Name":"Long Lane"},{"Latitude":"15.2748626","Longitude":"-61.3724392","Name":"Loubriere Street"},{"Latitude":"15.5661292","Longitude":"-61.4561927","Name":"Lovers Lane"},{"Latitude":"15.6241243","Longitude":"-61.4115196","Name":"Lower Pennville"},{"Latitude":"15.6159499","Longitude":"-61.4617990","Name":"Ma. Laurent Crescent"},{"Latitude":"15.4294321","Longitude":"-61.4331523","Name":"Macoucherie Road"},{"Latitude":"15.2643626","Longitude":"-61.3450170","Name":"Magua Road"},{"Latitude":"15.5485415","Longitude":"-61.2930013","Name":"Main Road"},{"Latitude":"15.5770411","Longitude":"-61.4556109","Name":"Market Lane"},{"Latitude":"15.3712901","Longitude":"-61.4044532","Name":"Mathews Road"},{"Latitude":"15.3058211","Longitude":"-61.3861102","Name":"McIntyre Lane"},{"Latitude":"15.5452417","Longitude":"-61.3008660","Name":"Melville Hall Airport Access Road"},{"Latitude":"15.5771829","Longitude":"-61.4551095","Name":"Melville Street"},{"Latitude":"15.5681124","Longitude":"-61.4568331","Name":"Michael Douglas Boulevard"},{"Latitude":"15.5773069","Longitude":"-61.4546672","Name":"Middle Street"},{"Latitude":"15.5656725","Longitude":"-61.4579948","Name":"Moo Cow Trail"},{"Latitude":"15.3062104","Longitude":"-61.3812275","Name":"Munro Street"},{"Latitude":"15.3032386","Longitude":"-61.3868008","Name":"Murphy's Lane"},{"Latitude":"15.6257756","Longitude":"-61.4187609","Name":"Northern Link Road"},{"Latitude":"15.2830806","Longitude":"-61.3710096","Name":"Ocean View Way"},{"Latitude":"15.2965969","Longitude":"-61.3871457","Name":"Old Street"},{"Latitude":"15.5779445","Longitude":"-61.4543765","Name":"Pembroke Street"},{"Latitude":"15.5667974","Longitude":"-61.4548394","Name":"Philip Lane"},{"Latitude":"15.5645830","Longitude":"-61.3117762","Name":"Phillips Avenue"},{"Latitude":"15.3015703","Longitude":"-61.3894192","Name":"Piveteau Street"},{"Latitude":"15.3059265","Longitude":"-61.3732273","Name":"Poinsettia Drive"},{"Latitude":"15.3777334","Longitude":"-61.3442568","Name":"Pond Casse Round About"},{"Latitude":"15.3015889","Longitude":"-61.3897905","Name":"Potter Street"},{"Latitude":"15.5788876","Longitude":"-61.4568149","Name":"Pownal Street"},{"Latitude":"15.5667444","Longitude":"-61.3104842","Name":"Priest Gutter Road"},{"Latitude":"15.3038732","Longitude":"-61.3873488","Name":"Princess Lane"},{"Latitude":"15.5664692","Longitude":"-61.4560783","Name":"Prosper Lane"},{"Latitude":"15.5777769","Longitude":"-61.4569289","Name":"Queensborough Street"},{"Latitude":"15.2814011","Longitude":"-61.3678039","Name":"Randy Street"},{"Latitude":"15.3064988","Longitude":"-61.3880534","Name":"Rawles Lane"},{"Latitude":"15.6054546","Longitude":"-61.4609491","Name":"Reunion Lane"},{"Latitude":"15.2997105","Longitude":"-61.3893139","Name":"River Bank"},{"Latitude":"15.3262044","Longitude":"-61.3752979","Name":"River Estate"},{"Latitude":"15.3008391","Longitude":"-61.3877725","Name":"River Street"},{"Latitude":"15.5926505","Longitude":"-61.3421922","Name":"Road to Red Rocks"},{"Latitude":"15.3611870","Longitude":"-61.2561272","Name":"Road to Wavine Cyrique"},{"Latitude":"15.5763411","Longitude":"-61.4559468","Name":"Rodney Street"},{"Latitude":"15.5777369","Longitude":"-61.4531896","Name":"Rollo Street"},{"Latitude":"15.3718330","Longitude":"-61.2546333","Name":"Rosalie River Bridge"},{"Latitude":"15.3043076","Longitude":"-61.3836501","Name":"Rose Street"},{"Latitude":"15.3003423","Longitude":"-61.3888478","Name":"Roseau River Bridge"},{"Latitude":"15.5627182","Longitude":"-61.4541779","Name":"Ross Boulevard"},{"Latitude":"15.2821907","Longitude":"-61.3720162","Name":"Rossi Street"},{"Latitude":"15.2812427","Longitude":"-61.3736013","Name":"Sam Gap"},{"Latitude":"15.5763628","Longitude":"-61.4539167","Name":"Sandwich Street"},{"Latitude":"15.5922851","Longitude":"-61.3565545","Name":"Savanne Paille"},{"Latitude":"15.6079534","Longitude":"-61.4565461","Name":"Savanne Paille / Guillet Road"},{"Latitude":"15.3022137","Longitude":"-61.3887617","Name":"Scotland Lane"},{"Latitude":"15.3025152","Longitude":"-61.3889482","Name":"Scotland Street"},{"Latitude":"15.5763628","Longitude":"-61.4539167","Name":"Scott Street"},{"Latitude":"15.5675520","Longitude":"-61.4542271","Name":"Shilingford Lane"},{"Latitude":"15.3102290","Longitude":"-61.3880758","Name":"Shillingford Crescent"},{"Latitude":"15.2988450","Longitude":"-61.3892747","Name":"Ship Street"},{"Latitude":"15.3044386","Longitude":"-61.3871351","Name":"Shop Lane"},{"Latitude":"15.3044619","Longitude":"-61.3866721","Name":"Short Lane"},{"Latitude":"15.3038185","Longitude":"-61.3878246","Name":"Solomon Lane"},{"Latitude":"15.2796093","Longitude":"-61.3728052","Name":"South Leopold Drive"},{"Latitude":"15.3005284","Longitude":"-61.3897151","Name":"St. John's Avenue"},{"Latitude":"15.3020056","Longitude":"-61.3893677","Name":"Steber Street"},{"Latitude":"15.3093374","Longitude":"-61.3846361","Name":"Stockyard Street"},{"Latitude":"15.3086271","Longitude":"-61.3847597","Name":"Tarish Street"},{"Latitude":"15.5656698","Longitude":"-61.4552614","Name":"Tavernier Lane"},{"Latitude":"15.2809219","Longitude":"-61.3704161","Name":"Tavernier Street"},{"Latitude":"15.3063901","Longitude":"-61.3829351","Name":"Terrel Lane"},{"Latitude":"15.5810805","Longitude":"-61.3641542","Name":"Third Island"},{"Latitude":"15.4555267","Longitude":"-61.3155343","Name":"Transinsular Road"},{"Latitude":"15.2971259","Longitude":"-61.3854070","Name":"Turkey Lane"},{"Latitude":"15.2995907","Longitude":"-61.3872397","Name":"Upper Lane"},{"Latitude":"15.6295264","Longitude":"-61.4206675","Name":"Upper Pennville"},{"Latitude":"15.3011545","Longitude":"-61.3834405","Name":"Valley Road"},{"Latitude":"15.2383655","Longitude":"-61.3636641","Name":"Victoria Street"},{"Latitude":"15.2978368","Longitude":"-61.3857570","Name":"Virgin Lane"},{"Latitude":"15.4943460","Longitude":"-61.4270775","Name":"Waitukubuli Trail 9"},{"Latitude":"15.4001123","Longitude":"-61.3837509","Name":"Warner Road"},{"Latitude":"15.3074976","Longitude":"-61.3869960","Name":"Watty Lane"},{"Latitude":"15.2816955","Longitude":"-61.3724810","Name":"Watty Street"},{"Latitude":"15.5390604","Longitude":"-61.4745761","Name":"West Coast Road"},{"Latitude":"15.2815923","Longitude":"-61.3731034","Name":"West Leopold Drive"},{"Latitude":"15.5671694","Longitude":"-61.4563963","Name":"William Lane"},{"Latitude":"15.5885157","Longitude":"-61.3596621","Name":"Wind Blow Road"},{"Latitude":"15.3055247","Longitude":"-61.3804728","Name":"Windsor Gap"},{"Latitude":"15.2820543","Longitude":"-61.3715438","Name":"Winski Street"},{"Latitude":"15.3045755","Longitude":"-61.3896707","Name":"Winston Lane"}]