[{"Latitude":"-29.0517818","Longitude":"167.9786674","Name":"Allendale Drive"},{"Latitude":"-29.0269234","Longitude":"167.9242200","Name":"Anson Bay Road"},{"Latitude":"-29.0524270","Longitude":"167.9470131","Name":"Beefsteak Road"},{"Latitude":"-29.0372188","Longitude":"167.9411231","Name":"Ben Christian Drive"},{"Latitude":"-29.0242049","Longitude":"167.9264788","Name":"Bishop Patteson Road"},{"Latitude":"-29.0330359","Longitude":"167.9876721","Name":"Buffetts Road"},{"Latitude":"-29.0107688","Longitude":"167.9287998","Name":"Bullocks Hut Road"},{"Latitude":"-29.0525764","Longitude":"167.9419963","Name":"Bumboras Road"},{"Latitude":"-29.0431978","Longitude":"167.9319538","Name":"Calebs Lane"},{"Latitude":"-29.0071738","Longitude":"167.9329808","Name":"Captain Cook Road"},{"Latitude":"-29.0449105","Longitude":"167.9344535","Name":"Captain Quintal Drive"},{"Latitude":"-29.0258683","Longitude":"167.9699726","Name":"Cascade Road"},{"Latitude":"-29.0408963","Longitude":"167.9662672","Name":"Cats Lane"},{"Latitude":"-29.0353173","Longitude":"167.9713627","Name":"Christians Lane"},{"Latitude":"-29.0499829","Longitude":"167.9317398","Name":"Cobby Robinson Road"},{"Latitude":"-29.0464113","Longitude":"167.9728037","Name":"Collins Head Road"},{"Latitude":"-29.0489788","Longitude":"167.9495456","Name":"Country Road"},{"Latitude":"-29.0407290","Longitude":"167.9721272","Name":"Cutters Corn Road"},{"Latitude":"-29.0412398","Longitude":"167.9696091","Name":"Davies Road"},{"Latitude":"-29.0350541","Longitude":"167.9325633","Name":"Douglas Drive"},{"Latitude":"-29.0564511","Longitude":"167.9713386","Name":"Driver Christian Road"},{"Latitude":"-29.0387947","Longitude":"167.9622151","Name":"Edward Young Road"},{"Latitude":"-29.0335459","Longitude":"167.9739371","Name":"Ephraim Christian Road"},{"Latitude":"-29.0421813","Longitude":"167.9642023","Name":"Fay Bataille Drive"},{"Latitude":"-29.0445234","Longitude":"167.9463962","Name":"Ferny Lane"},{"Latitude":"-28.9985695","Longitude":"167.9248297","Name":"Fishermans Lane"},{"Latitude":"-29.0404180","Longitude":"167.9637496","Name":"Fletcher Christian Road"},{"Latitude":"-29.0302207","Longitude":"167.9432195","Name":"George Hunn Nobbs Road"},{"Latitude":"-29.0283221","Longitude":"167.9602003","Name":"Goldies Lane"},{"Latitude":"-29.0316428","Longitude":"167.9466352","Name":"Grassy Road"},{"Latitude":"-29.0255882","Longitude":"167.9639242","Name":"Harpers Road"},{"Latitude":"-29.0368700","Longitude":"167.9240959","Name":"Headstone Road"},{"Latitude":"-29.0371262","Longitude":"167.9637140","Name":"Hemus Road"},{"Latitude":"-29.0409412","Longitude":"167.9843390","Name":"Hibiscus Drive"},{"Latitude":"-29.0313719","Longitude":"167.9723372","Name":"Holman Christian Lane"},{"Latitude":"-29.0211493","Longitude":"167.9547464","Name":"J. E. Road"},{"Latitude":"-29.0397592","Longitude":"167.9618287","Name":"John Adams Road"},{"Latitude":"-29.0269165","Longitude":"167.9872016","Name":"John Quintal Road"},{"Latitude":"-29.0389928","Longitude":"167.9744254","Name":"Jonathan Adams Road"},{"Latitude":"-29.0433688","Longitude":"167.9697445","Name":"Little Cutters Corn"},{"Latitude":"-29.0336775","Longitude":"167.9448760","Name":"Little Green Lane"},{"Latitude":"-29.0501283","Longitude":"167.9464117","Name":"Longridge Road"},{"Latitude":"-29.0482798","Longitude":"167.9828716","Name":"Marshes Road"},{"Latitude":"-29.0444947","Longitude":"167.9855503","Name":"Martins Road"},{"Latitude":"-29.0277548","Longitude":"167.9768191","Name":"Matts Ground Road"},{"Latitude":"-29.0488022","Longitude":"167.9586904","Name":"Middlegate Road"},{"Latitude":"-29.0316308","Longitude":"167.9722764","Name":"Mill Road"},{"Latitude":"-29.0297794","Longitude":"167.9334561","Name":"Mission Road"},{"Latitude":"-29.0329176","Longitude":"167.9472819","Name":"Mitchell's Lane"},{"Latitude":"-29.0158375","Longitude":"167.9370243","Name":"Mount Pitt Road"},{"Latitude":"-29.0399305","Longitude":"167.9589282","Name":"Mulberry Lane"},{"Latitude":"-29.0338850","Longitude":"167.9530406","Name":"New Cascade Road"},{"Latitude":"-29.0481479","Longitude":"167.9269788","Name":"New Farm Road"},{"Latitude":"-29.0410402","Longitude":"167.9615479","Name":"Pitcairn Place"},{"Latitude":"-29.0443243","Longitude":"167.9776811","Name":"Potts Farm Road"},{"Latitude":"-29.0263500","Longitude":"167.9492613","Name":"Poverty Row"},{"Latitude":"-29.0215505","Longitude":"167.9657996","Name":"Prince Philip Drive"},{"Latitude":"-29.0563552","Longitude":"167.9637841","Name":"Quality Row"},{"Latitude":"-29.0408651","Longitude":"167.9599124","Name":"Queen Elizabeth Avenue"},{"Latitude":"-29.0165178","Longitude":"167.9560500","Name":"Red Road"},{"Latitude":"-29.0534289","Longitude":"167.9336355","Name":"Rocky Point Road"},{"Latitude":"-29.0512439","Longitude":"167.9669216","Name":"Rooty Hill Road"},{"Latitude":"-29.0255992","Longitude":"167.9529479","Name":"Selwyn Pine Road"},{"Latitude":"-29.0402721","Longitude":"167.9596043","Name":"Shortridge Road"},{"Latitude":"-29.0374339","Longitude":"167.9604184","Name":"Snells Lane"},{"Latitude":"-29.0406728","Longitude":"167.9824346","Name":"Stockyard Road"},{"Latitude":"-29.0267523","Longitude":"167.9829405","Name":"Taries Lane"},{"Latitude":"-29.0441842","Longitude":"167.9539929","Name":"Taylors Road"},{"Latitude":"-29.0294314","Longitude":"167.9623221","Name":"Tevarua Lane"},{"Latitude":"-29.0342666","Longitude":"167.9556096","Name":"The Village Place"},{"Latitude":"-29.0365861","Longitude":"167.9890763","Name":"Two Chimneys Road"},{"Latitude":"-29.0436552","Longitude":"167.9882248","Name":"Uncle Joes Road"},{"Latitude":"-29.0362048","Longitude":"167.9674803","Name":"Webb Adams Road"},{"Latitude":"-29.0304530","Longitude":"167.9610997","Name":"Yorlor Lane"},{"Latitude":"-29.0246902","Longitude":"167.9720287","Name":"Youngs Road"}]