[{"Latitude":"36.8262180","Longitude":"10.1058960","Name":"10135 نهج المرناقية"},{"Latitude":"36.8266035","Longitude":"10.1059495","Name":"10136 نهج الجريصة"},{"Latitude":"36.7573782","Longitude":"10.1907896","Name":"10260 نهج المستنصر الحفصي"},{"Latitude":"36.7513509","Longitude":"10.2039041","Name":"10407"},{"Latitude":"36.7608665","Longitude":"10.1795109","Name":"10708"},{"Latitude":"36.7551494","Longitude":"10.1817068","Name":"10816"},{"Latitude":"36.8295724","Longitude":"10.1142984","Name":"111 نهج السّعوديّة"},{"Latitude":"36.8309783","Longitude":"10.1108199","Name":"1115 نهج الشّام"},{"Latitude":"36.8317716","Longitude":"10.1117275","Name":"1116 نهج لبنان"},{"Latitude":"36.8316157","Longitude":"10.1128634","Name":"1122 نهج دمشق"},{"Latitude":"36.7585780","Longitude":"10.1768254","Name":"11714"},{"Latitude":"36.8294863","Longitude":"10.1043304","Name":"145نهج بن سنوسي"},{"Latitude":"36.8318389","Longitude":"10.1076324","Name":"1713 نهج سليمان بن سليمان"},{"Latitude":"36.8384919","Longitude":"10.1071795","Name":"1819 نهج عبد الله ابن أبي"},{"Latitude":"36.8387142","Longitude":"10.1067387","Name":"1824 نهج عبد الرّحمان الجزيري"},{"Latitude":"36.8311713","Longitude":"10.1076733","Name":"1زقاق نهج عليّ الزواوي712"},{"Latitude":"35.8331201","Longitude":"10.6201328","Name":"20 مارس 1956"},{"Latitude":"36.8678242","Longitude":"10.1128748","Name":"31049"},{"Latitude":"36.8002602","Longitude":"10.1403438","Name":"4145"},{"Latitude":"36.7900710","Longitude":"10.1306853","Name":"4518"},{"Latitude":"36.8479798","Longitude":"10.1004307","Name":"54 نهج الحبحاب إبن المنذر"},{"Latitude":"36.8406414","Longitude":"10.1299656","Name":"6020"},{"Latitude":"36.8284294","Longitude":"10.0891204","Name":"Abed Allah Ben Hareth"},{"Latitude":"36.8297770","Longitude":"10.0888350","Name":"Abed Rahmen Ben Aouf"},{"Latitude":"36.8779652","Longitude":"10.3183613","Name":"Abouzaied Anssarie"},{"Latitude":"36.8793020","Longitude":"10.3218444","Name":"Aden"},{"Latitude":"35.8587493","Longitude":"10.5975828","Name":"Agil"},{"Latitude":"36.7601230","Longitude":"10.1873691","Name":"Ahmed"},{"Latitude":"34.6794587","Longitude":"9.0988669","Name":"Ain Ouled Ouhiba"},{"Latitude":"36.8806453","Longitude":"10.3168050","Name":"Al Hambra"},{"Latitude":"36.8002179","Longitude":"10.0988621","Name":"Ali Saiidi"},{"Latitude":"36.8245646","Longitude":"10.1698751","Name":"Allee Bertier"},{"Latitude":"36.8171086","Longitude":"10.1718968","Name":"Allee Jeanin"},{"Latitude":"36.8767201","Longitude":"10.3141749","Name":"Alpes"},{"Latitude":"36.8493267","Longitude":"10.3098549","Name":"Ammane"},{"Latitude":"36.8268733","Longitude":"10.0892816","Name":"Approche Fermée"},{"Latitude":"35.8671410","Longitude":"10.6017557","Name":"Aristotle"},{"Latitude":"36.3959323","Longitude":"9.4895160","Name":"Aroussa Boujlida"},{"Latitude":"36.8744422","Longitude":"10.3166695","Name":"Assyriens"},{"Latitude":"36.7265233","Longitude":"10.2424443","Name":"Autoroute A1 - Sortie Hammam-Lif, Mornag - Ben Arous"},{"Latitude":"36.8867604","Longitude":"10.3091664","Name":"Avenir Jeunesse Marsa"},{"Latitude":"33.6679612","Longitude":"10.3508256","Name":"Avenue 7 Novembre"},{"Latitude":"36.7238779","Longitude":"10.2145567","Name":"Avenue Africia"},{"Latitude":"33.9163443","Longitude":"8.1297762","Name":"Avenue Brahim Gadi"},{"Latitude":"35.6539803","Longitude":"10.0884117","Name":"Avenue Brahim Taktak"},{"Latitude":"36.8268415","Longitude":"10.1360705","Name":"Avenue El Wid"},{"Latitude":"35.8545555","Longitude":"10.6067610","Name":"Avenue Hadi Ghdes"},{"Latitude":"35.6596943","Longitude":"10.8914009","Name":"Avenue Hadj Ali Soua"},{"Latitude":"35.6729457","Longitude":"10.1018549","Name":"Avenue Hamda Laaouani"},{"Latitude":"33.8762652","Longitude":"10.8604923","Name":"Avenue Jamaa El Ghoraba"},{"Latitude":"36.4491864","Longitude":"10.7261163","Name":"Avenue Jdeida Magherbia"},{"Latitude":"36.7232309","Longitude":"10.2096734","Name":"Avenue Makka El Mokarrama"},{"Latitude":"35.8291844","Longitude":"10.6356827","Name":"Avenue Mohamed Maarout"},{"Latitude":"35.8159839","Longitude":"10.6454903","Name":"Avenue Taïeb El Ghachem"},{"Latitude":"36.8550035","Longitude":"10.3239901","Name":"Avenue d'Amphithéatre"},{"Latitude":"36.7112750","Longitude":"10.2086176","Name":"Avenue de Pétrel"},{"Latitude":"36.8655134","Longitude":"10.1932383","Name":"Avenue de l'Intimité"},{"Latitude":"35.8616068","Longitude":"10.6001571","Name":"Avenue de la Mosquée Zaytouna"},{"Latitude":"36.9040539","Longitude":"10.3121737","Name":"Avenue de la Promenade"},{"Latitude":"36.7071471","Longitude":"10.4032179","Name":"Avenue des Arts"},{"Latitude":"35.8185787","Longitude":"10.6261329","Name":"Avenue des Catacombes"},{"Latitude":"36.8632262","Longitude":"10.1763318","Name":"Avenue des Roses"},{"Latitude":"36.8130727","Longitude":"10.0226185","Name":"Avenue des Sanhajites"},{"Latitude":"35.7709291","Longitude":"10.8232310","Name":"Avenue du Combattant Supreme"},{"Latitude":"35.6652791","Longitude":"10.0935470","Name":"Avenue du Général Habib Assouissi"},{"Latitude":"36.3485795","Longitude":"10.2154425","Name":"Avenue du Martyr Nouri Aguibi"},{"Latitude":"36.8767895","Longitude":"10.3134875","Name":"Ayalas"},{"Latitude":"35.8935481","Longitude":"10.5796435","Name":"Baie des Anges"},{"Latitude":"37.2407654","Longitude":"9.8516706","Name":"Baie des Carrires_الشعرة"},{"Latitude":"35.8519526","Longitude":"10.5987666","Name":"Boulevard Abdelkader Daghrir"},{"Latitude":"36.7705988","Longitude":"9.7045339","Name":"Boulevard Amara Bel Hamra"},{"Latitude":"35.6725981","Longitude":"10.1025918","Name":"Boulevard H Bourguilla"},{"Latitude":"36.4433634","Longitude":"10.7432355","Name":"Boulevard de la Corniche"},{"Latitude":"33.8250170","Longitude":"10.9320972","Name":"Boulimen"},{"Latitude":"36.7987263","Longitude":"10.1059460","Name":"Boulvard Ennakhil"},{"Latitude":"35.8775878","Longitude":"10.6009309","Name":"Boussou Hornou"},{"Latitude":"36.8540839","Longitude":"10.3253384","Name":"Byzance"},{"Latitude":"36.6336636","Longitude":"9.2681587","Name":"C76"},{"Latitude":"33.8123138","Longitude":"10.9347962","Name":"Cedghiane"},{"Latitude":"33.2385866","Longitude":"10.2162740","Name":"Ceinture Beni Khedache"},{"Latitude":"35.8465884","Longitude":"10.6190549","Name":"Cf Khezama"},{"Latitude":"35.8626100","Longitude":"10.6102599","Name":"Cf Zitouna I"},{"Latitude":"35.8560373","Longitude":"10.6155020","Name":"Cf Zitouna II"},{"Latitude":"35.8408310","Longitude":"10.5979214","Name":"Cf du Leader Yasser Arafat"},{"Latitude":"36.8127495","Longitude":"9.9424444","Name":"Chafrou"},{"Latitude":"36.8817371","Longitude":"10.3133391","Name":"Cheikh Taieb Sayala"},{"Latitude":"34.7642717","Longitude":"11.2338664","Name":"Chergui - Sidi El Moujahed"},{"Latitude":"36.8553925","Longitude":"10.3285472","Name":"Citernes"},{"Latitude":"36.4046423","Longitude":"10.6285992","Name":"Cité Mourad Pacha"},{"Latitude":"37.3011543","Longitude":"9.8655771","Name":"Corniche"},{"Latitude":"36.8797847","Longitude":"10.3229360","Name":"Ech-Cheme"},{"Latitude":"36.8553608","Longitude":"10.3122427","Name":"Echebba"},{"Latitude":"35.7251474","Longitude":"10.5862552","Name":"El Barid"},{"Latitude":"36.8799478","Longitude":"10.3248551","Name":"El Ebdellia"},{"Latitude":"36.8478270","Longitude":"10.3112853","Name":"El Fath"},{"Latitude":"33.8254909","Longitude":"10.9499185","Name":"El Gaed"},{"Latitude":"36.8758004","Longitude":"10.3130589","Name":"El Medina"},{"Latitude":"36.8308383","Longitude":"10.0951743","Name":"El Qaleat El Ssughraa"},{"Latitude":"36.8488818","Longitude":"10.3097456","Name":"Ennasr"},{"Latitude":"36.8550900","Longitude":"10.3259350","Name":"Enée"},{"Latitude":"33.5026267","Longitude":"11.1049962","Name":"Erraja"},{"Latitude":"36.8259192","Longitude":"10.1178896","Name":"Grand Maghreb Arabe"},{"Latitude":"33.8431868","Longitude":"10.9065071","Name":"Guechaine"},{"Latitude":"36.8317423","Longitude":"10.0950646","Name":"Habira"},{"Latitude":"36.8485758","Longitude":"10.3100314","Name":"Hattine"},{"Latitude":"36.7145335","Longitude":"10.2122949","Name":"Ibn Awene"},{"Latitude":"35.6183163","Longitude":"9.9274175","Name":"Ibn Jazar"},{"Latitude":"36.8418967","Longitude":"10.1513270","Name":"Imp Sur Rue 7200"},{"Latitude":"36.7534989","Longitude":"10.1888806","Name":"Impasse"},{"Latitude":"36.8813628","Longitude":"10.2881334","Name":"Impasse 1 Jaber Ibn Hayen"},{"Latitude":"36.8833376","Longitude":"10.2516536","Name":"Impasse 1 des Fruits"},{"Latitude":"36.8490855","Longitude":"10.1533173","Name":"Impasse 1 sur Rue 7204"},{"Latitude":"36.8829235","Longitude":"10.2500624","Name":"Impasse 1bis des Fruits"},{"Latitude":"36.8820182","Longitude":"10.2881451","Name":"Impasse 2 Jaber Ibn Hayen"},{"Latitude":"36.8835940","Longitude":"10.2493650","Name":"Impasse 2 des Fruits"},{"Latitude":"36.8862949","Longitude":"10.2431095","Name":"Impasse 3 des Fruits"},{"Latitude":"36.8883984","Longitude":"10.2408832","Name":"Impasse 4 des Fruits"},{"Latitude":"36.8833033","Longitude":"10.2474305","Name":"Impasse 5 des Fruits"},{"Latitude":"36.8761964","Longitude":"10.2960487","Name":"Impasse Abou El Ala El Maari"},{"Latitude":"36.8947127","Longitude":"10.3182247","Name":"Impasse Bline"},{"Latitude":"36.8688153","Longitude":"10.3405954","Name":"Impasse Boudhina"},{"Latitude":"36.8818594","Longitude":"10.3071184","Name":"Impasse Canne"},{"Latitude":"36.9056213","Longitude":"10.2941901","Name":"Impasse El Ala Ibn Moughith"},{"Latitude":"36.8694782","Longitude":"10.3200620","Name":"Impasse El Djaldaki"},{"Latitude":"36.9103959","Longitude":"10.2861812","Name":"Impasse El Fel N°2"},{"Latitude":"36.9104593","Longitude":"10.2863856","Name":"Impasse El Fel n°1"},{"Latitude":"37.0511803","Longitude":"11.0097593","Name":"Impasse El Khadhri El Miladi"},{"Latitude":"36.8767475","Longitude":"10.2961148","Name":"Impasse El Khansaa"},{"Latitude":"36.8766445","Longitude":"10.2957584","Name":"Impasse El Khansaa n2"},{"Latitude":"36.8807943","Longitude":"10.3231926","Name":"Impasse Essahli"},{"Latitude":"36.8727410","Longitude":"10.3421469","Name":"Impasse Ezzitouna n°4"},{"Latitude":"36.8208605","Longitude":"10.0244504","Name":"Impasse Fallisse"},{"Latitude":"36.8618721","Longitude":"10.3358717","Name":"Impasse Firus"},{"Latitude":"36.8613649","Longitude":"10.3363605","Name":"Impasse Gildon"},{"Latitude":"36.8917597","Longitude":"10.3171036","Name":"Impasse Hannibal"},{"Latitude":"36.8694951","Longitude":"10.3452860","Name":"Impasse Hassen Zmerli"},{"Latitude":"36.8831724","Longitude":"10.3231774","Name":"Impasse Hedi Saidi"},{"Latitude":"36.8509182","Longitude":"10.3236495","Name":"Impasse Hercule"},{"Latitude":"36.9149519","Longitude":"10.2941244","Name":"Impasse Houdhaifa Ibn Alimene"},{"Latitude":"36.8878578","Longitude":"10.3087465","Name":"Impasse Jammel 1"},{"Latitude":"36.8462627","Longitude":"10.3108121","Name":"Impasse Jaouahar Essikelli"},{"Latitude":"36.8690288","Longitude":"10.3377025","Name":"Impasse Jasmin"},{"Latitude":"35.8613563","Longitude":"10.6081761","Name":"Impasse Kamal El Kilani"},{"Latitude":"36.8941160","Longitude":"10.3121155","Name":"Impasse Kanassira"},{"Latitude":"36.8513989","Longitude":"10.3223070","Name":"Impasse Malgart"},{"Latitude":"36.8984139","Longitude":"10.3187330","Name":"Impasse Matous"},{"Latitude":"36.8868421","Longitude":"10.3093622","Name":"Impasse Moutafara"},{"Latitude":"36.4053483","Longitude":"10.6337886","Name":"Impasse Othman Kaak"},{"Latitude":"36.8322025","Longitude":"10.1786184","Name":"Impasse Quali"},{"Latitude":"36.8634000","Longitude":"10.1158883","Name":"Impasse Salah Abdelhay"},{"Latitude":"37.0511314","Longitude":"11.0101086","Name":"Impasse Sidi Bou Ayech"},{"Latitude":"37.0501777","Longitude":"11.0122248","Name":"Impasse Souk El Khadhra"},{"Latitude":"36.9040039","Longitude":"10.2956402","Name":"Impasse Tabari"},{"Latitude":"36.8915905","Longitude":"10.3175750","Name":"Impasse Tite Live 1"},{"Latitude":"36.8907243","Longitude":"10.3175092","Name":"Impasse Tite Live 2"},{"Latitude":"36.8655014","Longitude":"10.3376030","Name":"Impasse de la Falaise"},{"Latitude":"36.8844411","Longitude":"10.3068772","Name":"Impasse de la Tranquilité 1"},{"Latitude":"36.8469267","Longitude":"10.3278421","Name":"Impasse de la Vague"},{"Latitude":"36.8862628","Longitude":"10.2438685","Name":"Impasse des Fruits"},{"Latitude":"36.8827538","Longitude":"10.3130842","Name":"Impasse des Plaines"},{"Latitude":"36.8866736","Longitude":"10.3251033","Name":"Impasse des Roses"},{"Latitude":"36.8634547","Longitude":"10.3075871","Name":"Impasse du Cimetière"},{"Latitude":"36.8750625","Longitude":"10.3292033","Name":"Impasse du Laurier Rose"},{"Latitude":"36.8724371","Longitude":"10.3484287","Name":"Impasse du Phare"},{"Latitude":"36.8071039","Longitude":"10.1453383","Name":"Impasse du figuier"},{"Latitude":"36.8476578","Longitude":"10.1530422","Name":"Impasse sur Rue 7213"},{"Latitude":"36.8767958","Longitude":"10.3249771","Name":"Jaouhar Skolli"},{"Latitude":"36.8751042","Longitude":"10.1761320","Name":"Jerissa"},{"Latitude":"35.6701986","Longitude":"10.0831036","Name":"KAIR-Naser 6"},{"Latitude":"35.6693526","Longitude":"10.0825457","Name":"KAIR-Naser2"},{"Latitude":"35.6698548","Longitude":"10.0826707","Name":"KAIR-Naser4"},{"Latitude":"35.6701116","Longitude":"10.0828220","Name":"KAIR-Naser5"},{"Latitude":"37.2123142","Longitude":"10.1324734","Name":"Lotissement Bali"},{"Latitude":"37.2126600","Longitude":"10.1328550","Name":"Lotissement Mzah"},{"Latitude":"37.2380215","Longitude":"10.0128110","Name":"Maison Loussaief"},{"Latitude":"36.7255360","Longitude":"10.2108505","Name":"Martyrs"},{"Latitude":"33.8584346","Longitude":"10.9467760","Name":"Mezraya 1"},{"Latitude":"33.8596838","Longitude":"10.9583279","Name":"Mezraya 2"},{"Latitude":"36.8656232","Longitude":"10.3088202","Name":"Moez Lidin Allah"},{"Latitude":"36.8012906","Longitude":"10.1004814","Name":"Mohamed El Warak"},{"Latitude":"36.8726110","Longitude":"10.3143355","Name":"Mohamed Saidi Belkhouja"},{"Latitude":"36.8782681","Longitude":"10.3126448","Name":"Mosquée du Dôme du Rocher"},{"Latitude":"36.8954742","Longitude":"10.2964915","Name":"Nasra"},{"Latitude":"36.8194024","Longitude":"10.0925269","Name":"Omar Khalfet"},{"Latitude":"36.8504255","Longitude":"10.3082635","Name":"Ouchtata"},{"Latitude":"36.8498922","Longitude":"10.3074476","Name":"Oueslata"},{"Latitude":"34.7497577","Longitude":"10.5673047","Name":"PA_CA_18"},{"Latitude":"34.6068178","Longitude":"10.3639536","Name":"PA_CA_24"},{"Latitude":"34.7801250","Longitude":"10.5170214","Name":"PA_CA_26"},{"Latitude":"34.7907527","Longitude":"10.5445053","Name":"PA_CA_32"},{"Latitude":"34.8364193","Longitude":"10.3018646","Name":"PA_CA_33"},{"Latitude":"34.7966514","Longitude":"10.3909109","Name":"PA_CA_35"},{"Latitude":"34.7903330","Longitude":"10.2766961","Name":"PA_CA_36"},{"Latitude":"34.7867665","Longitude":"10.3358310","Name":"PA_CA_37"},{"Latitude":"34.7747785","Longitude":"10.3829699","Name":"PA_CA_39"},{"Latitude":"34.6931630","Longitude":"10.4398321","Name":"PA_CA_43"},{"Latitude":"34.6887440","Longitude":"10.4470953","Name":"PA_CA_46"},{"Latitude":"34.6916665","Longitude":"10.4515943","Name":"PA_CA_47"},{"Latitude":"34.6962164","Longitude":"10.4453172","Name":"PA_CA_48"},{"Latitude":"34.7115526","Longitude":"10.4525860","Name":"PA_CA_49"},{"Latitude":"34.7334659","Longitude":"10.4337770","Name":"PA_CA_50"},{"Latitude":"34.6841618","Longitude":"10.5446567","Name":"PA_CA_7"},{"Latitude":"36.8793712","Longitude":"10.3332149","Name":"Pascal"},{"Latitude":"36.8946491","Longitude":"10.2979211","Name":"Passage Aden n°2"},{"Latitude":"36.8967285","Longitude":"10.2949619","Name":"Passage Edouali"},{"Latitude":"36.7698986","Longitude":"10.2429552","Name":"Passage El Andalous"},{"Latitude":"35.6702067","Longitude":"10.8584605","Name":"Passage El Fell"},{"Latitude":"36.7408960","Longitude":"10.3001037","Name":"Passage El Wahat"},{"Latitude":"35.8815152","Longitude":"10.5999698","Name":"Passage Hausham"},{"Latitude":"35.8746374","Longitude":"10.6026287","Name":"Passage Kouriat"},{"Latitude":"35.8756263","Longitude":"10.6020065","Name":"Passage des Perles"},{"Latitude":"35.8771292","Longitude":"10.6020333","Name":"Passage du Dauphin"},{"Latitude":"35.8738387","Longitude":"10.6032228","Name":"Passage du Sahel"},{"Latitude":"35.8811264","Longitude":"10.6003737","Name":"Passage du Saint"},{"Latitude":"36.8748060","Longitude":"10.3168997","Name":"Perses"},{"Latitude":"36.4180622","Longitude":"10.5285113","Name":"Pipeline Piste"},{"Latitude":"33.2219964","Longitude":"9.1924588","Name":"Piste Douz-Parc Jebil"},{"Latitude":"35.9159799","Longitude":"10.5769077","Name":"Piste Resto"},{"Latitude":"35.7844396","Longitude":"10.6172220","Name":"Piste Sonede"},{"Latitude":"36.1828335","Longitude":"8.7156271","Name":"Place Ben Ayssa"},{"Latitude":"34.7163767","Longitude":"10.7163222","Name":"R0001"},{"Latitude":"33.1760314","Longitude":"11.1915682","Name":"RL 109 طج"},{"Latitude":"33.1297146","Longitude":"11.2069988","Name":"RL طج 111"},{"Latitude":"33.1298404","Longitude":"11.2391371","Name":"RL طم 989"},{"Latitude":"33.1508278","Longitude":"11.1876782","Name":"RL طم 990"},{"Latitude":"33.1049583","Longitude":"11.2059528","Name":"RL طم 994"},{"Latitude":"32.9277930","Longitude":"11.2222138","Name":"RL طم 995"},{"Latitude":"36.9602700","Longitude":"9.5290920","Name":"RL913"},{"Latitude":"34.6971224","Longitude":"10.5579403","Name":"RP_CA_11"},{"Latitude":"34.6289273","Longitude":"10.5993507","Name":"RP_CA_20"},{"Latitude":"34.7851972","Longitude":"10.5283195","Name":"RR_CA_11"},{"Latitude":"34.7430848","Longitude":"10.5332185","Name":"RR_CA_16"},{"Latitude":"34.7469401","Longitude":"10.5245148","Name":"RR_CA_47"},{"Latitude":"34.7416704","Longitude":"10.5203117","Name":"RR_CA_79"},{"Latitude":"34.7454896","Longitude":"10.5513439","Name":"RR_CA_9"},{"Latitude":"34.7416533","Longitude":"10.5187199","Name":"RR_DH_15"},{"Latitude":"34.7398783","Longitude":"10.5298754","Name":"RS_CA_14"},{"Latitude":"34.6551288","Longitude":"10.3334436","Name":"RS_CA_21"},{"Latitude":"34.6308796","Longitude":"10.3864387","Name":"RS_CA_47"},{"Latitude":"34.7401710","Longitude":"10.5286615","Name":"RS_DH_1"},{"Latitude":"34.7224132","Longitude":"11.1924632","Name":"Remla-Branka"},{"Latitude":"35.9241759","Longitude":"10.5707386","Name":"Residence Adam"},{"Latitude":"35.9305212","Longitude":"10.5645686","Name":"Residence M'Paradise"},{"Latitude":"36.8766850","Longitude":"10.3228994","Name":"Rhodésie"},{"Latitude":"36.8418742","Longitude":"10.3060622","Name":"Rimel"},{"Latitude":"34.3091467","Longitude":"8.1410247","Name":"Rommel Piste"},{"Latitude":"33.6799721","Longitude":"8.9905189","Name":"Rondpoint BAZMA"},{"Latitude":"37.1980898","Longitude":"9.7545869","Name":"Route Ain Farwa - ﺓﻭﺮﻓ ﻦﻴﻋ ﻖﻳﺮﻃ"},{"Latitude":"36.8767510","Longitude":"10.3382045","Name":"Route Archevêché"},{"Latitude":"34.5269818","Longitude":"8.8875452","Name":"Route Bir Zouari"},{"Latitude":"33.6029856","Longitude":"10.5601218","Name":"Route Boughrara"},{"Latitude":"34.3738163","Longitude":"8.1315364","Name":"Route Carriere Sath Ezzarga"},{"Latitude":"35.5821002","Longitude":"10.8034718","Name":"Route Ceinture Beni Hassen"},{"Latitude":"37.2033798","Longitude":"9.7344232","Name":"Route El-Tal - ﻞﺘﻟﺍ ﻖﻳﺮﻃ"},{"Latitude":"34.5518820","Longitude":"8.9625679","Name":"Route Ezzaabtia"},{"Latitude":"34.5982117","Longitude":"8.8259402","Name":"Route Guettis"},{"Latitude":"36.6652240","Longitude":"9.0050829","Name":"Route Kasseb"},{"Latitude":"34.7429494","Longitude":"10.5180812","Name":"Route Lahoual"},{"Latitude":"34.6552942","Longitude":"8.8328871","Name":"Route Sidi Aich"},{"Latitude":"35.6502131","Longitude":"10.9361359","Name":"Route Soukrine, Téboulba"},{"Latitude":"34.4725043","Longitude":"9.1774115","Name":"Route de Tafertaset"},{"Latitude":"33.7854827","Longitude":"8.7752977","Name":"Route de l'espoir"},{"Latitude":"35.8653179","Longitude":"10.6082144","Name":"Route de la Plage"},{"Latitude":"36.8788318","Longitude":"10.3211654","Name":"Royaumes Arabes"},{"Latitude":"32.9400702","Longitude":"10.4547652","Name":"Rue  Docteur Ben Hammouda"},{"Latitude":"32.9436582","Longitude":"10.4608941","Name":"Rue  Rafh"},{"Latitude":"36.8301220","Longitude":"10.0789409","Name":"Rue 4735"},{"Latitude":"36.7964224","Longitude":"10.1532327","Name":"Rue A. El M'Hiri"},{"Latitude":"36.8418855","Longitude":"10.1020149","Name":"Rue Aba Zoumaa Albaladi"},{"Latitude":"36.8288913","Longitude":"10.0971778","Name":"Rue Abadila"},{"Latitude":"36.8271227","Longitude":"10.0886712","Name":"Rue Abd Allah Ben Omar"},{"Latitude":"37.2116963","Longitude":"10.1300034","Name":"Rue Abd Essalem El Elj"},{"Latitude":"36.8264507","Longitude":"10.0865073","Name":"Rue Abdalah Ben Rweha"},{"Latitude":"36.8717014","Longitude":"10.3122521","Name":"Rue Abdallah Chokratssi"},{"Latitude":"35.8466919","Longitude":"10.6057205","Name":"Rue Abdallah El Baidhaoui"},{"Latitude":"36.8031569","Longitude":"10.1326645","Name":"Rue Abdallah Ibn Jerah"},{"Latitude":"36.8127041","Longitude":"10.1343970","Name":"Rue Abdallah Ibn Moussa"},{"Latitude":"35.8222467","Longitude":"10.6190439","Name":"Rue Abdel Hamid Sakka"},{"Latitude":"37.2123600","Longitude":"10.1291699","Name":"Rue Abdel Jabbar Idriss"},{"Latitude":"36.8343874","Longitude":"10.1297205","Name":"Rue Abdel Majid Ellaoui"},{"Latitude":"35.8225914","Longitude":"10.6285121","Name":"Rue AbdelMajid Arnaz"},{"Latitude":"36.8796914","Longitude":"10.3254926","Name":"Rue Abdelaziz Chetioui"},{"Latitude":"35.8504673","Longitude":"10.6119857","Name":"Rue Abdelaziz Darraa"},{"Latitude":"35.8380904","Longitude":"10.6166408","Name":"Rue Abdelaziz El Bawandi"},{"Latitude":"35.8210168","Longitude":"10.6260364","Name":"Rue Abdelhamid Lasska"},{"Latitude":"36.8832553","Longitude":"10.3295292","Name":"Rue Abdelkarim Sayem"},{"Latitude":"36.8416842","Longitude":"10.1534151","Name":"Rue Abdelwaheb Hamda"},{"Latitude":"36.8235699","Longitude":"10.0777519","Name":"Rue Abderahmen El Azdi"},{"Latitude":"36.7416062","Longitude":"10.3021488","Name":"Rue Abderazzek Chraibi"},{"Latitude":"36.7968869","Longitude":"10.1526882","Name":"Rue Abderrahmen Snadli"},{"Latitude":"36.8535919","Longitude":"10.1631360","Name":"Rue Abderrazak Echraiti"},{"Latitude":"35.8446894","Longitude":"10.5983285","Name":"Rue Abdessamed Bouraoui"},{"Latitude":"36.8756116","Longitude":"10.2894231","Name":"Rue Abdessattar Ben Aifa"},{"Latitude":"36.8272669","Longitude":"10.0753372","Name":"Rue Abdo Allah Ben Marwen"},{"Latitude":"36.8168703","Longitude":"10.1403802","Name":"Rue Abdous Rue Abou Loubaba El Ansari"},{"Latitude":"36.8287383","Longitude":"10.0886209","Name":"Rue Abed Allah Ben Thawer"},{"Latitude":"37.2110326","Longitude":"10.1284728","Name":"Rue Abelaziz El Bourandi"},{"Latitude":"32.9432106","Longitude":"10.4604879","Name":"Rue Abha"},{"Latitude":"37.1592232","Longitude":"9.7779916","Name":"Rue Abid Nejai"},{"Latitude":"36.8295343","Longitude":"10.0778063","Name":"Rue Abou Abdallah Khazmi"},{"Latitude":"36.8746000","Longitude":"10.1822374","Name":"Rue Abou Abid El Bakri"},{"Latitude":"36.8300479","Longitude":"10.0873858","Name":"Rue Abou Ala Khethermi"},{"Latitude":"36.8304794","Longitude":"10.0797924","Name":"Rue Abou Alhasan Alhadri"},{"Latitude":"36.8605625","Longitude":"10.1820268","Name":"Rue Abou Baker Errandi"},{"Latitude":"37.2109875","Longitude":"10.1296262","Name":"Rue Abou Baker Errazi"},{"Latitude":"36.8478907","Longitude":"10.1627357","Name":"Rue Abou Baker Khaouarizmi"},{"Latitude":"36.8292197","Longitude":"10.0792345","Name":"Rue Abou Bakr Elakhmi"},{"Latitude":"36.8737664","Longitude":"10.1828952","Name":"Rue Abou El Hassen"},{"Latitude":"36.8732232","Longitude":"10.3125810","Name":"Rue Abou El Hassen El Chedly"},{"Latitude":"36.8202740","Longitude":"10.0228615","Name":"Rue Abou El Maouri"},{"Latitude":"34.4264578","Longitude":"8.7874306","Name":"Rue Abou Elatahia"},{"Latitude":"36.8815249","Longitude":"10.3338665","Name":"Rue Abou Faras El Hamdani"},{"Latitude":"32.9337546","Longitude":"10.4547384","Name":"Rue Abou Firas"},{"Latitude":"36.8197674","Longitude":"10.1385298","Name":"Rue Abou Hassen Chedly"},{"Latitude":"36.8889840","Longitude":"10.3198662","Name":"Rue Abou Hayane Ettaouhidi"},{"Latitude":"34.4322042","Longitude":"8.7857540","Name":"Rue Abou Hayen Ettaouhidi"},{"Latitude":"36.8965035","Longitude":"10.2951332","Name":"Rue Abou Lassoued Eddouali"},{"Latitude":"36.8299991","Longitude":"10.0804838","Name":"Rue Abou Mohamed Etouzri"},{"Latitude":"36.9098308","Longitude":"10.2966768","Name":"Rue Abou Oubaida El Bekri"},{"Latitude":"36.9105947","Longitude":"10.2967349","Name":"Rue Abou Oubeida El Bekri"},{"Latitude":"36.8476815","Longitude":"10.3067140","Name":"Rue Abou Rakrak"},{"Latitude":"36.8619290","Longitude":"10.1898985","Name":"Rue Abou Rayhane"},{"Latitude":"36.7372751","Longitude":"10.3230695","Name":"Rue Abou Rayhane Bayrouni"},{"Latitude":"36.8294505","Longitude":"10.0786867","Name":"Rue Abou Said El Beji"},{"Latitude":"35.6684676","Longitude":"10.1042940","Name":"Rue Abou Yousr Echaibani"},{"Latitude":"34.4280898","Longitude":"8.7866150","Name":"Rue Abou Zid Elhileli"},{"Latitude":"36.8490026","Longitude":"10.1637918","Name":"Rue Abou Zomaa El Balaoui"},{"Latitude":"36.8477512","Longitude":"10.1035139","Name":"Rue Aboul Hasen El Basri"},{"Latitude":"36.8472730","Longitude":"10.0974343","Name":"Rue Aboulhassen Chedhli"},{"Latitude":"36.8052737","Longitude":"10.0944058","Name":"Rue Abouzid Ell Hilali"},{"Latitude":"34.7402906","Longitude":"10.5263259","Name":"Rue Abu Zakaria Elhafsi"},{"Latitude":"36.8730475","Longitude":"10.3160338","Name":"Rue Accra"},{"Latitude":"36.8223381","Longitude":"10.0205679","Name":"Rue Adballah Ibn Omar"},{"Latitude":"35.8381051","Longitude":"10.6285623","Name":"Rue Aden"},{"Latitude":"36.7427810","Longitude":"10.2972874","Name":"Rue Afghan"},{"Latitude":"32.9162064","Longitude":"10.4631997","Name":"Rue Afriguia"},{"Latitude":"36.0867001","Longitude":"9.3692394","Name":"Rue Ahmed B Abi Eddiaf"},{"Latitude":"35.8505434","Longitude":"10.6060252","Name":"Rue Ahmed Bellalouna"},{"Latitude":"36.8452549","Longitude":"10.1550633","Name":"Rue Ahmed Echouk"},{"Latitude":"33.9184320","Longitude":"8.1350058","Name":"Rue Ahmed El Ayech"},{"Latitude":"35.8160634","Longitude":"10.6392972","Name":"Rue Ahmed Hassen Ezzayet"},{"Latitude":"35.1694231","Longitude":"8.8515460","Name":"Rue Ahmed Moujahed"},{"Latitude":"36.9067264","Longitude":"10.3022476","Name":"Rue Ahmed Ourabi"},{"Latitude":"35.8331310","Longitude":"10.6320593","Name":"Rue Ahmed Yemni"},{"Latitude":"34.4150808","Longitude":"8.7875367","Name":"Rue Ahmed Zaich"},{"Latitude":"36.8759947","Longitude":"10.2891462","Name":"Rue Aicha Ben Younes Riahi"},{"Latitude":"36.8272906","Longitude":"10.1380488","Name":"Rue Akouda"},{"Latitude":"32.9382367","Longitude":"10.4588999","Name":"Rue Aku"},{"Latitude":"36.4553616","Longitude":"10.7470118","Name":"Rue Al Arkam"},{"Latitude":"36.8665196","Longitude":"10.2176313","Name":"Rue Al Birouni"},{"Latitude":"35.1649322","Longitude":"8.8567199","Name":"Rue Al Kasr El Ahmar"},{"Latitude":"36.8241371","Longitude":"10.0995302","Name":"Rue Alasfaheni"},{"Latitude":"35.1747406","Longitude":"8.8521398","Name":"Rue Albassra"},{"Latitude":"32.9877805","Longitude":"10.4578498","Name":"Rue Albaydha"},{"Latitude":"32.9379316","Longitude":"10.4598910","Name":"Rue Albisan"},{"Latitude":"36.8825132","Longitude":"10.3063593","Name":"Rue Alcazar de Séville"},{"Latitude":"32.9265152","Longitude":"10.4567754","Name":"Rue Alchouhada"},{"Latitude":"35.1654162","Longitude":"8.8421944","Name":"Rue Alghzela"},{"Latitude":"32.9371487","Longitude":"10.4603393","Name":"Rue Alglgal"},{"Latitude":"32.9355381","Longitude":"10.4475823","Name":"Rue Alhira"},{"Latitude":"36.1798473","Longitude":"8.7101874","Name":"Rue Ali Ayech"},{"Latitude":"34.4257906","Longitude":"8.7837276","Name":"Rue Ali B Gthahem"},{"Latitude":"35.8587353","Longitude":"10.6058018","Name":"Rue Ali Ben Brahim"},{"Latitude":"36.8592303","Longitude":"10.1777494","Name":"Rue Ali Ben Ghdahem"},{"Latitude":"36.8313790","Longitude":"10.0880671","Name":"Rue Ali Ben Khalifa"},{"Latitude":"32.9343700","Longitude":"10.4517502","Name":"Rue Ali Dabbabi"},{"Latitude":"35.8671334","Longitude":"10.6011267","Name":"Rue Ali El Hosan"},{"Latitude":"35.8439837","Longitude":"10.6198130","Name":"Rue Ali El Ouahchi"},{"Latitude":"33.9210790","Longitude":"8.1285162","Name":"Rue Ali El Wartani"},{"Latitude":"35.8482670","Longitude":"10.6149649","Name":"Rue Ali Er-Riahi"},{"Latitude":"35.8479772","Longitude":"10.6017447","Name":"Rue Ali Ezzaoui"},{"Latitude":"36.7173367","Longitude":"10.2964853","Name":"Rue Ali Hani"},{"Latitude":"33.9241999","Longitude":"8.1361458","Name":"Rue Ali Ibn Hajib"},{"Latitude":"36.8759268","Longitude":"10.3272152","Name":"Rue Ali Kallel"},{"Latitude":"36.8762676","Longitude":"10.2878380","Name":"Rue Ali Noomane"},{"Latitude":"36.8602129","Longitude":"10.1896810","Name":"Rue Ali Tard"},{"Latitude":"32.9447400","Longitude":"10.4614622","Name":"Rue Ali Tounekti"},{"Latitude":"36.8640642","Longitude":"10.1140791","Name":"Rue Ali Trad"},{"Latitude":"36.8317150","Longitude":"10.1048409","Name":"Rue Ali el jarem"},{"Latitude":"32.9445277","Longitude":"10.4596115","Name":"Rue Alkadhimya"},{"Latitude":"32.9269131","Longitude":"10.4365282","Name":"Rue Alkala"},{"Latitude":"32.9384517","Longitude":"10.4596729","Name":"Rue Alkhalil"},{"Latitude":"34.4292674","Longitude":"8.7872721","Name":"Rue Allala El Fassi"},{"Latitude":"34.4296711","Longitude":"8.7874022","Name":"Rue Allala El Fesi"},{"Latitude":"32.9284170","Longitude":"10.4608954","Name":"Rue Allayle"},{"Latitude":"32.9262094","Longitude":"10.4364044","Name":"Rue Allejam"},{"Latitude":"35.1742775","Longitude":"8.8544682","Name":"Rue Almaarifa"},{"Latitude":"34.7389421","Longitude":"10.5233996","Name":"Rue Almawsil"},{"Latitude":"36.8173416","Longitude":"10.1421632","Name":"Rue Almoades"},{"Latitude":"32.9260846","Longitude":"10.4326370","Name":"Rue Alrohia"},{"Latitude":"32.9923415","Longitude":"10.4589374","Name":"Rue Alzawat"},{"Latitude":"35.8178556","Longitude":"10.6334715","Name":"Rue Am El Wizir"},{"Latitude":"36.8376943","Longitude":"10.1034552","Name":"Rue Amabilité"},{"Latitude":"34.7421415","Longitude":"10.5257700","Name":"Rue Amar Ben Yasser"},{"Latitude":"36.8869307","Longitude":"10.3236258","Name":"Rue Ambar"},{"Latitude":"35.8616688","Longitude":"10.5975835","Name":"Rue Ameur Daous"},{"Latitude":"36.8464457","Longitude":"10.3255565","Name":"Rue Amiraute"},{"Latitude":"36.7361274","Longitude":"10.3065544","Name":"Rue Amman"},{"Latitude":"34.7386318","Longitude":"10.5234211","Name":"Rue Ammar Sahnana"},{"Latitude":"34.4146065","Longitude":"8.7902628","Name":"Rue Amor Ghabia"},{"Latitude":"36.8144685","Longitude":"10.1300436","Name":"Rue Amor Jammali"},{"Latitude":"36.8383340","Longitude":"10.1222213","Name":"Rue Amor Khaskhous"},{"Latitude":"36.4026978","Longitude":"10.6281479","Name":"Rue Amor Zaiani"},{"Latitude":"35.8317034","Longitude":"10.5861157","Name":"Rue Anbar"},{"Latitude":"36.8265514","Longitude":"10.0968858","Name":"Rue Andalouss"},{"Latitude":"36.8758026","Longitude":"10.2887298","Name":"Rue André Barouche"},{"Latitude":"36.8434621","Longitude":"10.3219802","Name":"Rue Antoine"},{"Latitude":"36.8350065","Longitude":"10.1616823","Name":"Rue Apulée"},{"Latitude":"32.9417059","Longitude":"10.4621657","Name":"Rue Aquaba"},{"Latitude":"32.9415945","Longitude":"10.4597309","Name":"Rue Arar"},{"Latitude":"35.8147410","Longitude":"10.6412056","Name":"Rue Aresto"},{"Latitude":"35.8529524","Longitude":"10.6033540","Name":"Rue Asma Bent El Fourat"},{"Latitude":"36.8477507","Longitude":"10.1435050","Name":"Rue Assayda Rayhana Bent Zeid"},{"Latitude":"32.9865576","Longitude":"10.4589420","Name":"Rue Assefie"},{"Latitude":"35.8315927","Longitude":"10.6278081","Name":"Rue Assikili"},{"Latitude":"36.8792044","Longitude":"10.2005059","Name":"Rue Assiout"},{"Latitude":"32.9462985","Longitude":"10.4632437","Name":"Rue Assir"},{"Latitude":"35.8549326","Longitude":"10.6082225","Name":"Rue Assouane"},{"Latitude":"36.8888982","Longitude":"10.3038171","Name":"Rue Asyout"},{"Latitude":"34.4313149","Longitude":"8.7857714","Name":"Rue Ataba El Gafsi"},{"Latitude":"36.8473713","Longitude":"10.3101191","Name":"Rue Ayachi Ibn Ahmed"},{"Latitude":"36.8220796","Longitude":"10.0242201","Name":"Rue Ayoub El Ansari"},{"Latitude":"34.4247961","Longitude":"8.7940085","Name":"Rue Azzaiatin"},{"Latitude":"32.9425293","Longitude":"10.4597421","Name":"Rue Azzawraa"},{"Latitude":"35.6811276","Longitude":"10.0934147","Name":"Rue Bab Ranem"},{"Latitude":"32.9335059","Longitude":"10.4540518","Name":"Rue Bader"},{"Latitude":"36.8085921","Longitude":"10.0985827","Name":"Rue Badr"},{"Latitude":"33.9260671","Longitude":"8.1363193","Name":"Rue Badreddine El Moaddib"},{"Latitude":"36.8564264","Longitude":"10.1834035","Name":"Rue Banafsij"},{"Latitude":"36.8236215","Longitude":"10.0742973","Name":"Rue Bani Nadhir"},{"Latitude":"36.9046088","Longitude":"10.3030736","Name":"Rue Banou Jamaa"},{"Latitude":"36.9046201","Longitude":"10.3021838","Name":"Rue Banou Oumaya"},{"Latitude":"36.9054504","Longitude":"10.3027772","Name":"Rue Banou Roud"},{"Latitude":"36.8302963","Longitude":"10.0857723","Name":"Rue Bassem Ben Thabet"},{"Latitude":"36.8263498","Longitude":"10.1369628","Name":"Rue Batane"},{"Latitude":"35.8585744","Longitude":"10.5913018","Name":"Rue Bechir Attiri"},{"Latitude":"32.9318443","Longitude":"10.4478878","Name":"Rue Bechir El Dhawi"},{"Latitude":"35.8640023","Longitude":"10.6019287","Name":"Rue Bechir Kherif"},{"Latitude":"36.8569396","Longitude":"10.1762481","Name":"Rue Bechir Methanni"},{"Latitude":"36.4666597","Longitude":"10.7466827","Name":"Rue Bechir Sfar"},{"Latitude":"35.8327450","Longitude":"10.6226280","Name":"Rue Bechir Termiz"},{"Latitude":"36.8093642","Longitude":"10.1491745","Name":"Rue Begonias"},{"Latitude":"36.7398138","Longitude":"10.2978198","Name":"Rue Bejaia"},{"Latitude":"36.8947711","Longitude":"10.2966625","Name":"Rue Bejaya"},{"Latitude":"35.8326650","Longitude":"10.6318846","Name":"Rue Belajouza"},{"Latitude":"36.8475677","Longitude":"10.3266817","Name":"Rue Belisaire"},{"Latitude":"36.1796855","Longitude":"8.7125223","Name":"Rue Ben Alaya"},{"Latitude":"36.7962493","Longitude":"10.1519912","Name":"Rue Ben Hédia"},{"Latitude":"36.9055820","Longitude":"10.3020523","Name":"Rue Ben Jaouer"},{"Latitude":"36.8722183","Longitude":"10.2645557","Name":"Rue Ben Neji"},{"Latitude":"36.8065780","Longitude":"10.1763797","Name":"Rue Ben Seniour"},{"Latitude":"36.8263104","Longitude":"10.0968808","Name":"Rue Beni Abesss"},{"Latitude":"36.8293621","Longitude":"10.0970927","Name":"Rue Beni Hilel"},{"Latitude":"36.8230266","Longitude":"10.0921406","Name":"Rue Beni Mattir"},{"Latitude":"36.8533787","Longitude":"10.0904499","Name":"Rue Berrouiss"},{"Latitude":"36.8330692","Longitude":"10.1010381","Name":"Rue Bichara Khouri"},{"Latitude":"34.7421993","Longitude":"10.5264439","Name":"Rue Bilel Habachi"},{"Latitude":"32.9371289","Longitude":"10.4590093","Name":"Rue Bir Albsa"},{"Latitude":"35.8540825","Longitude":"10.5885289","Name":"Rue Bir El Akba"},{"Latitude":"36.8568922","Longitude":"10.1910196","Name":"Rue Bir Jimaa"},{"Latitude":"36.7121772","Longitude":"10.2066821","Name":"Rue Bir Mcherga"},{"Latitude":"32.9257004","Longitude":"10.4336174","Name":"Rue Borj Alwazir"},{"Latitude":"36.8166155","Longitude":"10.1843572","Name":"Rue Borjine"},{"Latitude":"36.7384320","Longitude":"10.3266999","Name":"Rue Bou Ghranbi"},{"Latitude":"36.8186782","Longitude":"10.1325729","Name":"Rue Boulakine"},{"Latitude":"32.9259989","Longitude":"10.4555051","Name":"Rue Boulbane"},{"Latitude":"35.6621572","Longitude":"10.0880091","Name":"Rue Brahim Ben Jabeur"},{"Latitude":"35.6620759","Longitude":"10.0859205","Name":"Rue Brahim Ibn El Hareth"},{"Latitude":"36.4685111","Longitude":"10.7454684","Name":"Rue Bretagne"},{"Latitude":"36.8673430","Longitude":"10.1927801","Name":"Rue Béchir Errahal"},{"Latitude":"36.7173365","Longitude":"10.2961787","Name":"Rue Béchir Zanaquiyya"},{"Latitude":"36.8115578","Longitude":"10.1481123","Name":"Rue Camp Milbert"},{"Latitude":"32.9268752","Longitude":"10.4596230","Name":"Rue Cannes"},{"Latitude":"36.8288311","Longitude":"10.1005279","Name":"Rue Carthajana"},{"Latitude":"36.8942594","Longitude":"10.2976589","Name":"Rue Castylia"},{"Latitude":"36.8516479","Longitude":"10.3249061","Name":"Rue Ceres"},{"Latitude":"36.8291274","Longitude":"10.0827704","Name":"Rue Chaban Thaori"},{"Latitude":"36.8293115","Longitude":"10.0831506","Name":"Rue Chabane Enouri"},{"Latitude":"35.8413818","Longitude":"10.5942643","Name":"Rue Chadia Jaidane"},{"Latitude":"34.7389180","Longitude":"10.5269234","Name":"Rue Chadli Ben Ibrahim"},{"Latitude":"36.8265728","Longitude":"10.0834989","Name":"Rue Chahid Ali Charni"},{"Latitude":"32.9206442","Longitude":"10.4607626","Name":"Rue Chahid Mohamed Ben Salleh"},{"Latitude":"35.1640432","Longitude":"8.8409940","Name":"Rue Chahid Walid Griri"},{"Latitude":"36.8700940","Longitude":"10.1845367","Name":"Rue Chakaik Ennouaman"},{"Latitude":"36.8074058","Longitude":"10.1775998","Name":"Rue Changuit"},{"Latitude":"35.8439159","Longitude":"10.5867447","Name":"Rue Charaf"},{"Latitude":"32.9330186","Longitude":"10.4583809","Name":"Rue Chatilla"},{"Latitude":"36.8369757","Longitude":"10.3184634","Name":"Rue Chedly Gtari"},{"Latitude":"36.7402247","Longitude":"10.3068835","Name":"Rue Chedly Ketat"},{"Latitude":"36.8442354","Longitude":"10.1503721","Name":"Rue Chedly Ktari"},{"Latitude":"36.8856889","Longitude":"10.3173208","Name":"Rue Cheikh Ahmed Lasram"},{"Latitude":"36.8814285","Longitude":"10.3140216","Name":"Rue Cheikh Ali Belkhouja"},{"Latitude":"36.7473739","Longitude":"10.3026561","Name":"Rue Cheikh Amor El Adassi"},{"Latitude":"36.8829793","Longitude":"10.3164196","Name":"Rue Cheikh Hmida Bayrem"},{"Latitude":"36.7374614","Longitude":"10.3248263","Name":"Rue Cheikh Khalifa Zayed El Nahyene"},{"Latitude":"35.1644787","Longitude":"8.8402417","Name":"Rue Cheikh Mbarek"},{"Latitude":"32.9298781","Longitude":"10.4402699","Name":"Rue Cherarda"},{"Latitude":"33.6177938","Longitude":"10.2786313","Name":"Rue Cherfia"},{"Latitude":"36.8840186","Longitude":"10.3313837","Name":"Rue Cherif"},{"Latitude":"36.8417475","Longitude":"10.1788920","Name":"Rue Chihab Ezzouhri"},{"Latitude":"36.8065780","Longitude":"10.1763797","Name":"Rue Chikli"},{"Latitude":"35.8624992","Longitude":"10.5895959","Name":"Rue Chouka Aarassa"},{"Latitude":"32.9431348","Longitude":"10.4548413","Name":"Rue Choukani"},{"Latitude":"36.4017214","Longitude":"10.6132637","Name":"Rue Cité Ibn Khaldoun"},{"Latitude":"36.4037510","Longitude":"10.6227249","Name":"Rue Cité Sadek Romman"},{"Latitude":"36.8347945","Longitude":"10.1792514","Name":"Rue Cremieux"},{"Latitude":"36.7985238","Longitude":"10.1685356","Name":"Rue Dabdaba"},{"Latitude":"36.8496379","Longitude":"10.1722884","Name":"Rue Dag Hammarskjoeld"},{"Latitude":"34.4125591","Longitude":"8.7891886","Name":"Rue Daghbagi"},{"Latitude":"36.7112114","Longitude":"10.2106800","Name":"Rue Dahmani"},{"Latitude":"36.8291744","Longitude":"10.0985086","Name":"Rue Dahmeni"},{"Latitude":"32.9448489","Longitude":"10.4602276","Name":"Rue Dammam"},{"Latitude":"36.8942475","Longitude":"10.2990023","Name":"Rue Dania"},{"Latitude":"36.8819422","Longitude":"10.3210358","Name":"Rue Daouha"},{"Latitude":"36.7994211","Longitude":"10.1685495","Name":"Rue Dar El Jeld"},{"Latitude":"36.8074977","Longitude":"10.1798237","Name":"Rue Darwich"},{"Latitude":"36.8151503","Longitude":"10.1424636","Name":"Rue Degache"},{"Latitude":"32.9163007","Longitude":"10.4649650","Name":"Rue Dejibouti"},{"Latitude":"36.8595600","Longitude":"10.1787229","Name":"Rue Dhafrallah"},{"Latitude":"36.8926973","Longitude":"10.3166972","Name":"Rue Didon"},{"Latitude":"36.8612579","Longitude":"10.1759723","Name":"Rue Dir Yassin"},{"Latitude":"36.8839286","Longitude":"10.3294176","Name":"Rue Djanet"},{"Latitude":"36.7291715","Longitude":"10.2057740","Name":"Rue Dmachk"},{"Latitude":"36.8708338","Longitude":"10.3212634","Name":"Rue Docteur"},{"Latitude":"36.8021176","Longitude":"10.1695341","Name":"Rue Docteur Cassar"},{"Latitude":"36.8689040","Longitude":"10.3207163","Name":"Rue Docteur El Djurjani"},{"Latitude":"36.7441302","Longitude":"10.2982054","Name":"Rue Docteur El Matri"},{"Latitude":"35.8308683","Longitude":"10.6309113","Name":"Rue Docteur Graulle"},{"Latitude":"35.8316262","Longitude":"10.6299672","Name":"Rue Docteur Moreau"},{"Latitude":"36.8299008","Longitude":"10.0782274","Name":"Rue Docteur Zohayer Essafi"},{"Latitude":"32.9449581","Longitude":"10.4617792","Name":"Rue Doraiya"},{"Latitude":"36.8262387","Longitude":"10.0757892","Name":"Rue Doran"},{"Latitude":"36.4043897","Longitude":"10.6350701","Name":"Rue Du Ministre Sarraj"},{"Latitude":"35.8094973","Longitude":"10.6316985","Name":"Rue Duha"},{"Latitude":"36.9044281","Longitude":"10.3157544","Name":"Rue Dunes"},{"Latitude":"36.8285676","Longitude":"10.1766343","Name":"Rue Duran Angliviel"},{"Latitude":"36.8204242","Longitude":"10.0199261","Name":"Rue EL Hana"},{"Latitude":"36.7405710","Longitude":"10.3126446","Name":"Rue EL Massoudi"},{"Latitude":"35.6613564","Longitude":"10.0913243","Name":"Rue Echafai"},{"Latitude":"36.8006321","Longitude":"10.1330852","Name":"Rue Echarguia"},{"Latitude":"33.8763983","Longitude":"10.8722913","Name":"Rue Echat"},{"Latitude":"34.4224754","Longitude":"8.7858945","Name":"Rue Echerouk"},{"Latitude":"35.8017865","Longitude":"10.5992830","Name":"Rue Echifa"},{"Latitude":"35.1713352","Longitude":"8.8456276","Name":"Rue Echikh El Faleh"},{"Latitude":"35.8429372","Longitude":"10.6004506","Name":"Rue Echirazi"},{"Latitude":"37.1638962","Longitude":"9.7832132","Name":"Rue Echohrour"},{"Latitude":"36.8174692","Longitude":"10.1392648","Name":"Rue Ed'daouha"},{"Latitude":"36.8642042","Longitude":"10.1884343","Name":"Rue Ed-Daghbagi"},{"Latitude":"36.8852008","Longitude":"10.3139185","Name":"Rue Eddaouha"},{"Latitude":"37.1537036","Longitude":"9.7796948","Name":"Rue Eddoustour"},{"Latitude":"36.8664083","Longitude":"10.1924851","Name":"Rue Eden"},{"Latitude":"36.8130180","Longitude":"10.0962237","Name":"Rue Edison"},{"Latitude":"36.7953356","Longitude":"10.1344156","Name":"Rue Eglantines"},{"Latitude":"34.4151016","Longitude":"8.7851666","Name":"Rue Ejjamea El Kebir"},{"Latitude":"35.8288672","Longitude":"10.5862473","Name":"Rue Eklil"},{"Latitude":"35.8138905","Longitude":"10.6415637","Name":"Rue El Aacha"},{"Latitude":"35.6665732","Longitude":"10.0931485","Name":"Rue El Aacha BenSlim"},{"Latitude":"32.9291430","Longitude":"10.4379170","Name":"Rue El Aala"},{"Latitude":"36.7955822","Longitude":"10.1580223","Name":"Rue El Abadila"},{"Latitude":"35.6702016","Longitude":"10.1000894","Name":"Rue El Abbassia de Jalta"},{"Latitude":"36.8711644","Longitude":"10.3224618","Name":"Rue El Abhari"},{"Latitude":"35.8044350","Longitude":"10.6327500","Name":"Rue El Adel"},{"Latitude":"36.8689010","Longitude":"10.3220750","Name":"Rue El Aflah"},{"Latitude":"36.8605619","Longitude":"10.1899031","Name":"Rue El Aid Jebari"},{"Latitude":"36.8888586","Longitude":"10.3026472","Name":"Rue El Akkaba"},{"Latitude":"36.9038850","Longitude":"10.2929279","Name":"Rue El Ala Ibn Moughith"},{"Latitude":"36.7546970","Longitude":"10.1881282","Name":"Rue El Alia"},{"Latitude":"36.9111643","Longitude":"10.2982064","Name":"Rue El Amber"},{"Latitude":"36.8686505","Longitude":"10.3403429","Name":"Rue El Amel"},{"Latitude":"35.8171854","Longitude":"10.6228790","Name":"Rue El Amine"},{"Latitude":"36.8706090","Longitude":"10.1838836","Name":"Rue El Amra"},{"Latitude":"36.8482084","Longitude":"10.1753515","Name":"Rue El Anab"},{"Latitude":"36.8678141","Longitude":"10.2570194","Name":"Rue El Anbar"},{"Latitude":"37.1631310","Longitude":"9.7818605","Name":"Rue El Andalib"},{"Latitude":"36.8687046","Longitude":"10.3232110","Name":"Rue El Antaki"},{"Latitude":"35.1647035","Longitude":"8.8535104","Name":"Rue El Aouina"},{"Latitude":"36.4014106","Longitude":"10.6069699","Name":"Rue El Aqaba"},{"Latitude":"35.6737361","Longitude":"10.1082111","Name":"Rue El Arab Ettimimi"},{"Latitude":"35.8253980","Longitude":"10.6395037","Name":"Rue El Araoui"},{"Latitude":"32.9264456","Longitude":"10.4616638","Name":"Rue El Arbi Chenenaoui"},{"Latitude":"36.8257164","Longitude":"10.0930348","Name":"Rue El Arbi Kabedi"},{"Latitude":"34.7406785","Longitude":"10.5273834","Name":"Rue El Ardaoui"},{"Latitude":"36.8191146","Longitude":"10.0247716","Name":"Rue El Arraf"},{"Latitude":"36.8728223","Longitude":"10.3257523","Name":"Rue El Ashari"},{"Latitude":"37.1629964","Longitude":"9.7831433","Name":"Rue El Assafir"},{"Latitude":"36.8683473","Longitude":"10.3240411","Name":"Rue El Asturlabi"},{"Latitude":"35.8323927","Longitude":"10.6196031","Name":"Rue El Aterchia"},{"Latitude":"36.7403823","Longitude":"10.2984300","Name":"Rue El Azima"},{"Latitude":"36.8718326","Longitude":"10.3262492","Name":"Rue El Badawi"},{"Latitude":"36.8722784","Longitude":"10.1870748","Name":"Rue El Bahja"},{"Latitude":"32.9329358","Longitude":"10.4544492","Name":"Rue El Bahrin"},{"Latitude":"36.7400269","Longitude":"10.3142337","Name":"Rue El Bahtouri"},{"Latitude":"36.8670873","Longitude":"10.3196445","Name":"Rue El Banaa"},{"Latitude":"36.7987753","Longitude":"10.1266238","Name":"Rue El Baraema"},{"Latitude":"35.8152369","Longitude":"10.6197184","Name":"Rue El Baraket"},{"Latitude":"36.8577227","Longitude":"10.1118462","Name":"Rue El Basra"},{"Latitude":"36.7396407","Longitude":"10.3083140","Name":"Rue El Baytari"},{"Latitude":"35.8671258","Longitude":"10.5985451","Name":"Rue El Bhaier"},{"Latitude":"36.8719152","Longitude":"10.3265225","Name":"Rue El Bichaoui"},{"Latitude":"35.8559125","Longitude":"10.6107156","Name":"Rue El Birouni"},{"Latitude":"36.8674257","Longitude":"10.3203772","Name":"Rue El Bouzajani"},{"Latitude":"36.8700532","Longitude":"10.1843731","Name":"Rue El Chaabane"},{"Latitude":"32.9312116","Longitude":"10.4582373","Name":"Rue El Chamesse"},{"Latitude":"36.8691048","Longitude":"10.3202525","Name":"Rue El Damiri"},{"Latitude":"36.8679042","Longitude":"10.3195672","Name":"Rue El Djaldaki"},{"Latitude":"35.6544022","Longitude":"10.0898323","Name":"Rue El Emir Faicel"},{"Latitude":"36.8668002","Longitude":"10.3208023","Name":"Rue El Esfizari"},{"Latitude":"36.7126070","Longitude":"10.2074602","Name":"Rue El Fahs"},{"Latitude":"36.8771490","Longitude":"10.3127986","Name":"Rue El Fajer"},{"Latitude":"36.7577754","Longitude":"10.2443688","Name":"Rue El Farah"},{"Latitude":"37.2144761","Longitude":"10.1218508","Name":"Rue El Fath"},{"Latitude":"35.8311521","Longitude":"10.5850026","Name":"Rue El Fell"},{"Latitude":"36.8051877","Longitude":"10.1713085","Name":"Rue El Fezzena"},{"Latitude":"35.8485198","Longitude":"10.6125489","Name":"Rue El Foll"},{"Latitude":"36.8011153","Longitude":"10.1342547","Name":"Rue El Fouledh"},{"Latitude":"35.8448650","Longitude":"10.6183156","Name":"Rue El Ghannouchi"},{"Latitude":"36.8680944","Longitude":"10.3219564","Name":"Rue El Ghazi"},{"Latitude":"36.8278924","Longitude":"10.0974082","Name":"Rue El Hafsiyin"},{"Latitude":"35.8104321","Longitude":"10.6316113","Name":"Rue El Hakim Mahmoud Essaka"},{"Latitude":"36.8659059","Longitude":"10.2950734","Name":"Rue El Halej"},{"Latitude":"35.6602099","Longitude":"10.0865081","Name":"Rue El Hamadheni"},{"Latitude":"35.8158035","Longitude":"10.6191216","Name":"Rue El Hamd"},{"Latitude":"34.7407132","Longitude":"10.5280754","Name":"Rue El Hamem"},{"Latitude":"36.8888982","Longitude":"10.3038171","Name":"Rue El Hamra"},{"Latitude":"36.8202639","Longitude":"10.0205733","Name":"Rue El Hana"},{"Latitude":"35.1645688","Longitude":"8.8571671","Name":"Rue El Hancha"},{"Latitude":"36.8859678","Longitude":"10.3058356","Name":"Rue El Haouaria"},{"Latitude":"36.7403651","Longitude":"10.3139077","Name":"Rue El Hariri"},{"Latitude":"35.6660039","Longitude":"10.0936983","Name":"Rue El Hassen Bou Hlel"},{"Latitude":"36.8075109","Longitude":"10.0933912","Name":"Rue El Hazard"},{"Latitude":"36.4666984","Longitude":"10.7866315","Name":"Rue El Hilel"},{"Latitude":"35.8440170","Longitude":"10.5875681","Name":"Rue El Hosna"},{"Latitude":"36.8638248","Longitude":"10.1974296","Name":"Rue El Houdou"},{"Latitude":"35.8466721","Longitude":"10.6067333","Name":"Rue El Houlel Essendoussia"},{"Latitude":"35.8480501","Longitude":"10.5896495","Name":"Rue El Hrich"},{"Latitude":"36.8291815","Longitude":"10.0766266","Name":"Rue El Hzoua"},{"Latitude":"36.7141712","Longitude":"10.2080141","Name":"Rue El Idrissi"},{"Latitude":"35.8067930","Longitude":"10.6543887","Name":"Rue El Ihsen"},{"Latitude":"36.8515713","Longitude":"10.1901478","Name":"Rue El Iklil"},{"Latitude":"36.8469163","Longitude":"10.0983617","Name":"Rue El Imam Aissa Aibrini"},{"Latitude":"36.8192500","Longitude":"10.0260513","Name":"Rue El Imam El Baydhaoui"},{"Latitude":"36.7962420","Longitude":"10.1253243","Name":"Rue El Imam Ibn Arafa"},{"Latitude":"35.8153946","Longitude":"10.6293476","Name":"Rue El Imam Ibnou Arafa"},{"Latitude":"36.8464510","Longitude":"10.1062866","Name":"Rue El Imam Nafaa"},{"Latitude":"36.8616065","Longitude":"10.1780984","Name":"Rue El Imane"},{"Latitude":"36.8289259","Longitude":"10.0745196","Name":"Rue El Imem Echefi"},{"Latitude":"35.1586615","Longitude":"8.8468175","Name":"Rue El Imen Arafa"},{"Latitude":"36.8205362","Longitude":"10.0204817","Name":"Rue El Insaf"},{"Latitude":"36.8730444","Longitude":"10.1871344","Name":"Rue El Itr"},{"Latitude":"32.9875460","Longitude":"10.4588000","Name":"Rue El Jabal Al Akhdhar"},{"Latitude":"36.8697936","Longitude":"10.1881242","Name":"Rue El Jadaouel"},{"Latitude":"35.8216703","Longitude":"10.6405183","Name":"Rue El Jahedh"},{"Latitude":"34.7398497","Longitude":"10.5241336","Name":"Rue El Jarid"},{"Latitude":"36.7374671","Longitude":"10.3117592","Name":"Rue El Jarir"},{"Latitude":"36.8680995","Longitude":"10.3212657","Name":"Rue El Jawhari"},{"Latitude":"35.8135398","Longitude":"10.6444913","Name":"Rue El Jazia El Hilaliya"},{"Latitude":"33.8745355","Longitude":"10.8720070","Name":"Rue El Jazira"},{"Latitude":"36.8684753","Longitude":"10.1806807","Name":"Rue El Jeilil"},{"Latitude":"36.8140693","Longitude":"10.1505783","Name":"Rue El Jerid"},{"Latitude":"35.8590179","Longitude":"10.5926335","Name":"Rue El Jinen"},{"Latitude":"36.8218665","Longitude":"10.0850213","Name":"Rue El Kadhi Ibn Idris El Khouleni"},{"Latitude":"36.8232290","Longitude":"10.0849437","Name":"Rue El Kadhi Ibn Rafaa"},{"Latitude":"36.8263080","Longitude":"10.0768190","Name":"Rue El Kadhi Ismail Kindil"},{"Latitude":"36.8836728","Longitude":"10.2724495","Name":"Rue El Kadissia"},{"Latitude":"36.7973965","Longitude":"10.1637885","Name":"Rue El Kairaouni"},{"Latitude":"36.7092795","Longitude":"10.2107844","Name":"Rue El Kalaa El Khisba"},{"Latitude":"35.8103810","Longitude":"10.6337947","Name":"Rue El Kalil"},{"Latitude":"35.6607372","Longitude":"10.0867237","Name":"Rue El Kanari"},{"Latitude":"35.8471305","Longitude":"10.5889790","Name":"Rue El Karama"},{"Latitude":"36.8557713","Longitude":"10.1947016","Name":"Rue El Karaouan"},{"Latitude":"35.8544203","Longitude":"10.5877885","Name":"Rue El Karma"},{"Latitude":"36.7425155","Longitude":"10.2973618","Name":"Rue El Kawakibi"},{"Latitude":"36.7986470","Longitude":"10.1273326","Name":"Rue El Kendi"},{"Latitude":"35.6583518","Longitude":"10.0920745","Name":"Rue El Khadi Mohamed Allani"},{"Latitude":"34.4303072","Longitude":"8.7568250","Name":"Rue El Khaizorani"},{"Latitude":"35.8143895","Longitude":"10.6208089","Name":"Rue El Khalife El Maamoun"},{"Latitude":"36.8891132","Longitude":"10.3032469","Name":"Rue El Khalil"},{"Latitude":"36.8967285","Longitude":"10.2949619","Name":"Rue El Khalil Ibn Ahmed"},{"Latitude":"34.4175704","Longitude":"8.7914550","Name":"Rue El Khansaa"},{"Latitude":"35.8235842","Longitude":"10.6280480","Name":"Rue El Khawarismi"},{"Latitude":"36.8674745","Longitude":"10.3193618","Name":"Rue El Khazin"},{"Latitude":"36.8633619","Longitude":"10.3368942","Name":"Rue El Kiddis Siprianis"},{"Latitude":"36.8643988","Longitude":"10.3129191","Name":"Rue El Kindi"},{"Latitude":"32.9310656","Longitude":"10.4571618","Name":"Rue El Koussor"},{"Latitude":"35.8581157","Longitude":"10.5877049","Name":"Rue El Kouttab"},{"Latitude":"36.8536001","Longitude":"10.0902306","Name":"Rue El Krib"},{"Latitude":"35.8475490","Longitude":"10.6133375","Name":"Rue El Kronfil"},{"Latitude":"35.8564435","Longitude":"10.5863397","Name":"Rue El Maafer"},{"Latitude":"35.8615929","Longitude":"10.5948552","Name":"Rue El Maamoun"},{"Latitude":"35.6610550","Longitude":"10.0868589","Name":"Rue El Maari"},{"Latitude":"35.8294842","Longitude":"10.6214216","Name":"Rue El Maarri"},{"Latitude":"32.9325419","Longitude":"10.4496937","Name":"Rue El Madina Mounawara"},{"Latitude":"36.8257986","Longitude":"10.0725578","Name":"Rue El Mahaba"},{"Latitude":"36.8339217","Longitude":"10.0893245","Name":"Rue El Mahres"},{"Latitude":"36.8476804","Longitude":"10.0938472","Name":"Rue El Mahress"},{"Latitude":"32.9362005","Longitude":"10.4560353","Name":"Rue El Mahria El Aghlabia"},{"Latitude":"32.9354346","Longitude":"10.4554955","Name":"Rue El Mamoune"},{"Latitude":"35.8534157","Longitude":"10.5893551","Name":"Rue El Mandra"},{"Latitude":"36.8035164","Longitude":"10.1255187","Name":"Rue El Manfalouti"},{"Latitude":"36.7935240","Longitude":"10.1694163","Name":"Rue El Mar"},{"Latitude":"36.8603404","Longitude":"10.1752489","Name":"Rue El Maroua"},{"Latitude":"36.7149875","Longitude":"10.2079176","Name":"Rue El Marrakchif"},{"Latitude":"36.8492075","Longitude":"10.0946438","Name":"Rue El Mazouna"},{"Latitude":"36.8033618","Longitude":"10.1727484","Name":"Rue El Mechnaqa"},{"Latitude":"36.8264212","Longitude":"10.0755464","Name":"Rue El Mediina"},{"Latitude":"32.9880966","Longitude":"10.4583031","Name":"Rue El Mehamdia"},{"Latitude":"36.8482953","Longitude":"10.0953037","Name":"Rue El Meknassi"},{"Latitude":"35.1676841","Longitude":"8.8519768","Name":"Rue El Meknessi"},{"Latitude":"36.8072089","Longitude":"10.1531120","Name":"Rue El Messaoudi"},{"Latitude":"36.8540259","Longitude":"10.1993975","Name":"Rue El Mhidi"},{"Latitude":"36.8085492","Longitude":"10.0931545","Name":"Rue El Miniar"},{"Latitude":"34.4331997","Longitude":"8.7860101","Name":"Rue El Moez Lidine Allah El Fatimi"},{"Latitude":"37.2136013","Longitude":"10.1247526","Name":"Rue El Moez Lidinellah"},{"Latitude":"36.9138008","Longitude":"10.2836742","Name":"Rue El Mohallab Ibn Abi Sofra"},{"Latitude":"36.8957836","Longitude":"10.2959704","Name":"Rue El Mokrizi"},{"Latitude":"36.8035314","Longitude":"10.1688257","Name":"Rue El Monastiri"},{"Latitude":"36.8213357","Longitude":"10.0218921","Name":"Rue El Mouatamid Ibn Abbad"},{"Latitude":"37.0491522","Longitude":"11.0144509","Name":"Rue El Mounadhel El Saghir El Hachaichi"},{"Latitude":"35.6604224","Longitude":"10.0879669","Name":"Rue El Mourabitine"},{"Latitude":"35.1645270","Longitude":"8.8576357","Name":"Rue El Mousali"},{"Latitude":"36.8699610","Longitude":"10.1839721","Name":"Rue El Moutaha"},{"Latitude":"36.8056532","Longitude":"10.0980154","Name":"Rue El Médina El Mounaouara"},{"Latitude":"35.1707180","Longitude":"8.8454734","Name":"Rue El Noujaba'a"},{"Latitude":"35.6567229","Longitude":"10.0892786","Name":"Rue El Okhouan"},{"Latitude":"35.6729233","Longitude":"10.1058944","Name":"Rue El Omrane"},{"Latitude":"36.8193728","Longitude":"10.0875849","Name":"Rue El Ouard"},{"Latitude":"35.1601796","Longitude":"8.8459852","Name":"Rue El Ouhoud"},{"Latitude":"35.8123663","Longitude":"10.6242594","Name":"Rue El Oustoubrouk"},{"Latitude":"36.8246816","Longitude":"10.0756826","Name":"Rue El Rabat"},{"Latitude":"32.9322221","Longitude":"10.4518223","Name":"Rue El Raed Lebjawi"},{"Latitude":"32.9259816","Longitude":"10.4620309","Name":"Rue El Raouane"},{"Latitude":"35.1748719","Longitude":"8.8516120","Name":"Rue El Tahawoll"},{"Latitude":"36.8417889","Longitude":"10.1012726","Name":"Rue El Takafol"},{"Latitude":"36.8081455","Longitude":"10.1749418","Name":"Rue El Tazarki"},{"Latitude":"32.9226323","Longitude":"10.4608857","Name":"Rue El Toutte"},{"Latitude":"36.7371872","Longitude":"10.3250151","Name":"Rue El Waha"},{"Latitude":"36.8309088","Longitude":"10.0858033","Name":"Rue El Wald Ben Okba"},{"Latitude":"36.8824161","Longitude":"10.2865854","Name":"Rue El Widad"},{"Latitude":"36.8650029","Longitude":"10.1967299","Name":"Rue El Wifak"},{"Latitude":"36.8955922","Longitude":"10.2960965","Name":"Rue El Yarmouk"},{"Latitude":"36.7950990","Longitude":"10.1333459","Name":"Rue El Yasmine"},{"Latitude":"35.8137296","Longitude":"10.6307557","Name":"Rue El Yosr"},{"Latitude":"35.8583561","Longitude":"10.5997651","Name":"Rue El Zalira"},{"Latitude":"36.1805406","Longitude":"8.7169754","Name":"Rue El kadria"},{"Latitude":"35.6683415","Longitude":"10.8866452","Name":"Rue El-Gahzeli"},{"Latitude":"32.9424713","Longitude":"10.4542913","Name":"Rue ElMayadeen"},{"Latitude":"35.8501916","Longitude":"10.5997387","Name":"Rue Elachbel"},{"Latitude":"34.4165680","Longitude":"8.7887668","Name":"Rue Eladoul"},{"Latitude":"34.4245504","Longitude":"8.7898928","Name":"Rue Elassil"},{"Latitude":"37.2132563","Longitude":"10.1265396","Name":"Rue Elbaladiya"},{"Latitude":"34.4205989","Longitude":"8.7889364","Name":"Rue Elbanafsej"},{"Latitude":"34.4246679","Longitude":"8.7952996","Name":"Rue Eleklil"},{"Latitude":"36.8332835","Longitude":"10.0998741","Name":"Rue Elfathali"},{"Latitude":"35.8558038","Longitude":"10.6116034","Name":"Rue Ellouz"},{"Latitude":"34.4273669","Longitude":"8.7852350","Name":"Rue Elmabred"},{"Latitude":"33.4561289","Longitude":"9.0277365","Name":"Rue Elmahjoube"},{"Latitude":"34.4205007","Longitude":"8.7897502","Name":"Rue Elmehrab"},{"Latitude":"36.8267270","Longitude":"10.0967784","Name":"Rue Elmouhidyn"},{"Latitude":"34.4171241","Longitude":"8.7895446","Name":"Rue Elmsila"},{"Latitude":"36.8398448","Longitude":"10.1022427","Name":"Rue Elsakhaa"},{"Latitude":"36.8532458","Longitude":"10.2005938","Name":"Rue Embane"},{"Latitude":"36.8348407","Longitude":"10.1629262","Name":"Rue Enee"},{"Latitude":"37.1634312","Longitude":"9.7814167","Name":"Rue Ennakhil"},{"Latitude":"35.8317556","Longitude":"10.6210622","Name":"Rue Ennarjes"},{"Latitude":"34.4235801","Longitude":"8.7894692","Name":"Rue Ennasr"},{"Latitude":"35.8074066","Longitude":"10.6276498","Name":"Rue Ennassiha"},{"Latitude":"36.3503639","Longitude":"10.2124465","Name":"Rue Ennassime"},{"Latitude":"37.1654035","Longitude":"9.7833764","Name":"Rue Ennawres"},{"Latitude":"35.8483673","Longitude":"10.5858673","Name":"Rue Ennazaha"},{"Latitude":"36.7577754","Longitude":"10.2443688","Name":"Rue Ennhoza"},{"Latitude":"36.8596915","Longitude":"10.1776261","Name":"Rue Ennidham"},{"Latitude":"36.7566922","Longitude":"10.2463074","Name":"Rue Ennour"},{"Latitude":"36.8564145","Longitude":"10.1693390","Name":"Rue Er-Rawdha"},{"Latitude":"34.4325919","Longitude":"8.7494409","Name":"Rue Ergueb"},{"Latitude":"36.8699771","Longitude":"10.3224425","Name":"Rue Eriniosse"},{"Latitude":"36.7428970","Longitude":"10.3003693","Name":"Rue Ernest Conseil"},{"Latitude":"35.6697500","Longitude":"10.0830007","Name":"Rue Errabeb"},{"Latitude":"36.7177182","Longitude":"10.2173384","Name":"Rue Errahma"},{"Latitude":"36.7434763","Longitude":"10.2231015","Name":"Rue Erraihane"},{"Latitude":"36.8204305","Longitude":"10.0208212","Name":"Rue Erraja"},{"Latitude":"35.8512670","Longitude":"10.5850040","Name":"Rue Errawandi"},{"Latitude":"35.8514830","Longitude":"10.6127943","Name":"Rue Errayahin"},{"Latitude":"35.8080127","Longitude":"10.6256155","Name":"Rue Erraïa"},{"Latitude":"35.8065265","Longitude":"10.6281298","Name":"Rue Erretek"},{"Latitude":"36.7386557","Longitude":"10.3083938","Name":"Rue Errifai"},{"Latitude":"36.7954516","Longitude":"10.1335989","Name":"Rue Errihane"},{"Latitude":"36.8540037","Longitude":"10.0906984","Name":"Rue Errouhia"},{"Latitude":"36.8350592","Longitude":"10.1731540","Name":"Rue Erroussafi"},{"Latitude":"35.6785442","Longitude":"10.0935280","Name":"Rue Essaadila"},{"Latitude":"35.8077902","Longitude":"10.6287397","Name":"Rue Essabar"},{"Latitude":"36.8275639","Longitude":"10.0762801","Name":"Rue Essada"},{"Latitude":"36.8664045","Longitude":"10.1907081","Name":"Rue Essafa"},{"Latitude":"35.8546027","Longitude":"10.6128077","Name":"Rue Essafsaf"},{"Latitude":"36.8533789","Longitude":"10.1433936","Name":"Rue Essaid El Gharbi"},{"Latitude":"36.4469880","Longitude":"10.7238925","Name":"Rue Essaida"},{"Latitude":"35.2240746","Longitude":"9.1135266","Name":"Rue Essaloum"},{"Latitude":"35.8138057","Longitude":"10.6195092","Name":"Rue Essaoudia"},{"Latitude":"35.8315479","Longitude":"10.5857992","Name":"Rue Essaroual"},{"Latitude":"36.7960509","Longitude":"10.1330410","Name":"Rue Essawsen"},{"Latitude":"36.8467360","Longitude":"10.0930908","Name":"Rue Esskhira"},{"Latitude":"36.8511784","Longitude":"10.0906748","Name":"Rue Essnad"},{"Latitude":"36.8510736","Longitude":"10.0913082","Name":"Rue Essnad Bis"},{"Latitude":"36.7510882","Longitude":"10.3035685","Name":"Rue Essod"},{"Latitude":"36.8648603","Longitude":"10.1981690","Name":"Rue Essourour"},{"Latitude":"36.7758284","Longitude":"10.1743484","Name":"Rue Estetique"},{"Latitude":"35.8152902","Longitude":"10.6244445","Name":"Rue Et-Takwa"},{"Latitude":"34.4280793","Longitude":"8.7788178","Name":"Rue Ethaalbi"},{"Latitude":"35.8479756","Longitude":"10.5876262","Name":"Rue Ettaamir"},{"Latitude":"36.7386068","Longitude":"10.3117800","Name":"Rue Ettabari"},{"Latitude":"36.8900304","Longitude":"10.3055207","Name":"Rue Ettaief"},{"Latitude":"36.8199520","Longitude":"10.0202635","Name":"Rue Ettakadom"},{"Latitude":"36.8727708","Longitude":"10.1823816","Name":"Rue Ettantaoui El Jawhari"},{"Latitude":"35.8053574","Longitude":"10.6030662","Name":"Rue Ettaoufiq"},{"Latitude":"36.7457096","Longitude":"10.3014858","Name":"Rue Etteber"},{"Latitude":"36.8722345","Longitude":"10.3260416","Name":"Rue Ettermidhi"},{"Latitude":"36.6982888","Longitude":"10.4830290","Name":"Rue Ettimithi"},{"Latitude":"36.8014251","Longitude":"10.1796457","Name":"Rue Eve Nohelle"},{"Latitude":"36.8763300","Longitude":"10.2889037","Name":"Rue Ezeddine Abassi"},{"Latitude":"36.7987437","Longitude":"10.1249327","Name":"Rue Ezzamakhchari"},{"Latitude":"35.8465549","Longitude":"10.5943944","Name":"Rue Ezzaouia"},{"Latitude":"36.7984816","Longitude":"10.1258145","Name":"Rue Ezzinia"},{"Latitude":"35.8526552","Longitude":"10.5897506","Name":"Rue Ezzitoune"},{"Latitude":"33.8765356","Longitude":"10.8636128","Name":"Rue Ezzlitni"},{"Latitude":"35.1734558","Longitude":"8.8397615","Name":"Rue Fadj Bouhcine"},{"Latitude":"36.8540742","Longitude":"10.2008627","Name":"Rue Faiz El Kairaouani"},{"Latitude":"35.8605896","Longitude":"10.5978531","Name":"Rue Faraj Msallem"},{"Latitude":"36.8302125","Longitude":"10.0986555","Name":"Rue Farar"},{"Latitude":"35.6570313","Longitude":"10.0902020","Name":"Rue Fatma El Hadhna"},{"Latitude":"34.7394855","Longitude":"10.5243830","Name":"Rue Fernan"},{"Latitude":"36.8451508","Longitude":"10.3067449","Name":"Rue Fernana"},{"Latitude":"36.8654623","Longitude":"10.1900037","Name":"Rue Fida"},{"Latitude":"36.8070641","Longitude":"10.1561553","Name":"Rue Florian"},{"Latitude":"36.8546516","Longitude":"10.3270881","Name":"Rue Florus"},{"Latitude":"36.8614171","Longitude":"10.1912637","Name":"Rue Fraj El Mokni"},{"Latitude":"36.8302716","Longitude":"10.1709747","Name":"Rue François Thorrand"},{"Latitude":"36.8203970","Longitude":"10.0254066","Name":"Rue Frère Essafa"},{"Latitude":"36.8214379","Longitude":"10.0865006","Name":"Rue Galool"},{"Latitude":"36.8100513","Longitude":"10.1482853","Name":"Rue Genets"},{"Latitude":"33.4569556","Longitude":"9.0244894","Name":"Rue Ghara Jawal"},{"Latitude":"36.8023556","Longitude":"10.1659490","Name":"Rue Gharnouta"},{"Latitude":"36.8060130","Longitude":"10.0966635","Name":"Rue Ghedir Golla"},{"Latitude":"36.8417862","Longitude":"10.3058410","Name":"Rue Ghezala"},{"Latitude":"36.7108672","Longitude":"10.2067436","Name":"Rue Ghériana"},{"Latitude":"36.8087768","Longitude":"10.1518714","Name":"Rue Gi Dods"},{"Latitude":"36.8480034","Longitude":"10.3271140","Name":"Rue Giscon"},{"Latitude":"36.7428699","Longitude":"10.3093411","Name":"Rue Glycynes"},{"Latitude":"36.8011864","Longitude":"10.0985321","Name":"Rue Goued d'Italie"},{"Latitude":"36.8243788","Longitude":"10.0769299","Name":"Rue Grand Maghreb Unie"},{"Latitude":"32.9884088","Longitude":"10.4586531","Name":"Rue Gualamoun"},{"Latitude":"35.1719001","Longitude":"8.8553685","Name":"Rue Gueid Bouchaddeda"},{"Latitude":"36.8412785","Longitude":"10.3062205","Name":"Rue Guengla"},{"Latitude":"36.8287204","Longitude":"10.0846523","Name":"Rue Habhab Ben Almonther"},{"Latitude":"36.8663340","Longitude":"10.1966376","Name":"Rue Habib Ben Hareth"},{"Latitude":"36.1799556","Longitude":"8.7142932","Name":"Rue Habib Boulaabi"},{"Latitude":"35.6704551","Longitude":"10.8953342","Name":"Rue Habib Gacem M'henni"},{"Latitude":"36.1791242","Longitude":"8.7137427","Name":"Rue Habib Karma"},{"Latitude":"36.7969562","Longitude":"10.1533544","Name":"Rue Hachmi El Mekki"},{"Latitude":"32.9299884","Longitude":"10.4507232","Name":"Rue Hadi El Kawach"},{"Latitude":"35.6715593","Longitude":"10.0956436","Name":"Rue Hafida Ibn El Khattab"},{"Latitude":"33.9199787","Longitude":"8.1321489","Name":"Rue Hafsi Essoudani"},{"Latitude":"36.8608265","Longitude":"10.1884608","Name":"Rue Haj Tabboub"},{"Latitude":"36.8497903","Longitude":"10.1639347","Name":"Rue Halima Essaadia"},{"Latitude":"36.8258328","Longitude":"10.1370857","Name":"Rue Halk El Oued"},{"Latitude":"36.8462423","Longitude":"10.1488714","Name":"Rue Hamadi El Atoui"},{"Latitude":"36.4037745","Longitude":"10.6097500","Name":"Rue Hamadi El Jaziri"},{"Latitude":"35.8509080","Longitude":"10.5940524","Name":"Rue Hamarchold"},{"Latitude":"36.8257046","Longitude":"10.0715915","Name":"Rue Hamda El Assad"},{"Latitude":"37.2118924","Longitude":"10.1304125","Name":"Rue Hamda Rafrafi"},{"Latitude":"33.9208609","Longitude":"8.1278644","Name":"Rue Hamed Bey Khaireddine"},{"Latitude":"36.8281699","Longitude":"10.0993964","Name":"Rue Hamem lghzez"},{"Latitude":"36.8643302","Longitude":"10.1853428","Name":"Rue Hammadi B Fadhl"},{"Latitude":"35.8396315","Longitude":"10.5875292","Name":"Rue Hammadi Essid"},{"Latitude":"36.8837503","Longitude":"10.3323003","Name":"Rue Hanon"},{"Latitude":"37.2736622","Longitude":"9.8636775","Name":"Rue Hanoun"},{"Latitude":"36.8190384","Longitude":"10.0239240","Name":"Rue Harthama"},{"Latitude":"35.8584766","Longitude":"10.6052184","Name":"Rue Hassen Bakkouch"},{"Latitude":"36.1758966","Longitude":"8.7089932","Name":"Rue Hassen Barbouche"},{"Latitude":"36.7446748","Longitude":"10.3008620","Name":"Rue Hassen Ben Hazem"},{"Latitude":"37.1524125","Longitude":"9.7786520","Name":"Rue Hassen Ben Romdhane"},{"Latitude":"35.8174032","Longitude":"10.6327566","Name":"Rue Hassen El Basri"},{"Latitude":"35.8576467","Longitude":"10.6039276","Name":"Rue Hassen El Houssine"},{"Latitude":"36.8695308","Longitude":"10.1891427","Name":"Rue Hassen Ezmzrrli"},{"Latitude":"36.9045236","Longitude":"10.3065531","Name":"Rue Hassen Ibn Noamane"},{"Latitude":"36.8631339","Longitude":"10.3064767","Name":"Rue Hassen Ibn Nooman"},{"Latitude":"36.8839070","Longitude":"10.2010915","Name":"Rue Hassen Ibn Thabet"},{"Latitude":"35.8619872","Longitude":"10.5972952","Name":"Rue Hassen Mlika"},{"Latitude":"36.8438962","Longitude":"10.1494615","Name":"Rue Hassen Saadaoui"},{"Latitude":"36.8703081","Longitude":"10.1912922","Name":"Rue Hassen Zemri"},{"Latitude":"35.8109541","Longitude":"10.6350969","Name":"Rue Hatem Ettaii"},{"Latitude":"36.8647933","Longitude":"10.1877949","Name":"Rue Hazem Carthagenni"},{"Latitude":"36.7331514","Longitude":"10.3341249","Name":"Rue Hbib Bou Gatfa"},{"Latitude":"36.1786842","Longitude":"8.7141940","Name":"Rue Hbib Thameur"},{"Latitude":"34.7375988","Longitude":"10.5221075","Name":"Rue Hechmi Bahri"},{"Latitude":"34.4272909","Longitude":"8.7832810","Name":"Rue Hedi Abidi"},{"Latitude":"36.8371371","Longitude":"10.1377292","Name":"Rue Hedi El Ajlani"},{"Latitude":"35.6728012","Longitude":"10.8855520","Name":"Rue Hedi Guerfel"},{"Latitude":"36.8061904","Longitude":"10.1743521","Name":"Rue Hedi Jaballah"},{"Latitude":"36.9064557","Longitude":"10.3018715","Name":"Rue Hedi Kharif"},{"Latitude":"36.8443277","Longitude":"10.1530543","Name":"Rue Hedi Lassoued"},{"Latitude":"34.7769524","Longitude":"10.7279482","Name":"Rue Hedi Smaoui"},{"Latitude":"34.7424258","Longitude":"10.5185576","Name":"Rue Hedi Soyah"},{"Latitude":"36.8167650","Longitude":"10.1765310","Name":"Rue Hooker Doolitle"},{"Latitude":"36.8510532","Longitude":"10.1824986","Name":"Rue Hortensia"},{"Latitude":"35.6809368","Longitude":"10.8537202","Name":"Rue Hoshass"},{"Latitude":"34.4248238","Longitude":"8.7966725","Name":"Rue Houcha B Hayen"},{"Latitude":"34.7319386","Longitude":"10.7578650","Name":"Rue Houcine Belhaj Khaled"},{"Latitude":"36.4046860","Longitude":"10.6219235","Name":"Rue Houcine Nouzaiane"},{"Latitude":"36.9147996","Longitude":"10.2939554","Name":"Rue Houdhaifa Ibn Alimene"},{"Latitude":"36.8293448","Longitude":"10.0988971","Name":"Rue Houmyyn"},{"Latitude":"36.9059960","Longitude":"10.2989021","Name":"Rue Houssine Ibn Ali"},{"Latitude":"36.7583467","Longitude":"10.1845556","Name":"Rue Houssine Mathelouthi"},{"Latitude":"35.1611960","Longitude":"8.8460521","Name":"Rue Hsan El Hsin"},{"Latitude":"35.6698962","Longitude":"10.8674003","Name":"Rue Hsine Eloued"},{"Latitude":"35.8313924","Longitude":"10.6203085","Name":"Rue Hsouna El Hadda"},{"Latitude":"36.7522477","Longitude":"10.2189823","Name":"Rue Hédi Jinane"},{"Latitude":"36.7465685","Longitude":"10.2984012","Name":"Rue Hédi Kallala"},{"Latitude":"36.8035177","Longitude":"10.1318099","Name":"Rue Ibn Abbed"},{"Latitude":"34.4319033","Longitude":"8.7824669","Name":"Rue Ibn Akil"},{"Latitude":"35.6740575","Longitude":"10.0926395","Name":"Rue Ibn Aria"},{"Latitude":"36.7382344","Longitude":"10.3265286","Name":"Rue Ibn Béja"},{"Latitude":"36.8741365","Longitude":"10.1833928","Name":"Rue Ibn El Abbas"},{"Latitude":"36.7173475","Longitude":"10.2975415","Name":"Rue Ibn El Aitham"},{"Latitude":"36.8639772","Longitude":"10.3125655","Name":"Rue Ibn El Ousfour El Ichbili"},{"Latitude":"35.8452557","Longitude":"10.6027121","Name":"Rue Ibn El Wardi"},{"Latitude":"36.3980713","Longitude":"10.6232066","Name":"Rue Ibn Enoomen"},{"Latitude":"36.7971183","Longitude":"10.1260418","Name":"Rue Ibn Erroumia"},{"Latitude":"36.8656028","Longitude":"10.1893761","Name":"Rue Ibn Essarage"},{"Latitude":"36.7967010","Longitude":"10.1625513","Name":"Rue Ibn Essaraj"},{"Latitude":"35.8543819","Longitude":"10.5858616","Name":"Rue Ibn Faras"},{"Latitude":"35.6626071","Longitude":"10.0921288","Name":"Rue Ibn Hambal"},{"Latitude":"34.4321898","Longitude":"8.7820177","Name":"Rue Ibn Hamdiss"},{"Latitude":"36.8933527","Longitude":"10.1827195","Name":"Rue Ibn Hamdoun"},{"Latitude":"37.1516311","Longitude":"9.7743043","Name":"Rue Ibn Hanbal"},{"Latitude":"36.4487976","Longitude":"10.7239998","Name":"Rue Ibn Hani"},{"Latitude":"36.8478312","Longitude":"10.1045720","Name":"Rue Ibn Hichem"},{"Latitude":"36.4061035","Longitude":"10.6231346","Name":"Rue Ibn Hizia"},{"Latitude":"36.8377589","Longitude":"10.0998938","Name":"Rue Ibn Ishak"},{"Latitude":"36.8479144","Longitude":"10.1075419","Name":"Rue Ibn Isshak"},{"Latitude":"36.8402943","Longitude":"10.1800507","Name":"Rue Ibn Itab"},{"Latitude":"35.8451563","Longitude":"10.6012528","Name":"Rue Ibn Kathir"},{"Latitude":"35.8571567","Longitude":"10.6095127","Name":"Rue Ibn Kayem El Jaouzia"},{"Latitude":"35.6709737","Longitude":"10.0957979","Name":"Rue Ibn Khalfoon"},{"Latitude":"35.8489644","Longitude":"10.5828595","Name":"Rue Ibn Koutaiba"},{"Latitude":"36.8642895","Longitude":"10.3006643","Name":"Rue Ibn Mandhour El Gafsi"},{"Latitude":"36.8280567","Longitude":"10.0754580","Name":"Rue Ibn Marouen"},{"Latitude":"35.6776789","Longitude":"10.0948136","Name":"Rue Ibn Neji"},{"Latitude":"34.4313149","Longitude":"8.7857714","Name":"Rue Ibn Oussayla El Gafsi"},{"Latitude":"36.8193020","Longitude":"10.0235613","Name":"Rue Ibn Qayyim El Jawziya"},{"Latitude":"36.8006976","Longitude":"10.1864672","Name":"Rue Ibn Rahiq"},{"Latitude":"35.8517798","Longitude":"10.6115525","Name":"Rue Ibn Rayyana"},{"Latitude":"36.8674745","Longitude":"10.3193618","Name":"Rue Ibn Saati"},{"Latitude":"36.8073509","Longitude":"10.1540655","Name":"Rue Ibn Sahl"},{"Latitude":"36.8289923","Longitude":"10.1792821","Name":"Rue Ibn Said All Andaloussi"},{"Latitude":"36.7968074","Longitude":"10.1567195","Name":"Rue Ibn Sarh"},{"Latitude":"36.8835000","Longitude":"10.1743060","Name":"Rue Ibn Sina Molk"},{"Latitude":"36.7447082","Longitude":"10.3076468","Name":"Rue Ibn Siraj"},{"Latitude":"35.8431360","Longitude":"10.5998861","Name":"Rue Ibn Taymia"},{"Latitude":"35.6605177","Longitude":"10.0896640","Name":"Rue Ibn Toumart"},{"Latitude":"36.8463759","Longitude":"10.1073662","Name":"Rue Ibne"},{"Latitude":"36.8175691","Longitude":"10.1347744","Name":"Rue Ibrahim 2"},{"Latitude":"35.8516939","Longitude":"10.6131081","Name":"Rue Ibrahim El Akoudi"},{"Latitude":"36.8376126","Longitude":"10.1345559","Name":"Rue Ibrahim El Amari"},{"Latitude":"36.8680780","Longitude":"10.1025751","Name":"Rue Ibrahim El Mousili"},{"Latitude":"36.8001166","Longitude":"10.0996897","Name":"Rue Ibrahim El kasri"},{"Latitude":"35.8478382","Longitude":"10.5882964","Name":"Rue Ibtikar"},{"Latitude":"36.8932487","Longitude":"10.2976099","Name":"Rue Ichbilia"},{"Latitude":"36.8598859","Longitude":"10.2811378","Name":"Rue Ile de Kerkennah"},{"Latitude":"34.4222915","Longitude":"8.7934130","Name":"Rue Ilies"},{"Latitude":"36.8474829","Longitude":"10.1746032","Name":"Rue Ilyes"},{"Latitude":"36.8220654","Longitude":"10.0861748","Name":"Rue Imam"},{"Latitude":"36.8428713","Longitude":"10.1790315","Name":"Rue Imam El Ouzai"},{"Latitude":"36.8546182","Longitude":"10.1731077","Name":"Rue Imam Ibn Arafa"},{"Latitude":"36.8218646","Longitude":"10.0879222","Name":"Rue Imam Termidhi"},{"Latitude":"36.8899473","Longitude":"10.3174469","Name":"Rue Ini"},{"Latitude":"32.9408299","Longitude":"10.4629111","Name":"Rue Irbeel"},{"Latitude":"36.8849219","Longitude":"10.3196262","Name":"Rue Ismail Essefaiji"},{"Latitude":"36.8265625","Longitude":"10.0826715","Name":"Rue Isshak Iben Foratt"},{"Latitude":"36.6979151","Longitude":"10.4794221","Name":"Rue Jaber Ibn Hayen"},{"Latitude":"34.4277795","Longitude":"8.7890584","Name":"Rue Jabran Khalil Jabran"},{"Latitude":"35.8635914","Longitude":"10.6008142","Name":"Rue Jabrane Khalil Jabrane"},{"Latitude":"36.8654463","Longitude":"10.1580516","Name":"Rue Jacarande"},{"Latitude":"36.8288317","Longitude":"10.0891185","Name":"Rue Jafer Ben Mansour"},{"Latitude":"35.8375810","Longitude":"10.5870920","Name":"Rue Jalaleddine Naccache"},{"Latitude":"36.8690683","Longitude":"10.1813583","Name":"Rue Jalil El Ansari"},{"Latitude":"36.7473831","Longitude":"10.2994875","Name":"Rue Jaloul Ben Chrifa"},{"Latitude":"37.2159464","Longitude":"10.1325468","Name":"Rue Jameaa Zaytouna"},{"Latitude":"37.2156884","Longitude":"10.1328345","Name":"Rue Jamel Eddin El Afgani"},{"Latitude":"35.8170661","Longitude":"10.6404975","Name":"Rue Jameleddine El Afghani"},{"Latitude":"32.9306843","Longitude":"10.4467547","Name":"Rue Jamila Bouhaired"},{"Latitude":"35.8470794","Longitude":"10.5928165","Name":"Rue Jamila Bouhired"},{"Latitude":"36.8108201","Longitude":"10.1474994","Name":"Rue Janeiro"},{"Latitude":"36.8848018","Longitude":"10.1970613","Name":"Rue Jaouhara"},{"Latitude":"32.9426070","Longitude":"10.4627717","Name":"Rue Jarach"},{"Latitude":"36.8392813","Longitude":"10.3055529","Name":"Rue Jardin d'Enfants"},{"Latitude":"32.9278025","Longitude":"10.4510727","Name":"Rue Jarir"},{"Latitude":"36.8646393","Longitude":"10.1865900","Name":"Rue Jarjar"},{"Latitude":"35.8320557","Longitude":"10.6206599","Name":"Rue Jawhar Assekelli"},{"Latitude":"34.4329918","Longitude":"8.7846248","Name":"Rue Jawhar Essekelli"},{"Latitude":"34.7398669","Longitude":"10.5265901","Name":"Rue Jawhar Essikili"},{"Latitude":"36.8277421","Longitude":"10.0875822","Name":"Rue Jawher Skili"},{"Latitude":"35.1590841","Longitude":"8.8453612","Name":"Rue Jbal Zitoun"},{"Latitude":"35.1676445","Longitude":"8.8503205","Name":"Rue Jebrane Khalil Jebrane"},{"Latitude":"36.8258520","Longitude":"10.0785249","Name":"Rue Jedah"},{"Latitude":"36.8414771","Longitude":"10.3057431","Name":"Rue Jedaida"},{"Latitude":"36.8611646","Longitude":"10.1763789","Name":"Rue Jeddah"},{"Latitude":"36.7144735","Longitude":"10.2074628","Name":"Rue Jemmal"},{"Latitude":"32.9286168","Longitude":"10.4474703","Name":"Rue Jilani Almarzougui"},{"Latitude":"32.9510747","Longitude":"10.4679134","Name":"Rue Jizane"},{"Latitude":"34.7402022","Longitude":"10.5253203","Name":"Rue Jobrane"},{"Latitude":"36.8385401","Longitude":"10.3232946","Name":"Rue Juba Premier"},{"Latitude":"36.8675187","Longitude":"10.3125560","Name":"Rue Jugurtha Barbari"},{"Latitude":"36.8296255","Longitude":"10.0873838","Name":"Rue Kaab Ben Zouhir"},{"Latitude":"36.8040820","Longitude":"10.1659656","Name":"Rue Kaadine"},{"Latitude":"36.8132849","Longitude":"10.1662112","Name":"Rue Kabadou"},{"Latitude":"36.8633947","Longitude":"10.3098375","Name":"Rue Kacem Amine"},{"Latitude":"35.6720231","Longitude":"10.8865116","Name":"Rue Kacem Chakroun"},{"Latitude":"36.8696997","Longitude":"10.1901271","Name":"Rue Kaddour Essarfi"},{"Latitude":"35.6642282","Longitude":"10.0916888","Name":"Rue Kadhi Iyadh"},{"Latitude":"36.6965376","Longitude":"10.4809061","Name":"Rue Kadhi Lyadh"},{"Latitude":"36.8207352","Longitude":"10.0813441","Name":"Rue Kadhi Tamim Ibn Moez"},{"Latitude":"36.8216553","Longitude":"10.0821427","Name":"Rue Kadhi Zoubir Ibn Tamim"},{"Latitude":"36.8290678","Longitude":"10.0880275","Name":"Rue Kaeb Ben Zouhaer"},{"Latitude":"36.8290217","Longitude":"10.0859390","Name":"Rue Kaib Ben Zouhaier"},{"Latitude":"36.8737482","Longitude":"10.3213099","Name":"Rue Kais Ibnou El Moulaoueh"},{"Latitude":"36.8288489","Longitude":"10.1382512","Name":"Rue Kalaa Es-sghira"},{"Latitude":"36.8315300","Longitude":"10.0904635","Name":"Rue Kalaat Senan"},{"Latitude":"36.8727777","Longitude":"10.2964217","Name":"Rue Kant"},{"Latitude":"36.8893519","Longitude":"10.3048030","Name":"Rue Karabala"},{"Latitude":"33.8778424","Longitude":"10.8535420","Name":"Rue Karama"},{"Latitude":"36.8246346","Longitude":"10.0739685","Name":"Rue Karbala"},{"Latitude":"36.8222361","Longitude":"10.0908351","Name":"Rue Karkna"},{"Latitude":"36.8243318","Longitude":"10.0953539","Name":"Rue Kassar Hlel"},{"Latitude":"36.8267352","Longitude":"10.1365084","Name":"Rue Kebili"},{"Latitude":"35.8479238","Longitude":"10.5851201","Name":"Rue Kennedy"},{"Latitude":"32.9218045","Longitude":"10.4589590","Name":"Rue Kenya"},{"Latitude":"36.8064549","Longitude":"10.0965437","Name":"Rue Kerkouane"},{"Latitude":"36.8646393","Longitude":"10.1865900","Name":"Rue Khadhi Iyadh"},{"Latitude":"36.9564597","Longitude":"10.2302262","Name":"Rue Khaled El Balaoui"},{"Latitude":"35.8344205","Longitude":"10.6149884","Name":"Rue Khalifa El Karoui"},{"Latitude":"36.8662208","Longitude":"10.1934698","Name":"Rue Khalifa Istambouli"},{"Latitude":"36.8614719","Longitude":"10.1907031","Name":"Rue Khelifa Naffati"},{"Latitude":"35.8491655","Longitude":"10.6134072","Name":"Rue Khemaies Et-Tarnen"},{"Latitude":"36.8423845","Longitude":"10.3091763","Name":"Rue Khemais Ben Saïd"},{"Latitude":"36.8381426","Longitude":"10.3039666","Name":"Rue Khemais El Hajri"},{"Latitude":"37.2120773","Longitude":"10.1308243","Name":"Rue Khmais Zaiem"},{"Latitude":"32.9290136","Longitude":"10.4388745","Name":"Rue Kondar"},{"Latitude":"36.8279139","Longitude":"10.0995043","Name":"Rue Korba"},{"Latitude":"32.9178037","Longitude":"10.4625571","Name":"Rue Kotono"},{"Latitude":"36.8612170","Longitude":"10.1829381","Name":"Rue Koulaya"},{"Latitude":"35.8512999","Longitude":"10.6097198","Name":"Rue Koutaiba Ibn Moslem"},{"Latitude":"36.8698773","Longitude":"10.2038573","Name":"Rue Ksibet El Medyouni"},{"Latitude":"36.8283728","Longitude":"10.0981642","Name":"Rue Ksibet Madiouni"},{"Latitude":"36.7121652","Longitude":"10.2089595","Name":"Rue Ksour Essef"},{"Latitude":"36.8072542","Longitude":"10.0955611","Name":"Rue Kélibia"},{"Latitude":"32.9241733","Longitude":"10.4595346","Name":"Rue Lasmar"},{"Latitude":"35.1655082","Longitude":"8.8430657","Name":"Rue Laymoun"},{"Latitude":"36.8698964","Longitude":"10.1904422","Name":"Rue Lept"},{"Latitude":"36.7449058","Longitude":"10.2245599","Name":"Rue Lesseps"},{"Latitude":"35.6320337","Longitude":"10.7613632","Name":"Rue Lhojej"},{"Latitude":"36.8561828","Longitude":"10.1891129","Name":"Rue Lieuntenent Aziz Tej"},{"Latitude":"36.8847573","Longitude":"10.3204382","Name":"Rue Limmam Ibn Arafa"},{"Latitude":"32.9235450","Longitude":"10.4587457","Name":"Rue Lowanda"},{"Latitude":"36.8040925","Longitude":"10.1798684","Name":"Rue Lucie Faure"},{"Latitude":"37.1565992","Longitude":"9.7777496","Name":"Rue Lumumba"},{"Latitude":"36.8250000","Longitude":"10.1378699","Name":"Rue M'Dhilla"},{"Latitude":"36.8792499","Longitude":"10.3277193","Name":"Rue M'Hamed Zaouchi"},{"Latitude":"32.9453599","Longitude":"10.4620126","Name":"Rue Maareb"},{"Latitude":"36.8189155","Longitude":"10.0257218","Name":"Rue Maarouf Erroussafi"},{"Latitude":"36.8735969","Longitude":"10.3256920","Name":"Rue Maharbal"},{"Latitude":"34.4221289","Longitude":"8.7955722","Name":"Rue Mahmoud Akkad"},{"Latitude":"35.8375549","Longitude":"10.6290606","Name":"Rue Mahmoud Khachlef"},{"Latitude":"34.7388514","Longitude":"10.5210992","Name":"Rue Mahmoud Sahnana"},{"Latitude":"35.8112369","Longitude":"10.6336847","Name":"Rue Mahmoud Sakka"},{"Latitude":"34.4275417","Longitude":"8.7886843","Name":"Rue Mahmoud Taymour"},{"Latitude":"36.8268004","Longitude":"10.1368463","Name":"Rue Mahres"},{"Latitude":"36.8075452","Longitude":"10.1002188","Name":"Rue Maka El Moukarama"},{"Latitude":"36.8301359","Longitude":"10.0974923","Name":"Rue Malawi"},{"Latitude":"34.4301213","Longitude":"8.7860477","Name":"Rue Malek El Gafsi"},{"Latitude":"33.9172117","Longitude":"8.1322646","Name":"Rue Malik Ben Nouira"},{"Latitude":"33.9184320","Longitude":"8.1350058","Name":"Rue Malik Ibn Anes"},{"Latitude":"34.7394855","Longitude":"10.5243830","Name":"Rue Mallague"},{"Latitude":"36.8732049","Longitude":"10.2961381","Name":"Rue Malthus"},{"Latitude":"36.8795094","Longitude":"10.3266902","Name":"Rue Mami"},{"Latitude":"34.4278104","Longitude":"8.7872730","Name":"Rue Mandela"},{"Latitude":"36.8408508","Longitude":"10.3168146","Name":"Rue Mannoubi El Jarjar"},{"Latitude":"36.8708600","Longitude":"10.3431285","Name":"Rue Mannoubi Souissi"},{"Latitude":"34.4292917","Longitude":"8.7860088","Name":"Rue Mansour Belhaj"},{"Latitude":"36.7941790","Longitude":"10.1775362","Name":"Rue Mareth"},{"Latitude":"36.8943547","Longitude":"10.2985712","Name":"Rue Maria"},{"Latitude":"32.9905685","Longitude":"10.4600854","Name":"Rue Marrakech"},{"Latitude":"36.9574120","Longitude":"10.2252299","Name":"Rue Marsa Matrouh"},{"Latitude":"37.2741393","Longitude":"9.8658527","Name":"Rue Martyr Salah Ben Ali"},{"Latitude":"36.8003244","Longitude":"10.0977981","Name":"Rue Masaab Zbiri"},{"Latitude":"35.1649219","Longitude":"8.8547690","Name":"Rue Masinisa"},{"Latitude":"36.8059861","Longitude":"10.0985089","Name":"Rue Masjed El Haram"},{"Latitude":"36.8942333","Longitude":"10.2969764","Name":"Rue Masqat"},{"Latitude":"32.9284713","Longitude":"10.4488846","Name":"Rue Massaoud Chennaoui"},{"Latitude":"36.7464218","Longitude":"10.3127879","Name":"Rue Maxula"},{"Latitude":"36.8733121","Longitude":"10.1830515","Name":"Rue Maymouna Bent Saad"},{"Latitude":"35.8616450","Longitude":"10.5967411","Name":"Rue Meddeb Golli"},{"Latitude":"36.8608243","Longitude":"10.1813871","Name":"Rue Medinat"},{"Latitude":"36.8662859","Longitude":"10.1623165","Name":"Rue Medinat Baysane"},{"Latitude":"36.8793245","Longitude":"10.2668832","Name":"Rue Medinat El Anbar"},{"Latitude":"36.8780083","Longitude":"10.2701072","Name":"Rue Medinat El Najaf"},{"Latitude":"36.8656419","Longitude":"10.1621604","Name":"Rue Medinat Oubaila"},{"Latitude":"36.8618653","Longitude":"10.1825229","Name":"Rue Medinat Rabigh"},{"Latitude":"36.8785897","Longitude":"10.2688480","Name":"Rue Medinat Tikrit"},{"Latitude":"36.8281296","Longitude":"10.0810786","Name":"Rue Meftah Farhat"},{"Latitude":"36.8289672","Longitude":"10.0831868","Name":"Rue Mefteh Ben Farhat"},{"Latitude":"36.8469206","Longitude":"10.3103900","Name":"Rue Mehrez Ben Khalef"},{"Latitude":"36.7174405","Longitude":"10.2981725","Name":"Rue Mehrez Ibn Khalaf"},{"Latitude":"36.8607385","Longitude":"10.1763735","Name":"Rue Mekka"},{"Latitude":"32.9418541","Longitude":"10.4555967","Name":"Rue Menbej"},{"Latitude":"36.7955109","Longitude":"10.1324690","Name":"Rue Mesk Essanadak"},{"Latitude":"36.8788922","Longitude":"10.3267106","Name":"Rue Messaoudi"},{"Latitude":"36.8271251","Longitude":"10.1397322","Name":"Rue Metlaoui"},{"Latitude":"36.8127249","Longitude":"10.0997937","Name":"Rue Mickael Noueima "},{"Latitude":"36.8625438","Longitude":"10.1550594","Name":"Rue Mihriz Chairat"},{"Latitude":"35.8621884","Longitude":"10.6084374","Name":"Rue Mikhael Nouaima"},{"Latitude":"32.9403313","Longitude":"10.4511161","Name":"Rue Mina"},{"Latitude":"36.8410692","Longitude":"10.3209807","Name":"Rue Miscipa"},{"Latitude":"36.8303377","Longitude":"10.0840330","Name":"Rue Moadh"},{"Latitude":"36.8284087","Longitude":"10.0857000","Name":"Rue Moath Bejabal"},{"Latitude":"36.9062854","Longitude":"10.3019637","Name":"Rue Moauia Ibn Houdaij"},{"Latitude":"33.9258420","Longitude":"8.1387867","Name":"Rue Moez lidine Allah El Fatam"},{"Latitude":"36.8844155","Longitude":"10.3249976","Name":"Rue Mohamed Abda"},{"Latitude":"34.7393145","Longitude":"10.5269477","Name":"Rue Mohamed Akermi"},{"Latitude":"33.9207451","Longitude":"8.1340054","Name":"Rue Mohamed Ali El Ajimi"},{"Latitude":"34.4196796","Longitude":"8.7908247","Name":"Rue Mohamed Ali Elhammi"},{"Latitude":"36.8290882","Longitude":"10.0808633","Name":"Rue Mohamed Ali Lakhmi"},{"Latitude":"36.8006259","Longitude":"10.0984097","Name":"Rue Mohamed Anbri"},{"Latitude":"34.4259698","Longitude":"8.7857942","Name":"Rue Mohamed Bahri"},{"Latitude":"36.8826175","Longitude":"10.3206977","Name":"Rue Mohamed Banna"},{"Latitude":"36.8854003","Longitude":"10.3175287","Name":"Rue Mohamed Barroudi"},{"Latitude":"33.9203222","Longitude":"8.1285712","Name":"Rue Mohamed Belkhouja"},{"Latitude":"36.8275666","Longitude":"10.0829232","Name":"Rue Mohamed Ben Hareth"},{"Latitude":"36.7363810","Longitude":"10.3234191","Name":"Rue Mohamed Ben Heni"},{"Latitude":"36.4551892","Longitude":"10.7418703","Name":"Rue Mohamed Ben Hmida Karma"},{"Latitude":"34.7409615","Longitude":"10.5249553","Name":"Rue Mohamed Ben Masmia"},{"Latitude":"36.9585275","Longitude":"10.2270739","Name":"Rue Mohamed Ben Romdhane"},{"Latitude":"34.7382711","Longitude":"10.5176242","Name":"Rue Mohamed Bouguerra"},{"Latitude":"36.8329099","Longitude":"10.3177496","Name":"Rue Mohamed Daghbagi"},{"Latitude":"32.9302363","Longitude":"10.4457748","Name":"Rue Mohamed Dahmeni"},{"Latitude":"32.9271923","Longitude":"10.4526289","Name":"Rue Mohamed Deghim"},{"Latitude":"36.8414653","Longitude":"10.1492643","Name":"Rue Mohamed Eddachraoui"},{"Latitude":"36.8218876","Longitude":"10.0245728","Name":"Rue Mohamed El Baroudi"},{"Latitude":"34.4309720","Longitude":"8.7875108","Name":"Rue Mohamed El Bejaoui"},{"Latitude":"36.8824741","Longitude":"10.3198448","Name":"Rue Mohamed El Ejmi"},{"Latitude":"35.6736288","Longitude":"10.1030794","Name":"Rue Mohamed El Hlioui"},{"Latitude":"36.8279957","Longitude":"10.0786756","Name":"Rue Mohamed Elkaisi"},{"Latitude":"36.8726771","Longitude":"10.3122850","Name":"Rue Mohamed Ennachi"},{"Latitude":"36.8847932","Longitude":"10.3141799","Name":"Rue Mohamed Errassaa"},{"Latitude":"35.8512735","Longitude":"10.5928416","Name":"Rue Mohamed Errazi"},{"Latitude":"34.4208003","Longitude":"8.7735566","Name":"Rue Mohamed Ettaieb Glanza"},{"Latitude":"35.8502700","Longitude":"10.6044543","Name":"Rue Mohamed Ettirmidhi"},{"Latitude":"36.8329625","Longitude":"10.1721077","Name":"Rue Mohamed Fadhel El Jemali"},{"Latitude":"36.7732195","Longitude":"10.2364669","Name":"Rue Mohamed Fathi Zlitni"},{"Latitude":"35.6772331","Longitude":"10.0976989","Name":"Rue Mohamed Fayez"},{"Latitude":"33.8744787","Longitude":"10.8586255","Name":"Rue Mohamed Ferjani"},{"Latitude":"36.1810278","Longitude":"8.7065779","Name":"Rue Mohamed Gammoudi"},{"Latitude":"35.8428593","Longitude":"10.5863556","Name":"Rue Mohamed Gannouni"},{"Latitude":"36.8369869","Longitude":"10.3192554","Name":"Rue Mohamed Glenza"},{"Latitude":"35.8431887","Longitude":"10.6198351","Name":"Rue Mohamed Ibn El Akhal"},{"Latitude":"36.8841282","Longitude":"10.3196597","Name":"Rue Mohamed Ibn Mandhour"},{"Latitude":"36.8229188","Longitude":"10.0238885","Name":"Rue Mohamed Ibn Salama"},{"Latitude":"32.9299635","Longitude":"10.4453489","Name":"Rue Mohamed Jmal"},{"Latitude":"36.8274861","Longitude":"10.0833806","Name":"Rue Mohamed Marouf"},{"Latitude":"36.8843449","Longitude":"10.3183548","Name":"Rue Mohamed Najjar"},{"Latitude":"36.8264464","Longitude":"10.0812013","Name":"Rue Mohamed Okdi"},{"Latitude":"36.8181818","Longitude":"10.0250652","Name":"Rue Mohamed Rached Ridha"},{"Latitude":"36.8461929","Longitude":"10.0977150","Name":"Rue Mohamed Rassaa"},{"Latitude":"36.9586229","Longitude":"10.2237318","Name":"Rue Mohamed Salah Jabri"},{"Latitude":"36.8834502","Longitude":"10.3277667","Name":"Rue Mohamed Salah Melki"},{"Latitude":"35.7782811","Longitude":"10.8066577","Name":"Rue Mohamed Salah Sayadi"},{"Latitude":"35.8379608","Longitude":"10.6052960","Name":"Rue Mohamed Saïd El Khalesi"},{"Latitude":"36.8851719","Longitude":"10.3163606","Name":"Rue Mohamed Snoussi"},{"Latitude":"36.8271388","Longitude":"10.0820844","Name":"Rue Mohamed Sohnoun"},{"Latitude":"37.2151491","Longitude":"10.1325931","Name":"Rue Mohamed Taher Ben Achour"},{"Latitude":"35.8493329","Longitude":"10.6148502","Name":"Rue Mohamed Zaaboub"},{"Latitude":"35.8462517","Longitude":"10.5863695","Name":"Rue Mohsen Jardou"},{"Latitude":"36.8848426","Longitude":"10.3180253","Name":"Rue Mokhtar Ben Mahmoud"},{"Latitude":"36.8218839","Longitude":"10.0222282","Name":"Rue Mokhtar El Laghmani"},{"Latitude":"36.8752145","Longitude":"10.2891409","Name":"Rue Mokhtar Laatiri"},{"Latitude":"36.4471967","Longitude":"10.7392268","Name":"Rue Moncef Bey"},{"Latitude":"35.8581659","Longitude":"10.6046760","Name":"Rue Monji Halloul"},{"Latitude":"36.9032792","Longitude":"10.2928543","Name":"Rue Montassae Bilel El Hafsi"},{"Latitude":"36.8284677","Longitude":"10.1374577","Name":"Rue Mootamar"},{"Latitude":"36.8274528","Longitude":"10.0881596","Name":"Rue Mosaib Ben Abir"},{"Latitude":"37.2117487","Longitude":"10.1285349","Name":"Rue Mosquée El Azhar"},{"Latitude":"36.7040316","Longitude":"10.4083389","Name":"Rue Mosratia"},{"Latitude":"36.8239043","Longitude":"10.0810692","Name":"Rue Mossa Ibn Yassin"},{"Latitude":"36.8269676","Longitude":"10.0829175","Name":"Rue Mossa Samadi"},{"Latitude":"36.8259342","Longitude":"10.0880196","Name":"Rue Mostafa Mobarek"},{"Latitude":"36.8063931","Longitude":"10.0973381","Name":"Rue Mouaheddine"},{"Latitude":"36.7451530","Longitude":"10.3054364","Name":"Rue Moufdi Zakaria"},{"Latitude":"36.1823300","Longitude":"8.7094720","Name":"Rue Mouldi"},{"Latitude":"35.8585418","Longitude":"10.6094731","Name":"Rue Mouna"},{"Latitude":"36.8227093","Longitude":"10.0807015","Name":"Rue Mousa Ibn Yassine"},{"Latitude":"36.8636339","Longitude":"10.1146692","Name":"Rue Mousbeh El Jarboua"},{"Latitude":"36.8524694","Longitude":"10.2004845","Name":"Rue Moussa Assadhi"},{"Latitude":"36.8033403","Longitude":"10.1248401","Name":"Rue Moutanabi"},{"Latitude":"36.9140222","Longitude":"10.2828172","Name":"Rue Mouthanna Ibn El Haritha"},{"Latitude":"32.9240560","Longitude":"10.4595395","Name":"Rue Moçambique"},{"Latitude":"36.4030205","Longitude":"10.6274036","Name":"Rue Mustapha Agha"},{"Latitude":"36.8194913","Longitude":"10.0263921","Name":"Rue Mustapha Ben Jannet"},{"Latitude":"36.8097475","Longitude":"10.1409965","Name":"Rue Mustapha El Gharbi"},{"Latitude":"35.8174971","Longitude":"10.6286893","Name":"Rue Mustapha El Manfalouti"},{"Latitude":"36.8725165","Longitude":"10.1809265","Name":"Rue Mustapha Loudhayef"},{"Latitude":"35.8513656","Longitude":"10.5987221","Name":"Rue Mustapha Sadok Rafai"},{"Latitude":"35.8390513","Longitude":"10.6147604","Name":"Rue Mustapha Sadok Refai"},{"Latitude":"36.8619456","Longitude":"10.1754457","Name":"Rue Nabouls"},{"Latitude":"36.8893519","Longitude":"10.3048030","Name":"Rue Najaf"},{"Latitude":"33.6199900","Longitude":"10.2764507","Name":"Rue Nasim"},{"Latitude":"36.7457781","Longitude":"10.3137240","Name":"Rue Nehrou"},{"Latitude":"36.8729987","Longitude":"10.2962823","Name":"Rue Nietzsche"},{"Latitude":"36.8941100","Longitude":"10.2966988","Name":"Rue Nissan"},{"Latitude":"36.8802149","Longitude":"10.2732374","Name":"Rue Noueri"},{"Latitude":"36.8821576","Longitude":"10.2786447","Name":"Rue Nouiri"},{"Latitude":"35.8442128","Longitude":"10.5997938","Name":"Rue Nouri Gahbiche"},{"Latitude":"37.2111034","Longitude":"10.1308966","Name":"Rue Nº1 Abou Hamed El Ghazeli"},{"Latitude":"36.8486854","Longitude":"10.3083316","Name":"Rue Oasis"},{"Latitude":"36.8646586","Longitude":"10.3097919","Name":"Rue Obeidallah El Mehdi"},{"Latitude":"36.8627090","Longitude":"10.3082322","Name":"Rue Obeidallah Ibn Habhab"},{"Latitude":"36.8059646","Longitude":"10.0994772","Name":"Rue Ohod"},{"Latitude":"36.8263952","Longitude":"10.1378098","Name":"Rue Om El Arais"},{"Latitude":"36.8247948","Longitude":"10.0753088","Name":"Rue Om El Ksar"},{"Latitude":"37.2134800","Longitude":"10.1277648","Name":"Rue Omar Ben Chikh"},{"Latitude":"35.8539591","Longitude":"10.5870072","Name":"Rue Omar Ibn Abi Rabia"},{"Latitude":"36.8807826","Longitude":"10.3149824","Name":"Rue Omar Ibn Cheikh"},{"Latitude":"35.8612786","Longitude":"10.5987503","Name":"Rue Omar Mami"},{"Latitude":"32.9352110","Longitude":"10.4599878","Name":"Rue Oslu"},{"Latitude":"36.8756020","Longitude":"10.2882886","Name":"Rue Osmane Elbahri"},{"Latitude":"36.8268733","Longitude":"10.0892816","Name":"Rue Ossama Ben Yazid"},{"Latitude":"36.8636551","Longitude":"10.3114906","Name":"Rue Othman Dey"},{"Latitude":"36.8885952","Longitude":"10.3192554","Name":"Rue Othman Maoussili"},{"Latitude":"36.8276796","Longitude":"10.0979362","Name":"Rue Othmanyn"},{"Latitude":"36.8300007","Longitude":"10.1075419","Name":"Rue Othmen Kaak"},{"Latitude":"36.8679845","Longitude":"10.3168389","Name":"Rue Ottomans"},{"Latitude":"36.8259560","Longitude":"10.1384064","Name":"Rue Ouardanine"},{"Latitude":"36.8215026","Longitude":"10.0173790","Name":"Rue Oubada Ibn Essamet"},{"Latitude":"36.8174511","Longitude":"10.1352699","Name":"Rue Oubaeid Allah Mahdi"},{"Latitude":"36.8875338","Longitude":"10.3220094","Name":"Rue Oued El Kebir"},{"Latitude":"36.8696670","Longitude":"10.1654273","Name":"Rue Oued El Koura"},{"Latitude":"36.8862005","Longitude":"10.3200426","Name":"Rue Oued Tessa"},{"Latitude":"36.8889903","Longitude":"10.3029573","Name":"Rue Ouedi Moussa"},{"Latitude":"36.8605231","Longitude":"10.1761217","Name":"Rue Ouhod"},{"Latitude":"36.7474336","Longitude":"10.3154017","Name":"Rue Ouled Echamekh"},{"Latitude":"35.6833244","Longitude":"10.1036725","Name":"Rue Oum El Mouminin Aicha"},{"Latitude":"35.6723928","Longitude":"10.1074728","Name":"Rue Oum Mallel"},{"Latitude":"32.9374909","Longitude":"10.4594830","Name":"Rue Ouslod"},{"Latitude":"35.8581073","Longitude":"10.6059523","Name":"Rue Oussama Ibn Zayd"},{"Latitude":"36.8658213","Longitude":"10.3185156","Name":"Rue Palmiers"},{"Latitude":"36.7430773","Longitude":"10.3034874","Name":"Rue Pasteur"},{"Latitude":"36.1806911","Longitude":"8.7142041","Name":"Rue Patrice"},{"Latitude":"36.7876770","Longitude":"10.1713745","Name":"Rue Patrice Lumumba"},{"Latitude":"35.8304375","Longitude":"10.6391615","Name":"Rue Piedtonne"},{"Latitude":"36.8652141","Longitude":"10.2934154","Name":"Rue Platon"},{"Latitude":"36.7223488","Longitude":"9.1912168","Name":"Rue Pont de Trajan"},{"Latitude":"36.8092736","Longitude":"10.1453406","Name":"Rue Primeveres"},{"Latitude":"34.4292674","Longitude":"8.7872721","Name":"Rue Prince Abdelkader"},{"Latitude":"36.8522865","Longitude":"10.3303947","Name":"Rue Procope"},{"Latitude":"36.8421634","Longitude":"10.3224780","Name":"Rue Pylope"},{"Latitude":"36.8691909","Longitude":"10.1885144","Name":"Rue Qaddour Essrarfi"},{"Latitude":"34.7409954","Longitude":"10.5191651","Name":"Rue RR_DH_16"},{"Latitude":"36.8454041","Longitude":"10.3145407","Name":"Rue Rachid Ben Sedira"},{"Latitude":"36.8847289","Longitude":"10.3220992","Name":"Rue Rachid Msallem"},{"Latitude":"36.8855721","Longitude":"10.3241952","Name":"Rue Radhia Haddad"},{"Latitude":"32.9320094","Longitude":"10.4529306","Name":"Rue Raed lebjawi"},{"Latitude":"35.8382845","Longitude":"10.6302595","Name":"Rue Ragada"},{"Latitude":"35.8591777","Longitude":"10.5880858","Name":"Rue Rajah Brahim"},{"Latitude":"36.8246346","Longitude":"10.0739685","Name":"Rue Ramadi"},{"Latitude":"32.9447518","Longitude":"10.4620969","Name":"Rue Ramallah"},{"Latitude":"35.8560538","Longitude":"10.5979282","Name":"Rue Rammada"},{"Latitude":"36.8357172","Longitude":"10.1012444","Name":"Rue Rapprochement"},{"Latitude":"36.8544155","Longitude":"10.1887511","Name":"Rue Rayahine"},{"Latitude":"36.9584088","Longitude":"10.2183302","Name":"Rue Riadh"},{"Latitude":"35.8405991","Longitude":"10.5921735","Name":"Rue Riadh El Sahili"},{"Latitude":"36.8752389","Longitude":"10.2896946","Name":"Rue Sabkhet El Hammia"},{"Latitude":"35.8486317","Longitude":"10.5881857","Name":"Rue Sabra"},{"Latitude":"35.8569386","Longitude":"10.5953237","Name":"Rue Sadek Laaroussi"},{"Latitude":"35.8626165","Longitude":"10.5980113","Name":"Rue Sadek Yezza"},{"Latitude":"35.8468743","Longitude":"10.6005237","Name":"Rue Sadok Mazigh"},{"Latitude":"35.8291874","Longitude":"10.6313807","Name":"Rue Sahbene Ibn Mail"},{"Latitude":"36.8634279","Longitude":"10.1149924","Name":"Rue Said Aboubaker"},{"Latitude":"36.8173609","Longitude":"10.1400932","Name":"Rue Saida"},{"Latitude":"36.8288848","Longitude":"10.0817491","Name":"Rue Saida Tmimi"},{"Latitude":"32.9252324","Longitude":"10.4518779","Name":"Rue Saied Dababi"},{"Latitude":"36.8205388","Longitude":"10.0277797","Name":"Rue Saif Eddaoula"},{"Latitude":"36.7446917","Longitude":"10.2984837","Name":"Rue Salah Ayech"},{"Latitude":"37.2725523","Longitude":"9.8674969","Name":"Rue Salah Ben Ali"},{"Latitude":"35.8649794","Longitude":"10.6039738","Name":"Rue Salah Ben Mustafa"},{"Latitude":"36.8759947","Longitude":"10.2891462","Name":"Rue Salah Bou Lackbeche"},{"Latitude":"36.8305918","Longitude":"10.0880168","Name":"Rue Salah Eddin Ayoubi"},{"Latitude":"35.1649219","Longitude":"8.8547690","Name":"Rue Salah El Missaoui"},{"Latitude":"36.8357570","Longitude":"10.3182831","Name":"Rue Salah Farhat"},{"Latitude":"36.8200084","Longitude":"10.0928065","Name":"Rue Salah Khemissi"},{"Latitude":"35.8249728","Longitude":"10.6408046","Name":"Rue Salah Saad"},{"Latitude":"35.6538392","Longitude":"10.0872995","Name":"Rue Salem Ben Thabiba"},{"Latitude":"35.8367635","Longitude":"10.6219165","Name":"Rue Salem El Herayech"},{"Latitude":"36.4004866","Longitude":"10.6219319","Name":"Rue Salem Haouel"},{"Latitude":"35.8600982","Longitude":"10.5934677","Name":"Rue Salem Jegham"},{"Latitude":"36.8388958","Longitude":"10.3235945","Name":"Rue Salluste"},