[{"Latitude":"6.1917970","Longitude":"1.1985385","Name":"134"},{"Latitude":"6.1915648","Longitude":"1.1995665","Name":"146"},{"Latitude":"6.1890007","Longitude":"1.2062001","Name":"225 AGP"},{"Latitude":"6.1814302","Longitude":"1.2531542","Name":"67 Rue des Badassés HDN"},{"Latitude":"9.3835717","Longitude":"0.6845497","Name":"Access Road"},{"Latitude":"6.1385220","Longitude":"1.2458613","Name":"Agbatitoe"},{"Latitude":"6.1945562","Longitude":"1.2021831","Name":"Agbofoati"},{"Latitude":"6.4329378","Longitude":"1.2145974","Name":"Allée de Parthenay"},{"Latitude":"6.3625820","Longitude":"1.6064849","Name":"Aneho - Tabligbo National Road"},{"Latitude":"6.1713290","Longitude":"1.2373855","Name":"Avenue Akéi"},{"Latitude":"6.1319519","Longitude":"1.2488754","Name":"Avenue Augustino de Souza"},{"Latitude":"6.1337607","Longitude":"1.2115588","Name":"Avenue François Mitterrand"},{"Latitude":"6.1342664","Longitude":"1.2286355","Name":"Avenue Maman N'Danida"},{"Latitude":"6.1266258","Longitude":"1.2206324","Name":"Avenue Pompidou"},{"Latitude":"6.1889374","Longitude":"1.1923842","Name":"Avenue Pya"},{"Latitude":"6.1290920","Longitude":"1.2187852","Name":"Avenue Sarakawa"},{"Latitude":"6.1325521","Longitude":"1.2167826","Name":"Avenue de l'OUA"},{"Latitude":"6.1256245","Longitude":"1.2254491","Name":"Avenue de la Libération"},{"Latitude":"6.1366119","Longitude":"1.2221521","Name":"Avenue de la Libératon"},{"Latitude":"6.1330916","Longitude":"1.2200517","Name":"Avenue de la Nouvelle Marche"},{"Latitude":"6.1562701","Longitude":"1.2425964","Name":"Avenue de la Paix"},{"Latitude":"6.1721750","Longitude":"1.2527351","Name":"Avenue de la Paix - 19 TKA"},{"Latitude":"6.1544807","Longitude":"1.2234568","Name":"Avenue des Hydrocarbures"},{"Latitude":"6.1600384","Longitude":"1.2283258","Name":"Avenue des Kondona"},{"Latitude":"6.1284126","Longitude":"1.2181360","Name":"Avenue du 2 Février"},{"Latitude":"6.1313088","Longitude":"1.2248716","Name":"Avenue du 24 Janvier"},{"Latitude":"6.1796022","Longitude":"1.2400763","Name":"Avenue du Grand Séminaire"},{"Latitude":"6.1588782","Longitude":"1.2593347","Name":"BE-KPOTA Rue 152"},{"Latitude":"9.3842167","Longitude":"0.6855022","Name":"Bessi's Road"},{"Latitude":"6.1431772","Longitude":"1.2434845","Name":"Boulevard Félix Houphouët-Boigny"},{"Latitude":"6.1605818","Longitude":"1.2245975","Name":"Boulevard Général G. Eyadéma"},{"Latitude":"6.2069347","Longitude":"1.2502016","Name":"Boulevard Haho"},{"Latitude":"6.1421317","Longitude":"1.2420964","Name":"Boulevard Houphouet Boigny"},{"Latitude":"6.2190441","Longitude":"1.2498887","Name":"Boulevard Jean-Paul II"},{"Latitude":"6.1668914","Longitude":"1.2290193","Name":"Boulevard Léopold Sédar Senghor"},{"Latitude":"6.1711207","Longitude":"1.2875258","Name":"Boulevard Malfakassa"},{"Latitude":"6.1697770","Longitude":"1.2792508","Name":"Boulevard Malkafassa"},{"Latitude":"6.1470942","Longitude":"1.2665818","Name":"Boulevard Mobutu Sese Seko"},{"Latitude":"6.1305308","Longitude":"1.2318330","Name":"Boulevard Notre-Dame des Apôtres"},{"Latitude":"6.2144854","Longitude":"1.2019558","Name":"Boulevard d'Adjidoadin"},{"Latitude":"6.1574648","Longitude":"1.2536444","Name":"Boulevard de l'Oti"},{"Latitude":"6.2241900","Longitude":"1.1927421","Name":"Boulevard de la CEDEAO"},{"Latitude":"6.2037107","Longitude":"1.1817880","Name":"Boulevard de la Cedeao"},{"Latitude":"6.1525393","Longitude":"1.2408167","Name":"Boulevard de la Paix"},{"Latitude":"6.2204593","Longitude":"1.2261508","Name":"Boulevard de la Poussière"},{"Latitude":"6.1497239","Longitude":"1.2249863","Name":"Boulevard des Armées"},{"Latitude":"6.1368086","Longitude":"1.2251050","Name":"Boulevard du 13 Janvier"},{"Latitude":"6.2031977","Longitude":"1.2554285","Name":"Boulevard du Sio"},{"Latitude":"6.1894600","Longitude":"1.2524749","Name":"Boulevard du Zio"},{"Latitude":"6.2267518","Longitude":"1.2031407","Name":"Carrefour Bleu"},{"Latitude":"6.2177687","Longitude":"1.1886539","Name":"Carrefour Deux Lions"},{"Latitude":"6.1884819","Longitude":"1.1626960","Name":"Circle d'Adidogome"},{"Latitude":"6.1907204","Longitude":"1.1960863","Name":"Damipi"},{"Latitude":"6.4234641","Longitude":"1.3119839","Name":"Davédi-Yobo"},{"Latitude":"6.1743629","Longitude":"1.0719582","Name":"Denu - Ho Road"},{"Latitude":"6.1925302","Longitude":"1.2023287","Name":"Dégbo"},{"Latitude":"6.1920062","Longitude":"1.1960813","Name":"Edzé"},{"Latitude":"9.3847767","Longitude":"0.6853718","Name":"Farm access road"},{"Latitude":"6.1920100","Longitude":"1.1967311","Name":"Gagban"},{"Latitude":"6.1699410","Longitude":"1.1872571","Name":"Gakpavi"},{"Latitude":"6.1887662","Longitude":"1.1917643","Name":"Gbalédzé"},{"Latitude":"6.7614506","Longitude":"0.5824950","Name":"Ho - Kpalimé Road"},{"Latitude":"6.1317030","Longitude":"1.2343619","Name":"Impasse 137BNG"},{"Latitude":"6.1731934","Longitude":"1.2847192","Name":"Impasse Agbéya"},{"Latitude":"6.9981581","Longitude":"0.6623997","Name":"Kpalimé - Atakpamé"},{"Latitude":"6.1401130","Longitude":"1.2388028","Name":"Kpehenou"},{"Latitude":"6.1920672","Longitude":"1.2044328","Name":"Livingstone"},{"Latitude":"9.2476699","Longitude":"1.1912253","Name":"Lomé - Cinkassé"},{"Latitude":"9.2746903","Longitude":"1.2215552","Name":"Lomé - Ouagadougou"},{"Latitude":"6.2159872","Longitude":"1.1825132","Name":"Maison du magistrat TAGBE"},{"Latitude":"6.1882568","Longitude":"1.1938006","Name":"Mangotiers"},{"Latitude":"6.1894273","Longitude":"1.2066935","Name":"Martin Luther King"},{"Latitude":"6.1679351","Longitude":"1.2257902","Name":"Napoulok"},{"Latitude":"6.1313408","Longitude":"1.2299672","Name":"Noepe"},{"Latitude":"6.2173209","Longitude":"1.2061086","Name":"Non dénommée"},{"Latitude":"6.1404103","Longitude":"1.2353561","Name":"Okafou"},{"Latitude":"8.1888203","Longitude":"0.9684219","Name":"Pagala Gara - Blita"},{"Latitude":"6.2047412","Longitude":"1.1868467","Name":"Pavé de Totsi-Djidjolé"},{"Latitude":"6.1957922","Longitude":"1.1887920","Name":"Pavé de Tsotsi -Adidoadin"},{"Latitude":"8.5804061","Longitude":"1.0910171","Name":"Piste Rurale à réhabiliter n°35"},{"Latitude":"8.6952338","Longitude":"0.7722506","Name":"Piste du Parc National Fazao-Malfakassa"},{"Latitude":"7.1549986","Longitude":"1.2493639","Name":"Piste rurale n°10"},{"Latitude":"10.8866857","Longitude":"0.0609209","Name":"Piste rurale n°52"},{"Latitude":"9.8491750","Longitude":"0.5024126","Name":"Piste rurale à réhabiliter n° 41"},{"Latitude":"8.5039447","Longitude":"1.1013543","Name":"Piste rurale à réhabiliter n°33"},{"Latitude":"9.6415467","Longitude":"0.5552512","Name":"Piste rurale à réhabiliter n°40"},{"Latitude":"9.7985560","Longitude":"0.4633947","Name":"Piste rurale à réhabiliter n°41"},{"Latitude":"9.9711212","Longitude":"0.7080631","Name":"Piste rurale à réhabiliter n°42"},{"Latitude":"6.4870852","Longitude":"1.2508148","Name":"Piste rurale à réhabiliter n°8"},{"Latitude":"6.1421669","Longitude":"1.2581089","Name":"Place 1ABG"},{"Latitude":"6.1389981","Longitude":"1.2204177","Name":"Place du 30 Novembre"},{"Latitude":"7.0052201","Longitude":"0.6688731","Name":"Pont Djokloè"},{"Latitude":"8.9696260","Longitude":"1.1554738","Name":"Pont Sur la Riviere Kpandi"},{"Latitude":"7.8143876","Longitude":"1.2732715","Name":"Pont des Allemands 1955"},{"Latitude":"6.1911427","Longitude":"1.1934994","Name":"Pr Paul Ayi"},{"Latitude":"6.2411053","Longitude":"1.2006606","Name":"Prince"},{"Latitude":"6.9114394","Longitude":"0.6322102","Name":"RN5"},{"Latitude":"6.1907084","Longitude":"1.1971280","Name":"Ramsès 2"},{"Latitude":"6.1890285","Longitude":"1.1996757","Name":"Rivièra"},{"Latitude":"10.9012850","Longitude":"0.2152098","Name":"Road to Koni"},{"Latitude":"6.2108238","Longitude":"1.1833778","Name":"Rond point Vallée Encatado"},{"Latitude":"6.1954584","Longitude":"1.1888664","Name":"Rond-Point Tsotsi"},{"Latitude":"6.3672151","Longitude":"1.4124443","Name":"Route Ancien Marché"},{"Latitude":"7.4601188","Longitude":"1.3443178","Name":"Route Atakpamé - Nangbéto"},{"Latitude":"7.4270651","Longitude":"1.4357407","Name":"Route Atakpamé - Tohoun"},{"Latitude":"6.2976524","Longitude":"1.4274690","Name":"Route Hahotoé-Aného"},{"Latitude":"6.9065823","Longitude":"0.9333777","Name":"Route Kpalimé - Notsé"},{"Latitude":"6.9335913","Longitude":"1.0438821","Name":"Route Kpalimé - Notsé (Haho)"},{"Latitude":"6.8795289","Longitude":"0.8226402","Name":"Route Kpalimé - Notsé (Zio)"},{"Latitude":"6.8738716","Longitude":"0.6644180","Name":"Route Lomé - Kpalimé"},{"Latitude":"6.3253197","Longitude":"1.3370115","Name":"Route Lomé - Vogan"},{"Latitude":"6.2242330","Longitude":"1.2071228","Name":"Route Mission Tové"},{"Latitude":"6.2371978","Longitude":"1.4963539","Name":"Route Togoville - Badougbé"},{"Latitude":"6.8321185","Longitude":"0.7169481","Name":"Route d'Atigbe Dzogbefeme"},{"Latitude":"6.9572236","Longitude":"0.5615666","Name":"Route de Kloto"},{"Latitude":"6.2072641","Longitude":"1.1880624","Name":"Route de Léo 2000"},{"Latitude":"6.9270976","Longitude":"0.6110552","Name":"Route de Missahoe"},{"Latitude":"6.2334465","Longitude":"1.1408409","Name":"Route de Sanguéra"},{"Latitude":"6.1884527","Longitude":"1.1624841","Name":"Route vers Segbe"},{"Latitude":"6.1810749","Longitude":"1.2375039","Name":"Ru 115"},{"Latitude":"6.4527943","Longitude":"0.9099019","Name":"Rue"},{"Latitude":"6.1834773","Longitude":"1.2359575","Name":"Rue 006"},{"Latitude":"6.4273327","Longitude":"1.2091846","Name":"Rue 046"},{"Latitude":"6.1760523","Longitude":"1.2683127","Name":"Rue 08"},{"Latitude":"6.1580662","Longitude":"1.2558860","Name":"Rue 102 Bè Kpota"},{"Latitude":"6.1314955","Longitude":"1.2210046","Name":"Rue 103.WTK"},{"Latitude":"6.1802122","Longitude":"1.2365542","Name":"Rue 105"},{"Latitude":"6.1809656","Longitude":"1.2359911","Name":"Rue 115"},{"Latitude":"6.1583328","Longitude":"1.2570173","Name":"Rue 118"},{"Latitude":"6.1826535","Longitude":"1.2363505","Name":"Rue 123"},{"Latitude":"6.1355865","Longitude":"1.2199350","Name":"Rue 125.WTK"},{"Latitude":"6.1515100","Longitude":"1.2472124","Name":"Rue 14 BKP"},{"Latitude":"6.1823446","Longitude":"1.2172267","Name":"Rue 148"},{"Latitude":"6.1732691","Longitude":"1.2383638","Name":"Rue 15"},{"Latitude":"6.1868813","Longitude":"1.1894950","Name":"Rue 159"},{"Latitude":"6.1747789","Longitude":"1.2358054","Name":"Rue 16"},{"Latitude":"6.1537456","Longitude":"1.2472189","Name":"Rue 16 BKP"},{"Latitude":"6.1785683","Longitude":"1.2356218","Name":"Rue 16 HDN"},{"Latitude":"6.1296258","Longitude":"1.2360654","Name":"Rue 17BNG"},{"Latitude":"6.1809792","Longitude":"1.2358386","Name":"Rue 18 HDN"},{"Latitude":"6.1862595","Longitude":"1.2012068","Name":"Rue 191 AFG"},{"Latitude":"6.1743850","Longitude":"1.2689021","Name":"Rue 20"},{"Latitude":"6.1530860","Longitude":"1.2480412","Name":"Rue 20 BKP"},{"Latitude":"6.4171873","Longitude":"1.2133935","Name":"Rue 2073"},{"Latitude":"6.1306119","Longitude":"1.2370523","Name":"Rue 21BNG"},{"Latitude":"6.1832751","Longitude":"1.2426314","Name":"Rue 22"},{"Latitude":"6.1859801","Longitude":"1.2375511","Name":"Rue 24"},{"Latitude":"6.1533127","Longitude":"1.2485670","Name":"Rue 24 BKP"},{"Latitude":"6.1908800","Longitude":"1.2027381","Name":"Rue 253 AGP"},{"Latitude":"6.1920062","Longitude":"1.1960813","Name":"Rue 259.AGP"},{"Latitude":"6.1535154","Longitude":"1.2490699","Name":"Rue 28 BKP"},{"Latitude":"6.1319515","Longitude":"1.2347595","Name":"Rue 29BNG"},{"Latitude":"6.1536980","Longitude":"1.2494937","Name":"Rue 32 BKP"},{"Latitude":"6.1977128","Longitude":"1.2498044","Name":"Rue 347"},{"Latitude":"6.1988933","Longitude":"1.2483298","Name":"Rue 355"},{"Latitude":"6.1538914","Longitude":"1.2499563","Name":"Rue 38 BKP"},{"Latitude":"6.1778349","Longitude":"1.2349843","Name":"Rue 4 HDN"},{"Latitude":"6.1755081","Longitude":"1.2364517","Name":"Rue 42"},{"Latitude":"6.1479698","Longitude":"1.2499510","Name":"Rue 42 Bè"},{"Latitude":"6.1749396","Longitude":"1.2371553","Name":"Rue 44"},{"Latitude":"6.1732493","Longitude":"1.2379331","Name":"Rue 46"},{"Latitude":"6.1761508","Longitude":"1.2377998","Name":"Rue 48"},{"Latitude":"6.1818772","Longitude":"1.2374619","Name":"Rue 50"},{"Latitude":"6.1749746","Longitude":"1.2385160","Name":"Rue 51"},{"Latitude":"6.1529434","Longitude":"1.2455079","Name":"Rue 6"},{"Latitude":"6.1755383","Longitude":"1.2370214","Name":"Rue 61"},{"Latitude":"6.1739470","Longitude":"1.2386846","Name":"Rue 62"},{"Latitude":"6.1759559","Longitude":"1.2357486","Name":"Rue 63"},{"Latitude":"6.1772749","Longitude":"1.2381881","Name":"Rue 64"},{"Latitude":"6.1551201","Longitude":"1.2529873","Name":"Rue 64 BKP"},{"Latitude":"6.1761508","Longitude":"1.2377998","Name":"Rue 65"},{"Latitude":"6.1826720","Longitude":"1.2380925","Name":"Rue 66"},{"Latitude":"6.1803072","Longitude":"1.2382257","Name":"Rue 66 HDN"},{"Latitude":"6.1869147","Longitude":"1.2394041","Name":"Rue 68"},{"Latitude":"6.1767069","Longitude":"1.2397864","Name":"Rue 69"},{"Latitude":"6.1372893","Longitude":"1.2266265","Name":"Rue 73"},{"Latitude":"6.1553597","Longitude":"1.2535478","Name":"Rue 74 BKP"},{"Latitude":"6.1766876","Longitude":"1.2351841","Name":"Rue 75"},{"Latitude":"6.1780983","Longitude":"1.2390505","Name":"Rue 75 HDN"},{"Latitude":"6.1772459","Longitude":"1.2376994","Name":"Rue 77"},{"Latitude":"6.1520327","Longitude":"1.2458821","Name":"Rue 8 BKP"},{"Latitude":"6.1373778","Longitude":"1.2378960","Name":"Rue 82"},{"Latitude":"6.1776210","Longitude":"1.2363765","Name":"Rue 83"},{"Latitude":"6.1781316","Longitude":"1.2391993","Name":"Rue 89"},{"Latitude":"6.1727110","Longitude":"1.2384617","Name":"Rue 9"},{"Latitude":"6.1786469","Longitude":"1.2368548","Name":"Rue 93"},{"Latitude":"6.1751723","Longitude":"1.2399880","Name":"Rue 94"},{"Latitude":"6.1781593","Longitude":"1.2396815","Name":"Rue 96 HDN"},{"Latitude":"6.1566394","Longitude":"1.2544490","Name":"Rue ALOBALO 84 BKP"},{"Latitude":"6.1522687","Longitude":"1.2464038","Name":"Rue ANIWA 12 BKP"},{"Latitude":"6.1537820","Longitude":"1.2499993","Name":"Rue Abloda"},{"Latitude":"6.1569428","Longitude":"1.2586293","Name":"Rue Ablodé"},{"Latitude":"6.1687970","Longitude":"1.2983548","Name":"Rue Abo"},{"Latitude":"6.1816356","Longitude":"1.2544946","Name":"Rue Aboudou"},{"Latitude":"6.1604764","Longitude":"1.2770976","Name":"Rue Abélonétimé"},{"Latitude":"6.1766844","Longitude":"1.2805445","Name":"Rue Adakpo"},{"Latitude":"6.1565082","Longitude":"1.2624189","Name":"Rue Adalan"},{"Latitude":"6.1744370","Longitude":"1.2497136","Name":"Rue Adama"},{"Latitude":"6.1916506","Longitude":"1.2592432","Name":"Rue Adifo"},{"Latitude":"6.1430038","Longitude":"1.2385013","Name":"Rue Adjaba"},{"Latitude":"6.4547053","Longitude":"0.9103692","Name":"Rue Adjampédomé"},{"Latitude":"6.1788990","Longitude":"1.2820342","Name":"Rue Afokpatcha"},{"Latitude":"6.1923045","Longitude":"1.2038150","Name":"Rue Agbalé"},{"Latitude":"6.1782841","Longitude":"1.2919599","Name":"Rue Agban"},{"Latitude":"6.1587605","Longitude":"1.2293190","Name":"Rue Agbanta"},{"Latitude":"6.1616478","Longitude":"1.2368868","Name":"Rue Agbessia"},{"Latitude":"6.4056257","Longitude":"1.2099627","Name":"Rue Agbeti"},{"Latitude":"6.1707324","Longitude":"1.2823305","Name":"Rue Agbodeka"},{"Latitude":"6.1784645","Longitude":"1.2933188","Name":"Rue Agbokou"},{"Latitude":"6.1713888","Longitude":"1.2908142","Name":"Rue Agbotamé"},{"Latitude":"6.3671240","Longitude":"1.4142911","Name":"Rue Agboyibor"},{"Latitude":"6.1746196","Longitude":"1.2816596","Name":"Rue Agbékogni"},{"Latitude":"6.1919947","Longitude":"1.1979897","Name":"Rue Agbélénuku"},{"Latitude":"6.1797338","Longitude":"1.2785774","Name":"Rue Agbéyibo"},{"Latitude":"6.1643876","Longitude":"1.2166058","Name":"Rue Agnogno"},{"Latitude":"6.1790810","Longitude":"1.2826965","Name":"Rue Agodjro"},{"Latitude":"6.1346557","Longitude":"1.2568852","Name":"Rue Agouzou"},{"Latitude":"6.1492012","Longitude":"1.2559652","Name":"Rue Agoviépé"},{"Latitude":"6.1317075","Longitude":"1.2285805","Name":"Rue Aguiakome"},{"Latitude":"6.1800962","Longitude":"1.2792280","Name":"Rue Aguidi"},{"Latitude":"6.1614064","Longitude":"1.2812608","Name":"Rue Ahadji"},{"Latitude":"6.1378633","Longitude":"1.2441178","Name":"Rue Ahepe"},{"Latitude":"6.1706914","Longitude":"1.2926141","Name":"Rue Aka"},{"Latitude":"6.1586468","Longitude":"1.2220406","Name":"Rue Akara"},{"Latitude":"6.1423975","Longitude":"1.2362039","Name":"Rue Akata"},{"Latitude":"6.1732753","Longitude":"1.2813864","Name":"Rue Akpalo"},{"Latitude":"6.1732966","Longitude":"1.2906060","Name":"Rue Akpatimé"},{"Latitude":"6.1759594","Longitude":"1.2946789","Name":"Rue Akpo"},{"Latitude":"6.1585680","Longitude":"1.2200758","Name":"Rue Alaba"},{"Latitude":"6.1246403","Longitude":"1.2194543","Name":"Rue Alize"},{"Latitude":"6.1704778","Longitude":"1.2914961","Name":"Rue Alizé"},{"Latitude":"6.1385947","Longitude":"1.2345772","Name":"Rue Aluna"},{"Latitude":"6.1759485","Longitude":"1.2953182","Name":"Rue Amedano"},{"Latitude":"6.1899000","Longitude":"1.1773354","Name":"Rue Amitodji"},{"Latitude":"6.1398067","Longitude":"1.2438899","Name":"Rue Amouti"},{"Latitude":"6.1734562","Longitude":"1.2511945","Name":"Rue Améganhovoin"},{"Latitude":"6.1448857","Longitude":"1.2410474","Name":"Rue Amémakalébla"},{"Latitude":"6.1791970","Longitude":"1.2831243","Name":"Rue Amémasso"},{"Latitude":"6.1556253","Longitude":"1.2607071","Name":"Rue Amézian"},{"Latitude":"6.1338233","Longitude":"1.2375940","Name":"Rue Anamagne"},{"Latitude":"6.4337085","Longitude":"1.2035027","Name":"Rue Apevieku"},{"Latitude":"6.1337090","Longitude":"1.2545060","Name":"Rue Apounoukpa"},{"Latitude":"6.1400403","Longitude":"1.2558902","Name":"Rue Assassa"},{"Latitude":"6.1476238","Longitude":"1.2271897","Name":"Rue Assere"},{"Latitude":"6.1912437","Longitude":"1.2607296","Name":"Rue Assimata"},{"Latitude":"6.1434731","Longitude":"1.2558076","Name":"Rue Atetemeny"},{"Latitude":"6.2443344","Longitude":"1.1545661","Name":"Rue Atiomé"},{"Latitude":"6.1611836","Longitude":"1.2191995","Name":"Rue Atoeta"},{"Latitude":"6.1386984","Longitude":"1.2306431","Name":"Rue Attitogon"},{"Latitude":"6.1897460","Longitude":"1.2619029","Name":"Rue Attiégou"},{"Latitude":"6.1607468","Longitude":"1.2804264","Name":"Rue Aveninou"},{"Latitude":"6.1792335","Longitude":"1.2940940","Name":"Rue Avinté"},{"Latitude":"6.1406335","Longitude":"1.2575041","Name":"Rue Avévénou"},{"Latitude":"6.1884630","Longitude":"1.2698143","Name":"Rue Awanfoubo"},{"Latitude":"6.1933200","Longitude":"1.1911367","Name":"Rue Awouliga"},{"Latitude":"6.1467863","Longitude":"1.2278376","Name":"Rue Ayaja"},{"Latitude":"6.1575282","Longitude":"1.2548273","Name":"Rue Ayakape"},{"Latitude":"6.4335439","Longitude":"1.2041147","Name":"Rue Ayito"},{"Latitude":"6.1728487","Longitude":"1.2870415","Name":"Rue Ayivon"},{"Latitude":"6.1431683","Longitude":"1.2529014","Name":"Rue Aza"},{"Latitude":"6.1689682","Longitude":"1.2942119","Name":"Rue Aziaba"},{"Latitude":"6.1688877","Longitude":"1.2942356","Name":"Rue Aziakou"},{"Latitude":"6.1810399","Longitude":"1.2826690","Name":"Rue Aziandeka"},{"Latitude":"6.1906237","Longitude":"1.2688499","Name":"Rue Azianka"},{"Latitude":"6.1265024","Longitude":"1.2231948","Name":"Rue Azolé"},{"Latitude":"6.1553921","Longitude":"1.2857980","Name":"Rue B2"},{"Latitude":"6.1409666","Longitude":"1.2525033","Name":"Rue Batemoni"},{"Latitude":"6.2375021","Longitude":"1.1937420","Name":"Rue Bekemssi (DG LONATO)"},{"Latitude":"6.1855627","Longitude":"1.2721207","Name":"Rue Bel Air"},{"Latitude":"6.1586468","Longitude":"1.2220406","Name":"Rue Benali"},{"Latitude":"6.1259445","Longitude":"1.2245820","Name":"Rue Bersissan"},{"Latitude":"6.1587435","Longitude":"1.2587801","Name":"Rue Bidenga"},{"Latitude":"6.1322703","Longitude":"1.2343167","Name":"Rue Boccovi"},{"Latitude":"6.1805789","Longitude":"1.2846990","Name":"Rue Bon Ami"},{"Latitude":"6.1341504","Longitude":"1.2560156","Name":"Rue Bontourga"},{"Latitude":"6.1518286","Longitude":"1.2453282","Name":"Rue Bè Kponou"},{"Latitude":"6.1580121","Longitude":"1.2564821","Name":"Rue Bè Kpota 108 BKP"},{"Latitude":"6.1704429","Longitude":"1.2438918","Name":"Rue Cantine de l'Aéroport"},{"Latitude":"6.3692661","Longitude":"1.4130993","Name":"Rue Cité - Ancien Marché"},{"Latitude":"6.1878768","Longitude":"1.2721769","Name":"Rue Concordia"},{"Latitude":"6.1707733","Longitude":"1.2805045","Name":"Rue Dabadakondji"},{"Latitude":"6.1730168","Longitude":"1.2863365","Name":"Rue Dagban"},{"Latitude":"6.1439563","Longitude":"1.2396593","Name":"Rue Dagbari"},{"Latitude":"6.1449888","Longitude":"1.2515955","Name":"Rue Dalinga"},{"Latitude":"6.1588594","Longitude":"1.2269690","Name":"Rue Dantcho"},{"Latitude":"6.1973382","Longitude":"1.1968654","Name":"Rue Dauphine"},{"Latitude":"6.1377437","Longitude":"1.2371751","Name":"Rue Davie"},{"Latitude":"8.5638769","Longitude":"0.9647378","Name":"Rue De Lycee"},{"Latitude":"6.1346284","Longitude":"1.2543186","Name":"Rue Dedemeli"},{"Latitude":"6.1415622","Longitude":"1.2565284","Name":"Rue Dedjiwa"},{"Latitude":"6.1375306","Longitude":"1.2472661","Name":"Rue Des Tsiviepe"},{"Latitude":"6.1374093","Longitude":"1.2208373","Name":"Rue Detigome"},{"Latitude":"6.1623367","Longitude":"1.2767209","Name":"Rue Deuxième Passage des Boeufs"},{"Latitude":"6.1898086","Longitude":"1.1991147","Name":"Rue Dikpo"},{"Latitude":"6.1393024","Longitude":"1.2319324","Name":"Rue Dilabiri"},{"Latitude":"6.1413289","Longitude":"1.2440037","Name":"Rue Djamoé"},{"Latitude":"6.3033193","Longitude":"1.4315038","Name":"Rue Djissenou"},{"Latitude":"6.1754461","Longitude":"1.2504434","Name":"Rue Djodji"},{"Latitude":"6.1408741","Longitude":"1.2387806","Name":"Rue Djoma"},{"Latitude":"6.1299967","Longitude":"1.2291223","Name":"Rue Djossi"},{"Latitude":"6.1433396","Longitude":"1.2552739","Name":"Rue Djouka"},{"Latitude":"6.1753505","Longitude":"1.2485699","Name":"Rue Doké"},{"Latitude":"6.1779035","Longitude":"1.2940984","Name":"Rue Dossek-Ekplin"},{"Latitude":"6.1581856","Longitude":"1.2179477","Name":"Rue Douyoyo"},{"Latitude":"6.1402428","Longitude":"1.2582564","Name":"Rue Dzidodo"},{"Latitude":"6.1337295","Longitude":"1.2508692","Name":"Rue Dzidzedze"},{"Latitude":"6.1723512","Longitude":"1.2889214","Name":"Rue Délali"},{"Latitude":"6.3668397","Longitude":"1.4103072","Name":"Rue Ecole Evangelique Groupe B"},{"Latitude":"6.1819267","Longitude":"1.2798436","Name":"Rue Ekin-Séklé"},{"Latitude":"6.1619609","Longitude":"1.2228888","Name":"Rue Elevagno"},{"Latitude":"6.1490152","Longitude":"1.2282941","Name":"Rue Elimde"},{"Latitude":"6.1565608","Longitude":"1.2616796","Name":"Rue Elou"},{"Latitude":"6.1820435","Longitude":"1.2864082","Name":"Rue Eméwoli"},{"Latitude":"6.1725663","Longitude":"1.2911081","Name":"Rue Etonou"},{"Latitude":"6.1458379","Longitude":"1.2269418","Name":"Rue Filandi"},{"Latitude":"6.1615252","Longitude":"1.2215002","Name":"Rue Fiomékou"},{"Latitude":"6.1295434","Longitude":"1.2396914","Name":"Rue Flamants"},{"Latitude":"6.1448310","Longitude":"1.2467082","Name":"Rue Flanmini"},{"Latitude":"6.1389467","Longitude":"1.2347257","Name":"Rue Fodjouaye"},{"Latitude":"6.1679279","Longitude":"1.2978054","Name":"Rue Folly Bébé"},{"Latitude":"6.1472378","Longitude":"1.2277624","Name":"Rue Foukote"},{"Latitude":"6.1546865","Longitude":"1.2519287","Name":"Rue Galapé 54 BKP"},{"Latitude":"6.1362732","Longitude":"1.2411929","Name":"Rue Galina"},{"Latitude":"6.1399601","Longitude":"1.2589808","Name":"Rue Garibonne"},{"Latitude":"6.1649674","Longitude":"1.2613765","Name":"Rue Garka"},{"Latitude":"6.1808792","Longitude":"1.2820131","Name":"Rue Gavon"},{"Latitude":"6.1338233","Longitude":"1.2375940","Name":"Rue GaÏtou"},{"Latitude":"6.1339195","Longitude":"1.2533392","Name":"Rue Gbaga"},{"Latitude":"6.1598765","Longitude":"1.2583739","Name":"Rue Gbame"},{"Latitude":"6.1401701","Longitude":"1.2452377","Name":"Rue Gbatitoe"},{"Latitude":"6.3689492","Longitude":"1.4140058","Name":"Rue Gbodji 1"},{"Latitude":"6.1823965","Longitude":"1.2780418","Name":"Rue Glina"},{"Latitude":"6.1800842","Longitude":"1.2841843","Name":"Rue Gloria"},{"Latitude":"6.1296927","Longitude":"1.2342047","Name":"Rue Gnagna"},{"Latitude":"6.1709233","Longitude":"1.2897898","Name":"Rue Gnanyenouvon"},{"Latitude":"6.1597386","Longitude":"1.2577914","Name":"Rue Gnata"},{"Latitude":"6.1599124","Longitude":"1.2301583","Name":"Rue Golope"},{"Latitude":"6.1912970","Longitude":"1.2577462","Name":"Rue Gomédzésugu"},{"Latitude":"6.1822031","Longitude":"1.2870316","Name":"Rue Gozan"},{"Latitude":"6.1811014","Longitude":"1.2853009","Name":"Rue Guedegueli"},{"Latitude":"6.1811014","Longitude":"1.2853009","Name":"Rue Gumézo"},{"Latitude":"6.1751447","Longitude":"1.2495820","Name":"Rue Général Ayéva"},{"Latitude":"6.1627636","Longitude":"1.2194985","Name":"Rue Hadu"},{"Latitude":"6.1619956","Longitude":"1.2205553","Name":"Rue Hadutiso"},{"Latitude":"6.1631156","Longitude":"1.2618833","Name":"Rue Hangbakoe"},{"Latitude":"6.1726403","Longitude":"1.2903504","Name":"Rue Hanou"},{"Latitude":"6.1802889","Longitude":"1.2835404","Name":"Rue Holon"},{"Latitude":"6.1752575","Longitude":"1.2812952","Name":"Rue Honglo"},{"Latitude":"6.1334323","Longitude":"1.2463421","Name":"Rue Houlata"},{"Latitude":"6.1323329","Longitude":"1.2241622","Name":"Rue Indépendance"},{"Latitude":"6.1309888","Longitude":"1.2340867","Name":"Rue Jean Vaissou"},{"Latitude":"6.1948646","Longitude":"1.1993416","Name":"Rue Jean de la Fontaine"},{"Latitude":"6.1412373","Longitude":"1.2601100","Name":"Rue Kablédafe"},{"Latitude":"6.1404394","Longitude":"1.2569683","Name":"Rue Kabou"},{"Latitude":"6.1360732","Longitude":"1.2249964","Name":"Rue Kadja"},{"Latitude":"6.1635380","Longitude":"1.2223248","Name":"Rue Kadjol"},{"Latitude":"6.1692564","Longitude":"1.2951719","Name":"Rue Kagni"},{"Latitude":"6.1694081","Longitude":"1.2982097","Name":"Rue Kakin"},{"Latitude":"6.1432486","Longitude":"1.2326304","Name":"Rue Kalebo"},{"Latitude":"6.1327876","Longitude":"1.2212232","Name":"Rue Kalinto"},{"Latitude":"6.1341693","Longitude":"1.2212866","Name":"Rue Kamé"},{"Latitude":"6.1666092","Longitude":"1.2988564","Name":"Rue Karada"},{"Latitude":"6.1587342","Longitude":"1.2227031","Name":"Rue Karè"},{"Latitude":"6.1485292","Longitude":"1.2275565","Name":"Rue Katiola"},{"Latitude":"6.1344537","Longitude":"1.2214465","Name":"Rue Khra"},{"Latitude":"6.1627123","Longitude":"1.2200966","Name":"Rue Kibaloudé"},{"Latitude":"6.1481872","Longitude":"1.2260639","Name":"Rue Kimelou"},{"Latitude":"6.1391379","Longitude":"1.2493527","Name":"Rue Kinkini"},{"Latitude":"6.1664602","Longitude":"1.2276275","Name":"Rue Kiwajdi"},{"Latitude":"6.1411928","Longitude":"1.2620906","Name":"Rue Kleme"},{"Latitude":"6.1266258","Longitude":"1.2206324","Name":"Rue Koketi"},{"Latitude":"6.1278182","Longitude":"1.2247988","Name":"Rue Kokéti"},{"Latitude":"6.1374571","Longitude":"1.2617570","Name":"Rue Kolide"},{"Latitude":"6.1715558","Longitude":"1.2812206","Name":"Rue Komédja"},{"Latitude":"6.1774543","Longitude":"1.2934631","Name":"Rue Komégan"},{"Latitude":"6.1372842","Longitude":"1.2487693","Name":"Rue Konda"},{"Latitude":"6.1758836","Longitude":"1.2809104","Name":"Rue Kondo"},{"Latitude":"6.1707733","Longitude":"1.2805045","Name":"Rue Konvipé"},{"Latitude":"6.1394341","Longitude":"1.2542975","Name":"Rue Kopégan"},{"Latitude":"6.1478505","Longitude":"1.2551645","Name":"Rue Koronga"},{"Latitude":"6.1476238","Longitude":"1.2271897","Name":"Rue Koussontou"},{"Latitude":"6.1495999","Longitude":"1.2554361","Name":"Rue Koué"},{"Latitude":"6.1604333","Longitude":"1.2180062","Name":"Rue Kpandalolo"},{"Latitude":"6.1542586","Longitude":"1.2508684","Name":"Rue Kpangalam 46 BKP"},{"Latitude":"6.1454704","Longitude":"1.2508314","Name":"Rue Kpatima"},{"Latitude":"6.1344384","Longitude":"1.2554998","Name":"Rue Kpindi"},{"Latitude":"6.1476566","Longitude":"1.2516505","Name":"Rue Kpodji"},{"Latitude":"6.1337777","Longitude":"1.2259398","Name":"Rue Kponvémé"},{"Latitude":"6.3032503","Longitude":"1.4300024","Name":"Rue Kpotossou"},{"Latitude":"6.1470151","Longitude":"1.2496412","Name":"Rue Kpégoro"},{"Latitude":"6.1420813","Longitude":"1.2618427","Name":"Rue Kpémé"},{"Latitude":"6.1874707","Longitude":"1.2613530","Name":"Rue Kpété Béna"},{"Latitude":"6.1779342","Longitude":"1.2670365","Name":"Rue Késsinonou"},{"Latitude":"6.1455926","Longitude":"1.2259954","Name":"Rue Lama-Tessi"},{"Latitude":"6.1265120","Longitude":"1.2259789","Name":"Rue Legbédah"},{"Latitude":"6.1375299","Longitude":"1.2436746","Name":"Rue Litime"},{"Latitude":"6.1924272","Longitude":"1.1925691","Name":"Rue Livingstone"},{"Latitude":"6.1950608","Longitude":"1.1921862","Name":"Rue Logo"},{"Latitude":"6.1291991","Longitude":"1.2276927","Name":"Rue Logopé"},{"Latitude":"6.1723210","Longitude":"1.2841174","Name":"Rue Lossou"},{"Latitude":"6.1640097","Longitude":"1.2825626","Name":"Rue Lypo"},{"Latitude":"6.1311262","Longitude":"1.2353744","Name":"Rue Léopold d'Almeida"},{"Latitude":"6.1375846","Longitude":"1.2306733","Name":"Rue M'Peyo"},{"Latitude":"6.1707597","Longitude":"1.2954386","Name":"Rue Mabelle"},{"Latitude":"6.1724116","Longitude":"1.2851132","Name":"Rue Magloire"},{"Latitude":"6.1378391","Longitude":"1.2310541","Name":"Rue Mam'Po"},{"Latitude":"6.1739750","Longitude":"1.2932402","Name":"Rue Mamadou"},{"Latitude":"6.1603801","Longitude":"1.2173041","Name":"Rue Mamissi"},{"Latitude":"6.1735974","Longitude":"1.2504315","Name":"Rue Maté"},{"Latitude":"6.1724639","Longitude":"1.2518650","Name":"Rue Maté - 31 TKA"},{"Latitude":"6.1769758","Longitude":"1.2662436","Name":"Rue Mawufémon"},{"Latitude":"6.1601118","Longitude":"1.2224637","Name":"Rue Mayondi"},{"Latitude":"6.1799216","Longitude":"1.2789182","Name":"Rue Michisso"},{"Latitude":"6.1723698","Longitude":"1.2846493","Name":"Rue Mihinso"},{"Latitude":"6.1861007","Longitude":"1.2725605","Name":"Rue Minonou"},{"Latitude":"6.1320189","Longitude":"1.2240965","Name":"Rue Mission Tové"},{"Latitude":"6.1628544","Longitude":"1.2229273","Name":"Rue Mogou"},{"Latitude":"6.1393088","Longitude":"1.2348754","Name":"Rue Monata"},{"Latitude":"6.1749116","Longitude":"1.2915565","Name":"Rue Mérou"},{"Latitude":"6.1285542","Longitude":"1.2364244","Name":"Rue N'Digbé"},{"Latitude":"6.1619849","Longitude":"1.2234950","Name":"Rue N'Koyiyi"},{"Latitude":"6.1815935","Longitude":"1.2792351","Name":"Rue N'Tsaméva"},{"Latitude":"6.1578842","Longitude":"1.2584256","Name":"Rue NALOBA 128 .BKP"},{"Latitude":"6.1579931","Longitude":"1.2200946","Name":"Rue Nabangou"},{"Latitude":"6.2283207","Longitude":"1.5856067","Name":"Rue Nana Ohinko Quamdessou XIV"},{"Latitude":"6.1581587","Longitude":"1.2614289","Name":"Rue Nandiki"},{"Latitude":"6.1262991","Longitude":"1.2186811","Name":"Rue Nangbeto"},{"Latitude":"6.1480245","Longitude":"1.2265641","Name":"Rue Narbale"},{"Latitude":"6.3679752","Longitude":"1.4156984","Name":"Rue Nekome"},{"Latitude":"6.1677981","Longitude":"1.2891830","Name":"Rue Nelson Mandela"},{"Latitude":"7.5228700","Longitude":"1.1285440","Name":"Rue Nicolas Grunitzki"},{"Latitude":"6.1319842","Longitude":"1.2331089","Name":"Rue Nima"},{"Latitude":"6.1762452","Longitude":"1.2661904","Name":"Rue Nounana"},{"Latitude":"6.1373233","Longitude":"1.2525467","Name":"Rue Noviwa"},{"Latitude":"6.1391147","Longitude":"1.2333689","Name":"Rue Noépé"},{"Latitude":"6.1329274","Longitude":"1.2231552","Name":"Rue Nyative"},{"Latitude":"6.1580312","Longitude":"1.2106165","Name":"Rue Omikossi"},{"Latitude":"6.1939523","Longitude":"1.1904449","Name":"Rue Osiris"},{"Latitude":"6.1426624","Longitude":"1.2251675","Name":"Rue Oukata-Waya"},{"Latitude":"6.1349633","Longitude":"1.2375211","Name":"Rue Ountou"},{"Latitude":"6.1400560","Longitude":"1.2352040","Name":"Rue Pagala"},{"Latitude":"6.1401957","Longitude":"1.2610802","Name":"Rue Palale"},{"Latitude":"6.1591949","Longitude":"1.2186811","Name":"Rue Panalo"},{"Latitude":"6.1446702","Longitude":"1.2376683","Name":"Rue Pao"},{"Latitude":"6.1632123","Longitude":"1.2593260","Name":"Rue Papouni"},{"Latitude":"6.1666295","Longitude":"1.2283088","Name":"Rue Pidal"},{"Latitude":"7.5300286","Longitude":"1.1218026","Name":"Rue Pietonne"},{"Latitude":"6.1424089","Longitude":"1.2603398","Name":"Rue Pikabole"},{"Latitude":"6.1433653","Longitude":"1.2534596","Name":"Rue Pittah"},{"Latitude":"6.1544762","Longitude":"1.2514010","Name":"Rue Poude 50 BKP"},{"Latitude":"6.1594482","Longitude":"1.2661087","Name":"Rue Premier Passage des Boeufs"},{"Latitude":"6.1964363","Longitude":"1.1997872","Name":"Rue Pythagore"},{"Latitude":"6.1408361","Longitude":"1.2591640","Name":"Rue Recouyers"},{"Latitude":"6.1633114","Longitude":"1.2827327","Name":"Rue Riotinobel"},{"Latitude":"6.1447439","Longitude":"1.2355231","Name":"Rue Révérence"},{"Latitude":"6.1279679","Longitude":"1.2196333","Name":"Rue SRGT-Chef Aniko Palako"},{"Latitude":"6.1463396","Longitude":"1.2279152","Name":"Rue Sagada"},{"Latitude":"6.1386192","Longitude":"1.2310753","Name":"Rue Sahoude"},{"Latitude":"6.1855627","Longitude":"1.2721207","Name":"Rue Sainte-Colette"},{"Latitude":"6.1446246","Longitude":"1.2536274","Name":"Rue Salimde"},{"Latitude":"6.1415153","Longitude":"1.2368238","Name":"Rue Samaï"},{"Latitude":"6.1568144","Longitude":"1.2304003","Name":"Rue Santigou"},{"Latitude":"6.1447578","Longitude":"1.2541392","Name":"Rue Seames"},{"Latitude":"6.1288929","Longitude":"1.2244873","Name":"Rue Sergent-Chef Aniko Palako"},{"Latitude":"6.1703204","Longitude":"1.2962939","Name":"Rue Sessou"},{"Latitude":"6.1328515","Longitude":"1.2325979","Name":"Rue Seta"},{"Latitude":"6.1730271","Longitude":"1.2833438","Name":"Rue Sina"},{"Latitude":"6.1483081","Longitude":"1.2514819","Name":"Rue Siouda"},{"Latitude":"6.1629011","Longitude":"1.2222497","Name":"Rue Sitsopé"},{"Latitude":"6.1801859","Longitude":"1.2778641","Name":"Rue Sizozo"},{"Latitude":"6.1348019","Longitude":"1.2257115","Name":"Rue Slt Gnémégnah"},{"Latitude":"6.1934794","Longitude":"1.1967678","Name":"Rue Socrate"},{"Latitude":"6.1805002","Longitude":"1.2936383","Name":"Rue Sogbadi"},{"Latitude":"6.1757992","Longitude":"1.2483942","Name":"Rue Soleil"},{"Latitude":"6.1748750","Longitude":"1.2487560","Name":"Rue Solim"},{"Latitude":"6.1731155","Longitude":"1.2928355","Name":"Rue Somado"},{"Latitude":"6.1377437","Longitude":"1.2371751","Name":"Rue Soreda"},{"Latitude":"6.1775154","Longitude":"1.2525840","Name":"Rue Sossivi"},{"Latitude":"6.1351378","Longitude":"1.2393160","Name":"Rue Souloum"},{"Latitude":"6.1553578","Longitude":"1.2510159","Name":"Rue Souroukou"},{"Latitude":"6.1767113","Longitude":"1.2505259","Name":"Rue Sowodji"},{"Latitude":"6.1369653","Longitude":"1.2312796","Name":"Rue Sédomé"},{"Latitude":"6.1917554","Longitude":"1.2010637","Name":"Rue Séklé"},{"Latitude":"6.1540834","Longitude":"1.2504365","Name":"Rue Sépopo 44 BKP"},{"Latitude":"6.1377436","Longitude":"1.2531021","Name":"Rue Sévatonou"},{"Latitude":"6.1396654","Longitude":"1.2350278","Name":"Rue Tabindé"},{"Latitude":"6.1472378","Longitude":"1.2277624","Name":"Rue Tanfarou"},{"Latitude":"6.1308421","Longitude":"1.2289761","Name":"Rue Tanou"},{"Latitude":"6.1397667","Longitude":"1.2260377","Name":"Rue Tapounte"},{"Latitude":"6.1361974","Longitude":"1.2380421","Name":"Rue Tassili"},{"Latitude":"6.1331178","Longitude":"1.2510722","Name":"Rue Tavie"},{"Latitude":"6.1428209","Longitude":"1.2616320","Name":"Rue Tchaoudjo"},{"Latitude":"6.1420476","Longitude":"1.2345942","Name":"Rue Tchola"},{"Latitude":"6.1398432","Longitude":"1.2553614","Name":"Rue Tchoou"},{"Latitude":"6.9107571","Longitude":"0.6318684","Name":"Rue Texaco-Bakula"},{"Latitude":"6.1429577","Longitude":"1.2316371","Name":"Rue Tilapia"},{"Latitude":"6.1366199","Longitude":"1.2416234","Name":"Rue Tinkire"},{"Latitude":"6.1328202","Longitude":"1.2521519","Name":"Rue Togome"},{"Latitude":"6.1370766","Longitude":"1.2476201","Name":"Rue Tohoun"},{"Latitude":"6.1286837","Longitude":"1.2352825","Name":"Rue Tokmaké"},{"Latitude":"6.1402408","Longitude":"1.2564332","Name":"Rue Tokpli"},{"Latitude":"6.1392665","Longitude":"1.2459111","Name":"Rue Tolda"},{"Latitude":"6.1701689","Longitude":"1.2332852","Name":"Rue Totsoagni"},{"Latitude":"6.1308888","Longitude":"1.2284034","Name":"Rue Toutou"},{"Latitude":"6.1460211","Longitude":"1.2544987","Name":"Rue Tsametotsi"},{"Latitude":"8.5619442","Longitude":"0.9891256","Name":"Rue USP"},{"Latitude":"6.1419546","Longitude":"1.2390078","Name":"Rue Viale"},{"Latitude":"6.1799241","Longitude":"1.2941202","Name":"Rue Waklati"},{"Latitude":"6.1430982","Longitude":"1.2391693","Name":"Rue Wartéma"},{"Latitude":"6.1382446","Longitude":"1.2344210","Name":"Rue Watchalo"},{"Latitude":"6.1413765","Longitude":"1.2109865","Name":"Rue Wode"},{"Latitude":"6.1791416","Longitude":"1.2932340","Name":"Rue Wutonou"},{"Latitude":"6.1417569","Longitude":"1.2490913","Name":"Rue Wyande"},{"Latitude":"6.1388399","Longitude":"1.2613728","Name":"Rue Yanda"},{"Latitude":"6.1323769","Longitude":"1.2206961","Name":"Rue Yatonou"},{"Latitude":"6.1475446","Longitude":"1.2255038","Name":"Rue Yayebou"},{"Latitude":"6.1518586","Longitude":"1.2336384","Name":"Rue Yebu-Yebu"},{"Latitude":"6.1376506","Longitude":"1.2327516","Name":"Rue Yolové"},{"Latitude":"6.1472388","Longitude":"1.2490817","Name":"Rue Zassa"},{"Latitude":"6.1735482","Longitude":"1.2927146","Name":"Rue Zebegan"},{"Latitude":"6.1744048","Longitude":"1.2926110","Name":"Rue Zimba"},{"Latitude":"6.1599324","Longitude":"1.2780707","Name":"Rue Zogli"},{"Latitude":"6.1807147","Longitude":"1.2796899","Name":"Rue Zognran"},{"Latitude":"6.4424882","Longitude":"0.9227534","Name":"Rue Zoland Daniel"},{"Latitude":"6.1356596","Longitude":"1.2218120","Name":"Rue Zooti"},{"Latitude":"6.1390491","Longitude":"1.2619789","Name":"Rue Zévé"},{"Latitude":"6.1325175","Longitude":"1.2306629","Name":"Rue d'Aneho"},{"Latitude":"6.1318659","Longitude":"1.2403865","Name":"Rue d'Assoli"},{"Latitude":"6.9185724","Longitude":"0.6174756","Name":"Rue de 20 m"},{"Latitude":"6.1395701","Longitude":"1.2490176","Name":"Rue de Dankpen"},{"Latitude":"6.1698237","Longitude":"1.2473599","Name":"Rue de Fazao"},{"Latitude":"6.1283038","Longitude":"1.2266903","Name":"Rue de France"},{"Latitude":"6.1683801","Longitude":"1.2896304","Name":"Rue de Jérusalem"},{"Latitude":"6.1259381","Longitude":"1.2221842","Name":"Rue de Kouroumé"},{"Latitude":"6.1320956","Longitude":"1.2220439","Name":"Rue de L'Avenir"},{"Latitude":"6.1400808","Longitude":"1.2271596","Name":"Rue de Paris"},{"Latitude":"6.1656716","Longitude":"1.2413517","Name":"Rue de Tchamba"},{"Latitude":"6.1389394","Longitude":"1.2445571","Name":"Rue de Tone"},{"Latitude":"6.1386192","Longitude":"1.2310753","Name":"Rue de Tropique"},{"Latitude":"6.1424556","Longitude":"1.2372161","Name":"Rue de l'Authenticité"},{"Latitude":"6.1352108","Longitude":"1.2534387","Name":"Rue de l'Entente"},{"Latitude":"6.1347744","Longitude":"1.2212601","Name":"Rue de l'Espérance"},{"Latitude":"6.1289973","Longitude":"1.2254727","Name":"Rue de l'Église"},{"Latitude":"6.1426396","Longitude":"1.2484248","Name":"Rue de la Chapelle"},{"Latitude":"6.1823942","Longitude":"1.2553590","Name":"Rue de la Foire"},{"Latitude":"6.3675396","Longitude":"1.4157454","Name":"Rue de la Fontaine Nekome"},{"Latitude":"6.1414822","Longitude":"1.2505745","Name":"Rue de la Forêt Sacrée"},{"Latitude":"6.1251721","Longitude":"1.2240983","Name":"Rue de la Gare"},{"Latitude":"6.4343532","Longitude":"1.2162290","Name":"Rue de la Gâtine"},{"Latitude":"6.1758159","Longitude":"1.2940200","Name":"Rue de la Jonction 1"},{"Latitude":"6.1785776","Longitude":"1.2941867","Name":"Rue de la Jonction 2"},{"Latitude":"6.1583149","Longitude":"1.2722506","Name":"Rue de la Lagune"},{"Latitude":"6.1960555","Longitude":"1.1897236","Name":"Rue de la Liberté"},{"Latitude":"8.9841261","Longitude":"1.1387993","Name":"Rue de la Mairie"},{"Latitude":"6.1717438","Longitude":"1.2857948","Name":"Rue de la Méfiance"},{"Latitude":"6.1717010","Longitude":"1.2920777","Name":"Rue de la Rivière"},{"Latitude":"6.1374571","Longitude":"1.2617570","Name":"Rue de la Roche"},{"Latitude":"6.1410248","Longitude":"1.2436102","Name":"Rue de la Tradition"},{"Latitude":"6.1277385","Longitude":"1.2356239","Name":"Rue des Abeilles"},{"Latitude":"6.1474071","Longitude":"1.2287488","Name":"Rue des Alouettes"},{"Latitude":"6.1941445","Longitude":"1.1975582","Name":"Rue des Anges"},{"Latitude":"6.1729196","Longitude":"1.2826139","Name":"Rue des Aves"},{"Latitude":"6.1607643","Longitude":"1.2210076","Name":"Rue des Balises"},{"Latitude":"6.1868221","Longitude":"1.2711029","Name":"Rue des Boeufs"},{"Latitude":"6.1629559","Longitude":"1.2611634","Name":"Rue des Bourrades"},{"Latitude":"6.1405929","Longitude":"1.2369441","Name":"Rue des Briquetiers"},{"Latitude":"6.2001617","Longitude":"1.2584450","Name":"Rue des Cabris"},{"Latitude":"6.1369186","Longitude":"1.2510956","Name":"Rue des Canaris"},{"Latitude":"6.1856128","Longitude":"1.2398136","Name":"Rue des Cerfeuils"},{"Latitude":"6.1351474","Longitude":"1.2175221","Name":"Rue des Cheminot"},{"Latitude":"6.1358747","Longitude":"1.2359028","Name":"Rue des Cordias"},{"Latitude":"6.1474802","Longitude":"1.2496368","Name":"Rue des Coucous"},{"Latitude":"6.1846645","Longitude":"1.2724038","Name":"Rue des Frères"},{"Latitude":"6.1477688","Longitude":"1.2502883","Name":"Rue des Frênes"},{"Latitude":"6.1765850","Longitude":"1.2504264","Name":"Rue des Fées"},{"Latitude":"6.1515208","Longitude":"1.2226824","Name":"Rue des Girafes"},{"Latitude":"6.1440378","Longitude":"1.2578214","Name":"Rue des Girolles"},{"Latitude":"6.1363407","Longitude":"1.2203399","Name":"Rue des Harmonicas"},{"Latitude":"6.1663195","Longitude":"1.2376926","Name":"Rue des Joncs"},{"Latitude":"6.1438436","Longitude":"1.2550632","Name":"Rue des Lactaires"},{"Latitude":"6.1474238","Longitude":"1.2576576","Name":"Rue des Lauriers"},{"Latitude":"6.1492012","Longitude":"1.2578843","Name":"Rue des Lavandes"},{"Latitude":"6.1635622","Longitude":"1.2216445","Name":"Rue des Lianes"},{"Latitude":"6.1318321","Longitude":"1.2383994","Name":"Rue des Limottes"},{"Latitude":"6.1425399","Longitude":"1.2446886","Name":"Rue des Lins"},{"Latitude":"6.1516517","Longitude":"1.2663841","Name":"Rue des Loriquets"},{"Latitude":"6.1467893","Longitude":"1.2589888","Name":"Rue des Luzernes"},{"Latitude":"6.1384540","Longitude":"1.2205251","Name":"Rue des Maguiers"},{"Latitude":"6.1324171","Longitude":"1.2435902","Name":"Rue des Mauves"},{"Latitude":"6.1478505","Longitude":"1.2551645","Name":"Rue des Menures"},{"Latitude":"6.1414473","Longitude":"1.2515401","Name":"Rue des Milonins"},{"Latitude":"6.1348051","Longitude":"1.2464742","Name":"Rue des Mimosas"},{"Latitude":"6.1358852","Longitude":"1.2402132","Name":"Rue des Mélisses"},{"Latitude":"6.1949223","Longitude":"1.1916256","Name":"Rue des Noix de Palmes"},{"Latitude":"6.1518812","Longitude":"1.2613952","Name":"Rue des Nouettes"},{"Latitude":"6.1423975","Longitude":"1.2362039","Name":"Rue des Nérés"},{"Latitude":"6.1301797","Longitude":"1.2358696","Name":"Rue des Palouni"},{"Latitude":"6.1379326","Longitude":"1.2281882","Name":"Rue des Panicauts"},{"Latitude":"6.1631909","Longitude":"1.2180213","Name":"Rue des Papyrus"},{"Latitude":"6.1428078","Longitude":"1.2507939","Name":"Rue des Passiflores"},{"Latitude":"6.1438444","Longitude":"1.2500755","Name":"Rue des Pastels"},{"Latitude":"6.1475398","Longitude":"1.2540635","Name":"Rue des Pensées"},{"Latitude":"6.1380450","Longitude":"1.2452390","Name":"Rue des Perles"},{"Latitude":"6.1375306","Longitude":"1.2472661","Name":"Rue des Pivoines"},{"Latitude":"6.1317262","Longitude":"1.2216295","Name":"Rue des Plantains"},{"Latitude":"6.1580923","Longitude":"1.2235219","Name":"Rue des Pumas"},{"Latitude":"6.1579931","Longitude":"1.2200946","Name":"Rue des Pêches"},{"Latitude":"6.1398067","Longitude":"1.2438899","Name":"Rue des Rameaux"},{"Latitude":"6.1448390","Longitude":"1.2564510","Name":"Rue des Sauges"},{"Latitude":"6.1430178","Longitude":"1.2542150","Name":"Rue des Scilles"},{"Latitude":"6.1659391","Longitude":"1.2990111","Name":"Rue des Souvenirs"},{"Latitude":"6.1884007","Longitude":"1.2371595","Name":"Rue des Spirées"},{"Latitude":"6.1469511","Longitude":"1.2518634","Name":"Rue des Spondias"},{"Latitude":"6.1337295","Longitude":"1.2508692","Name":"Rue des Statices"},{"Latitude":"6.1454715","Longitude":"1.2544746","Name":"Rue des Tamariniers"},{"Latitude":"6.1351451","Longitude":"1.2478642","Name":"Rue des Tarins"},{"Latitude":"6.1477411","Longitude":"1.2528196","Name":"Rue des Tournesols"},{"Latitude":"6.1436443","Longitude":"1.2488144","Name":"Rue des Valerianes"},{"Latitude":"6.1393454","Longitude":"1.2573867","Name":"Rue des Verdiers"},{"Latitude":"6.1376019","Longitude":"1.2455883","Name":"Rue des Verveines"},{"Latitude":"6.1870023","Longitude":"1.2379456","Name":"Rue des Yéblés"},{"Latitude":"6.9154685","Longitude":"0.6327573","Name":"Rue du 13 Janvier"},{"Latitude":"6.9135788","Longitude":"0.6305577","Name":"Rue du 24 Janvier"},{"Latitude":"6.1648313","Longitude":"1.2895120","Name":"Rue du Centre Communautaire"},{"Latitude":"6.3701910","Longitude":"1.4126032","Name":"Rue du Chef Code Ouest"},{"Latitude":"6.3709891","Longitude":"1.4131552","Name":"Rue du Chef Coté Est"},{"Latitude":"6.1303054","Longitude":"1.2250728","Name":"Rue du Chemin de Fer"},{"Latitude":"6.1250858","Longitude":"1.2278182","Name":"Rue du Commerce"},{"Latitude":"6.1574039","Longitude":"1.2674639","Name":"Rue du Couvant"},{"Latitude":"6.1683753","Longitude":"1.2876624","Name":"Rue du Développement"},{"Latitude":"6.1243604","Longitude":"1.2215806","Name":"Rue du Grand Marché"},{"Latitude":"6.1272281","Longitude":"1.2329209","Name":"Rue du Lac Togo"},{"Latitude":"6.1380433","Longitude":"1.2570112","Name":"Rue du Litimé"},{"Latitude":"7.5251621","Longitude":"1.1353642","Name":"Rue du Lomé"},{"Latitude":"6.3684894","Longitude":"1.4143140","Name":"Rue du Marché Nekomé"},{"Latitude":"6.9031509","Longitude":"0.6340844","Name":"Rue du Monument aux morts"},{"Latitude":"6.1734986","Longitude":"1.2872447","Name":"Rue du Palais"},{"Latitude":"6.1907875","Longitude":"1.2613445","Name":"Rue du Pave Mosaïque"},{"Latitude":"6.9399183","Longitude":"0.6383489","Name":"Rue du Père Stanislas Caban L."},{"Latitude":"6.1608928","Longitude":"1.2843879","Name":"Rue du Quatrième Lac"},{"Latitude":"6.1475613","Longitude":"1.2632495","Name":"Rue du Rotary-Club"},{"Latitude":"6.1328336","Longitude":"1.2257407","Name":"Rue du Soldat Nandji"},{"Latitude":"6.1552341","Longitude":"1.2488446","Name":"Rue du Sépulcre"},{"Latitude":"6.1434176","Longitude":"1.2614778","Name":"Rue du Yoto"},{"Latitude":"6.1721154","Longitude":"1.2995476","Name":"Rue le Marchand"},{"Latitude":"6.1722446","Longitude":"1.2817878","Name":"Rue le Noir"},{"Latitude":"6.1684154","Longitude":"1.2946125","Name":"Rue le Parisien"},{"Latitude":"6.1723570","Longitude":"1.2857523","Name":"Rue le Réconciliateur"},{"Latitude":"6.1712977","Longitude":"1.2389646","Name":"Rue le Voyage"},{"Latitude":"6.1955154","Longitude":"1.2588945","Name":"Ruz Zomelo"},{"Latitude":"9.3849560","Longitude":"0.6846094","Name":"Semenya Access 2"},{"Latitude":"9.3841125","Longitude":"0.6843036","Name":"Semenya Access Road 3"},{"Latitude":"9.3840692","Longitude":"0.6839757","Name":"Semenya Main"},{"Latitude":"9.3848055","Longitude":"0.6857208","Name":"Semenya Road"},{"Latitude":"9.3838737","Longitude":"0.6842030","Name":"Semenya access road"},{"Latitude":"6.1919982","Longitude":"1.1947275","Name":"Sogbo"},{"Latitude":"9.0303017","Longitude":"1.0987379","Name":"Sokodé - Bassar"},{"Latitude":"9.0416232","Longitude":"1.2732122","Name":"Sokodé - Bowounda"},{"Latitude":"8.9557873","Longitude":"1.1655191","Name":"Sokodé - Tchamba"},{"Latitude":"6.1885357","Longitude":"1.1970229","Name":"Tanviné"},{"Latitude":"9.0091405","Longitude":"1.4588588","Name":"Tchamba - Prékété"},{"Latitude":"6.1917970","Longitude":"1.1985385","Name":"Tekou"},{"Latitude":"10.8953674","Longitude":"-0.0445516","Name":"Tempane SHS Road"},{"Latitude":"7.0065263","Longitude":"0.6701348","Name":"VIVON"},{"Latitude":"6.1891563","Longitude":"1.1930192","Name":"Vodi"},{"Latitude":"7.5166604","Longitude":"1.1479465","Name":"Voie ferrée Agbonou-Atakpamé"},{"Latitude":"6.1772979","Longitude":"1.3679707","Name":"Voie ferrée Lomé-Aného"},{"Latitude":"6.2458757","Longitude":"1.1829977","Name":"Voix Express de la CEDEAO"},{"Latitude":"9.3543651","Longitude":"0.5269494","Name":"Waliba Street"},{"Latitude":"6.1899080","Longitude":"1.1954395","Name":"Woglo"},{"Latitude":"6.1664513","Longitude":"1.2248285","Name":"Zowla"},{"Latitude":"6.1371695","Longitude":"1.2459242","Name":"koutime"},{"Latitude":"10.8074666","Longitude":"-0.0845647","Name":"kpikpira Road"},{"Latitude":"6.3683425","Longitude":"1.2507704","Name":"route d'Agbanakopé"},{"Latitude":"6.2243962","Longitude":"1.2183227","Name":"ss"}]