[{"Latitude":"-9.4331823","Longitude":"159.9597695","Name":"Cluck Street"},{"Latitude":"-9.4337620","Longitude":"159.9871340","Name":"Fishery Heights"},{"Latitude":"-9.4307275","Longitude":"160.0677610","Name":"Gator Road"},{"Latitude":"-9.4384999","Longitude":"159.9472725","Name":"Geology Road"},{"Latitude":"-9.4317476","Longitude":"159.9515165","Name":"Hibiscus Avenue"},{"Latitude":"-8.1175979","Longitude":"157.1340712","Name":"KFPL Main Road"},{"Latitude":"-8.1230082","Longitude":"157.1128174","Name":"KFPL Ringgi log-point road"},{"Latitude":"-9.4255515","Longitude":"160.0168979","Name":"Kukum Highway"},{"Latitude":"-9.4340068","Longitude":"159.9604032","Name":"Lekamboli Lane"},{"Latitude":"-9.4281134","Longitude":"160.0291694","Name":"Lunga Bridge"},{"Latitude":"-9.4381287","Longitude":"159.9479308","Name":"Manusuta Road"},{"Latitude":"-9.4368343","Longitude":"159.9594704","Name":"Mbokonovera Road"},{"Latitude":"-9.4304083","Longitude":"159.9507827","Name":"Mendana Avenue"},{"Latitude":"-9.5900705","Longitude":"161.4640309","Name":"Rorongo Road"},{"Latitude":"-9.4383542","Longitude":"159.9600908","Name":"Skyline Road"},{"Latitude":"-9.4415179","Longitude":"159.9888864","Name":"Vura Road"},{"Latitude":"-9.4440439","Longitude":"159.9689213","Name":"West Kola Ridge"},{"Latitude":"-9.4322677","Longitude":"159.9878632","Name":"Woodford Drive"}]