[{"Latitude":"26.5217636","Longitude":"-76.9684160","Name":"A&E Liquors"},{"Latitude":"24.9986112","Longitude":"-77.4417241","Name":"Aarons Close"},{"Latitude":"26.5160081","Longitude":"-78.7366386","Name":"Abaco Drive"},{"Latitude":"26.5694787","Longitude":"-78.6135109","Name":"Abbey Avenue"},{"Latitude":"26.4972666","Longitude":"-78.7213786","Name":"Abbey Court"},{"Latitude":"26.5656321","Longitude":"-78.6154876","Name":"Abbey Drive"},{"Latitude":"26.4992669","Longitude":"-78.7212857","Name":"Abbey Place"},{"Latitude":"26.5704883","Longitude":"-78.6130252","Name":"Abbey Road"},{"Latitude":"26.5698978","Longitude":"-78.6145317","Name":"Abbey Terrace"},{"Latitude":"26.5063066","Longitude":"-78.7275566","Name":"Aberdeen Drive"},{"Latitude":"26.5049189","Longitude":"-78.7278038","Name":"Aberdeen Place"},{"Latitude":"25.0625362","Longitude":"-77.3161778","Name":"Aberdeen Street"},{"Latitude":"26.5016545","Longitude":"-78.7196513","Name":"Aberdeen Way"},{"Latitude":"25.0457985","Longitude":"-77.2912109","Name":"Abner Street"},{"Latitude":"25.0661756","Longitude":"-77.3199236","Name":"Abraham Street"},{"Latitude":"25.0458793","Longitude":"-77.3342320","Name":"Abundant Life Road"},{"Latitude":"25.0301315","Longitude":"-77.3278153","Name":"Acacia Avenue"},{"Latitude":"26.5010235","Longitude":"-78.6553837","Name":"Acacia Road"},{"Latitude":"25.0370206","Longitude":"-77.3070335","Name":"Academy Street"},{"Latitude":"25.0235029","Longitude":"-77.3634550","Name":"Acadian Close"},{"Latitude":"25.0240809","Longitude":"-77.3624260","Name":"Acadian Place"},{"Latitude":"25.0197487","Longitude":"-77.2962146","Name":"Acklins Circle"},{"Latitude":"25.0582441","Longitude":"-77.4671477","Name":"Acklins Drive"},{"Latitude":"25.0571873","Longitude":"-77.3446849","Name":"Acklins Street"},{"Latitude":"26.5163579","Longitude":"-78.6693438","Name":"Acsension Drive"},{"Latitude":"25.0387201","Longitude":"-77.2589310","Name":"Adams Street"},{"Latitude":"25.0718538","Longitude":"-77.3495542","Name":"Adderley Street"},{"Latitude":"25.0244350","Longitude":"-77.3756944","Name":"Adderley Terrace"},{"Latitude":"25.0277435","Longitude":"-77.5129872","Name":"Addison Place"},{"Latitude":"25.0062063","Longitude":"-77.4963083","Name":"Adelaide Estate Road"},{"Latitude":"25.0090400","Longitude":"-77.4956181","Name":"Adelaide Road"},{"Latitude":"25.0020371","Longitude":"-77.4870094","Name":"Adelaide Village Road"},{"Latitude":"24.9710278","Longitude":"-76.1834320","Name":"Adleaide Street"},{"Latitude":"26.5265701","Longitude":"-78.6904282","Name":"Adventurers Way"},{"Latitude":"26.5209772","Longitude":"-78.7276841","Name":"Aintree Drive"},{"Latitude":"25.7071616","Longitude":"-79.2864722","Name":"Air Port Road"},{"Latitude":"25.0274229","Longitude":"-77.3435201","Name":"Airdale Drive"},{"Latitude":"25.0563868","Longitude":"-77.4833491","Name":"Airport Industrial Park Road"},{"Latitude":"23.5643485","Longitude":"-75.8681516","Name":"Airport Road"},{"Latitude":"25.0623839","Longitude":"-77.3584411","Name":"Ajax Street"},{"Latitude":"25.0477109","Longitude":"-77.3357917","Name":"Akel Close"},{"Latitude":"25.0460556","Longitude":"-77.2902017","Name":"Akner Street"},{"Latitude":"26.5210419","Longitude":"-78.6265214","Name":"Alan Circle"},{"Latitude":"26.5193846","Longitude":"-78.6413827","Name":"Albacore Drive"},{"Latitude":"25.3339177","Longitude":"-76.4124724","Name":"Albacore Road"},{"Latitude":"26.5117568","Longitude":"-78.6908233","Name":"Albacore Street"},{"Latitude":"25.0601485","Longitude":"-77.3056698","Name":"Albany Street"},{"Latitude":"26.5315071","Longitude":"-78.6546532","Name":"Albatross Circle"},{"Latitude":"25.0500564","Longitude":"-77.3766003","Name":"Albatross Road"},{"Latitude":"25.0472529","Longitude":"-77.3402075","Name":"Albermarle Road"},{"Latitude":"25.3468609","Longitude":"-76.4863742","Name":"Albert Street"},{"Latitude":"25.0731077","Longitude":"-77.3242462","Name":"Albury Lane"},{"Latitude":"25.0739294","Longitude":"-77.3595344","Name":"Albury Street"},{"Latitude":"26.5157724","Longitude":"-78.6843229","Name":"Alcester Road"},{"Latitude":"26.5248112","Longitude":"-78.6410581","Name":"Aldwych Lane"},{"Latitude":"26.5301097","Longitude":"-78.6792166","Name":"Alexander Court"},{"Latitude":"25.0669774","Longitude":"-77.3287364","Name":"Alexander Street"},{"Latitude":"25.0363173","Longitude":"-77.3250888","Name":"Alexandria Boulevard"},{"Latitude":"25.0234603","Longitude":"-77.3831510","Name":"Alexandria Road"},{"Latitude":"26.5099184","Longitude":"-78.6909659","Name":"Alexis Drive"},{"Latitude":"25.4922574","Longitude":"-76.6321644","Name":"Alice Street"},{"Latitude":"25.0322066","Longitude":"-77.2977091","Name":"Aligator Court"},{"Latitude":"25.0091329","Longitude":"-77.3998273","Name":"All Saints Way"},{"Latitude":"25.0632999","Longitude":"-77.3285919","Name":"Allamandar Lane"},{"Latitude":"25.0196648","Longitude":"-77.2932615","Name":"Allans Close"},{"Latitude":"25.0313547","Longitude":"-77.3629972","Name":"Allen Close"},{"Latitude":"25.0294790","Longitude":"-77.3643400","Name":"Allen Drive"},{"Latitude":"24.9996246","Longitude":"-77.4575824","Name":"Allen Road"},{"Latitude":"26.5301387","Longitude":"-78.6808396","Name":"Allenbroke Road"},{"Latitude":"26.5325309","Longitude":"-78.6815330","Name":"Allenby Street"},{"Latitude":"25.0674472","Longitude":"-77.3197563","Name":"Allens Terrace"},{"Latitude":"25.0355810","Longitude":"-77.3151646","Name":"Almond Grove"},{"Latitude":"26.5315972","Longitude":"-78.6758339","Name":"Almond Road"},{"Latitude":"25.0392963","Longitude":"-77.3383314","Name":"Alocasia Road"},{"Latitude":"25.0365254","Longitude":"-77.2723261","Name":"Aloe Road"},{"Latitude":"26.5779530","Longitude":"-78.5734464","Name":"Alpine Close"},{"Latitude":"26.5766097","Longitude":"-78.5735108","Name":"Alpine Lane"},{"Latitude":"25.0415616","Longitude":"-77.3346899","Name":"Altar Close"},{"Latitude":"25.0596219","Longitude":"-77.3722454","Name":"Althea Lane"},{"Latitude":"25.0638557","Longitude":"-77.3669753","Name":"Alto Street"},{"Latitude":"26.5265049","Longitude":"-78.7152436","Name":"Amarylus Close"},{"Latitude":"25.0197136","Longitude":"-77.2849425","Name":"Amazon Avenue"},{"Latitude":"25.0250365","Longitude":"-77.2782808","Name":"Amber Close East"},{"Latitude":"25.0249874","Longitude":"-77.2794384","Name":"Amber Close West"},{"Latitude":"26.5126295","Longitude":"-78.6897439","Name":"Amberfish Street"},{"Latitude":"25.0162386","Longitude":"-77.3710002","Name":"Ambergris Street"},{"Latitude":"26.5126151","Longitude":"-78.6908087","Name":"Amberjack Street"},{"Latitude":"25.0433430","Longitude":"-77.2892784","Name":"Ambrister Street"},{"Latitude":"26.5264510","Longitude":"-78.6398065","Name":"Amelia Place"},{"Latitude":"25.0448078","Longitude":"-77.3385177","Name":"Amherstia Avenue"},{"Latitude":"25.0277206","Longitude":"-77.3179344","Name":"Amity Road"},{"Latitude":"26.5513340","Longitude":"-77.0968025","Name":"Ammon Drive"},{"Latitude":"26.5334055","Longitude":"-78.6908532","Name":"Amundsen Lane"},{"Latitude":"26.6747393","Longitude":"-77.2841565","Name":"Anchorage Drive"},{"Latitude":"25.0497357","Longitude":"-77.2842481","Name":"Andrew Lane"},{"Latitude":"25.0583504","Longitude":"-77.3431553","Name":"Andros Avenue"},{"Latitude":"25.0201725","Longitude":"-77.2951350","Name":"Andros Crescent"},{"Latitude":"26.5081941","Longitude":"-78.7411475","Name":"Andros Drive"},{"Latitude":"25.0212428","Longitude":"-77.3631997","Name":"Angel Court"},{"Latitude":"25.0441505","Longitude":"-77.2853180","Name":"Angel Road"},{"Latitude":"26.5126223","Longitude":"-78.6917341","Name":"Angelfish Lane"},{"Latitude":"25.0497299","Longitude":"-77.2798748","Name":"Angerine Drive"},{"Latitude":"25.0554131","Longitude":"-77.3039327","Name":"Angley Road"},{"Latitude":"25.0227562","Longitude":"-77.2962111","Name":"Anguilla Avenue"},{"Latitude":"25.0232852","Longitude":"-77.3850580","Name":"Ann Terrace"},{"Latitude":"25.0292320","Longitude":"-77.2700817","Name":"Anns Drive"},{"Latitude":"25.0544842","Longitude":"-77.3834040","Name":"Anson Road"},{"Latitude":"25.0478557","Longitude":"-77.3455351","Name":"Anthol Road"},{"Latitude":"25.0199711","Longitude":"-77.3852774","Name":"Anthony Lane"},{"Latitude":"25.0399406","Longitude":"-77.3383343","Name":"Anthurium Avenue"},{"Latitude":"26.5027049","Longitude":"-78.6700501","Name":"Antigua Lane"},{"Latitude":"25.0281255","Longitude":"-77.2849952","Name":"Antigua Street"},{"Latitude":"25.0184381","Longitude":"-77.3447920","Name":"Antonio Drive"},{"Latitude":"25.0652653","Longitude":"-77.3180772","Name":"Apache Road"},{"Latitude":"25.0248997","Longitude":"-77.2838236","Name":"Apennine Avenue"},{"Latitude":"25.0220820","Longitude":"-77.3612935","Name":"Apogee Court"},{"Latitude":"25.0221214","Longitude":"-77.3605141","Name":"Apollo Court"},{"Latitude":"25.0328959","Longitude":"-77.2610547","Name":"Appalachian Avenue"},{"Latitude":"25.0381744","Longitude":"-77.2869430","Name":"Apple Crescent"},{"Latitude":"25.0353244","Longitude":"-77.3041774","Name":"Apple Lane"},{"Latitude":"25.0589105","Longitude":"-77.3303941","Name":"Apple Street"},{"Latitude":"25.0462511","Longitude":"-77.2716268","Name":"Appollo Close"},{"Latitude":"25.0295491","Longitude":"-77.3969651","Name":"Aqua Street"},{"Latitude":"25.0243999","Longitude":"-77.2784560","Name":"Aquamarine Close East"},{"Latitude":"25.0243595","Longitude":"-77.2794029","Name":"Aquamarine Close West"},{"Latitude":"26.5234503","Longitude":"-78.6649127","Name":"Aramander Circle"},{"Latitude":"26.5035991","Longitude":"-78.7046440","Name":"Arawack Lane"},{"Latitude":"25.0618744","Longitude":"-77.3212671","Name":"Arawak Avenue"},{"Latitude":"25.0808048","Longitude":"-77.3595066","Name":"Arawak Cay Bridge"},{"Latitude":"25.0472909","Longitude":"-77.3226380","Name":"Arawak Court"},{"Latitude":"26.5398884","Longitude":"-77.0683950","Name":"Archer's Hill"},{"Latitude":"26.5308478","Longitude":"-78.6349685","Name":"Arden Forest Road"},{"Latitude":"26.5362759","Longitude":"-78.6305858","Name":"Ariel Place"},{"Latitude":"26.5396056","Longitude":"-78.5958243","Name":"Armada Avenue"},{"Latitude":"26.5405650","Longitude":"-78.5946468","Name":"Armada Road"},{"Latitude":"25.0394128","Longitude":"-77.3500157","Name":"Armeryllis Avenue"},{"Latitude":"25.0769041","Longitude":"-77.3310360","Name":"Armstrong Street"},{"Latitude":"26.5030289","Longitude":"-78.7030912","Name":"Arrowhead Way"},{"Latitude":"25.0639901","Longitude":"-77.3332206","Name":"Arundel Street"},{"Latitude":"26.5869055","Longitude":"-78.5510878","Name":"Ash Moor Lane"},{"Latitude":"26.5870048","Longitude":"-78.5523522","Name":"Ash Moor Place"},{"Latitude":"25.0561573","Longitude":"-77.3404881","Name":"Ash Road"},{"Latitude":"25.0306097","Longitude":"-77.3405963","Name":"Ashburn Terrace"},{"Latitude":"26.5819070","Longitude":"-78.5509428","Name":"Ashbury Lane"},{"Latitude":"25.0420859","Longitude":"-77.3214651","Name":"Ashley Close"},{"Latitude":"25.0472952","Longitude":"-77.3409740","Name":"Ashley Road"},{"Latitude":"26.5835141","Longitude":"-78.5505137","Name":"Ashwater Court"},{"Latitude":"26.5846349","Longitude":"-78.5530189","Name":"Ashwater Drive"},{"Latitude":"26.5841076","Longitude":"-78.5504164","Name":"Ashwater Lane"},{"Latitude":"26.5836168","Longitude":"-78.5520270","Name":"Ashwater Road"},{"Latitude":"25.0670830","Longitude":"-77.3381761","Name":"Ashwell Lane"},{"Latitude":"25.0313569","Longitude":"-77.2973160","Name":"Ashwin Lane"},{"Latitude":"25.0570931","Longitude":"-77.4727422","Name":"Astra Close"},{"Latitude":"25.0644297","Longitude":"-77.4706393","Name":"Astrania Close"},{"Latitude":"20.9499900","Longitude":"-73.6682576","Name":"Astwood Street"},{"Latitude":"25.0651321","Longitude":"-77.4307124","Name":"Atlantic Close"},{"Latitude":"25.0195642","Longitude":"-77.3662223","Name":"Atlantic Court"},{"Latitude":"25.0671654","Longitude":"-77.4293920","Name":"Atlantic Drive"},{"Latitude":"25.0415868","Longitude":"-77.2952936","Name":"Atwar Court"},{"Latitude":"26.5858785","Longitude":"-78.5484005","Name":"Atworthy Avenue"},{"Latitude":"26.5872421","Longitude":"-78.5497006","Name":"Atworthy Lane"},{"Latitude":"26.5869726","Longitude":"-78.5490386","Name":"Atworthy Place"},{"Latitude":"26.5875771","Longitude":"-78.5476224","Name":"Atworthy Road"},{"Latitude":"25.0779222","Longitude":"-77.3492523","Name":"Augusta Street"},{"Latitude":"25.0557132","Longitude":"-77.3785739","Name":"Auster Road"},{"Latitude":"25.0289147","Longitude":"-77.2850208","Name":"Australia Avenue"},{"Latitude":"25.0245005","Longitude":"-77.3876231","Name":"Ava Lane"},{"Latitude":"26.5350054","Longitude":"-78.6716688","Name":"Avacado Close"},{"Latitude":"25.0169694","Longitude":"-77.3765673","Name":"Avacado Road"},{"Latitude":"25.0237243","Longitude":"-77.3321216","Name":"Avocado Street"},{"Latitude":"25.0347595","Longitude":"-77.2757252","Name":"Avocet Court"},{"Latitude":"26.5339908","Longitude":"-78.6304946","Name":"Avon Place"},{"Latitude":"26.5883791","Longitude":"-78.5495052","Name":"Awsland Drive"},{"Latitude":"26.5858405","Longitude":"-78.5503797","Name":"Awsland Lane"},{"Latitude":"26.5841435","Longitude":"-78.5483448","Name":"Awsland Road"},{"Latitude":"25.0558649","Longitude":"-77.3149532","Name":"Azara Court"},{"Latitude":"25.0691071","Longitude":"-77.3631095","Name":"Babbs Lane"},{"Latitude":"24.9990251","Longitude":"-77.4207037","Name":"Bacardi Road"},{"Latitude":"26.5412559","Longitude":"-76.9597970","Name":"Back Street"},{"Latitude":"25.0477395","Longitude":"-77.2981734","Name":"Badger Lane"},{"Latitude":"26.5226719","Longitude":"-78.7000225","Name":"Baffin Circle"},{"Latitude":"25.0659499","Longitude":"-77.3977614","Name":"Baha Mar Boulevard"},{"Latitude":"25.0277920","Longitude":"-77.2786662","Name":"Bahama Avenue"},{"Latitude":"25.0609832","Longitude":"-77.4642374","Name":"Bahama Lane"},{"Latitude":"26.5062652","Longitude":"-78.6621437","Name":"Bahama Reef Boulevard"},{"Latitude":"25.0297154","Longitude":"-77.2785605","Name":"Bahama Road"},{"Latitude":"25.0609832","Longitude":"-77.4642374","Name":"Bahama West Drive"},{"Latitude":"25.0147800","Longitude":"-77.3819804","Name":"Bahamas Boulevard"},{"Latitude":"26.5700662","Longitude":"-78.5769440","Name":"Bahamas Court"},{"Latitude":"26.5701866","Longitude":"-78.5743532","Name":"Bahamas Drive"},{"Latitude":"25.0456073","Longitude":"-77.3613195","Name":"Bahamas Games Boulevard"},{"Latitude":"24.9841294","Longitude":"-77.4589018","Name":"Bailey Drive"},{"Latitude":"25.0047740","Longitude":"-77.3491777","Name":"Baillou Hill Road"},{"Latitude":"25.0690568","Longitude":"-77.3523300","Name":"Bain Street"},{"Latitude":"25.0582907","Longitude":"-77.3613591","Name":"Bakers Close"},{"Latitude":"25.0604063","Longitude":"-77.3471375","Name":"Bakers Street"},{"Latitude":"26.5487422","Longitude":"-78.6506864","Name":"Balao Loop"},{"Latitude":"26.5263453","Longitude":"-78.6389967","Name":"Balao Road"},{"Latitude":"25.0552108","Longitude":"-77.3149250","Name":"Balcony Street"},{"Latitude":"25.0635256","Longitude":"-77.3619775","Name":"Baldwin Avenue"},{"Latitude":"26.5267275","Longitude":"-78.6507730","Name":"Baleen Place"},{"Latitude":"25.0520223","Longitude":"-77.3421128","Name":"Balfour Avenue"},{"Latitude":"25.0111764","Longitude":"-77.3930245","Name":"Balfour Court"},{"Latitude":"25.0097236","Longitude":"-77.3465099","Name":"Bali Avenue"},{"Latitude":"25.0716827","Longitude":"-77.3180571","Name":"Balls Alley"},{"Latitude":"25.0654931","Longitude":"-77.3215469","Name":"Baltic Avenue"},{"Latitude":"25.0207312","Longitude":"-77.3397014","Name":"Bamboo Boulevard"},{"Latitude":"26.4976054","Longitude":"-78.6964850","Name":"Bamboo Cay"},{"Latitude":"25.0307431","Longitude":"-77.3494971","Name":"Bamboo Crescent"},{"Latitude":"25.0259685","Longitude":"-77.3298310","Name":"Bamboo Street"},{"Latitude":"25.2356643","Longitude":"-76.2780421","Name":"Banana Beach Estates"},{"Latitude":"26.5318954","Longitude":"-78.6751570","Name":"Banana Corner"},{"Latitude":"25.0290446","Longitude":"-77.3427775","Name":"Bancroft Lane"},{"Latitude":"26.5020764","Longitude":"-78.7214325","Name":"Banff Court"},{"Latitude":"25.0172906","Longitude":"-77.3796368","Name":"Bangladesh Crescent"},{"Latitude":"26.5327085","Longitude":"-78.6944837","Name":"Bank Lane"},{"Latitude":"26.5386058","Longitude":"-78.6298337","Name":"Banquo Place"},{"Latitude":"25.0093323","Longitude":"-77.3471512","Name":"Banyan Avenue"},{"Latitude":"26.6798274","Longitude":"-77.2930293","Name":"Banyan Crescent"},{"Latitude":"26.5193226","Longitude":"-78.6914507","Name":"Banyan Lane"},{"Latitude":"25.0298098","Longitude":"-77.2851958","Name":"Barbados Avenue"},{"Latitude":"26.5156820","Longitude":"-78.6714796","Name":"Barbados Drive"},{"Latitude":"26.5686350","Longitude":"-78.5737036","Name":"Barbados Lane"},{"Latitude":"25.0238139","Longitude":"-77.3588831","Name":"Barbados Street"},{"Latitude":"25.0229762","Longitude":"-77.3949134","Name":"Barbara Street"},{"Latitude":"25.0271155","Longitude":"-77.3614104","Name":"Barbuda Street"},{"Latitude":"25.0215183","Longitude":"-77.3538620","Name":"Barclay Avenue"},{"Latitude":"25.0225310","Longitude":"-77.3048733","Name":"Barcroft Close"},{"Latitude":"26.5603844","Longitude":"-78.5877273","Name":"Bark Close"},{"Latitude":"26.5609541","Longitude":"-78.5881494","Name":"Bark Lane"},{"Latitude":"25.0562557","Longitude":"-77.3041389","Name":"Barlett Street"},{"Latitude":"26.5455540","Longitude":"-78.6014540","Name":"Barmby Lane"},{"Latitude":"25.0348846","Longitude":"-77.3070810","Name":"Barn Close"},{"Latitude":"26.5603947","Longitude":"-78.5815009","Name":"Barnacle Court"},{"Latitude":"26.5647982","Longitude":"-78.5795407","Name":"Barnacle Lane"},{"Latitude":"25.0519547","Longitude":"-77.3793066","Name":"Barney Lane"},{"Latitude":"24.9950958","Longitude":"-77.4580578","Name":"Barns Road"},{"Latitude":"23.4936111","Longitude":"-75.7682264","Name":"Barque Road"},{"Latitude":"25.5032512","Longitude":"-76.6365790","Name":"Barrack Street"},{"Latitude":"23.6881999","Longitude":"-76.0465775","Name":"Barraterre Road"},{"Latitude":"25.0019729","Longitude":"-77.4083942","Name":"Barren Court"},{"Latitude":"25.0339376","Longitude":"-77.3001831","Name":"Barrine Close"},{"Latitude":"26.5701813","Longitude":"-78.6009660","Name":"Bartlow Lane"},{"Latitude":"26.5719484","Longitude":"-78.6019575","Name":"Bartlow Road"},{"Latitude":"25.0205008","Longitude":"-77.2761899","Name":"Bartolomew Roberts Road"},{"Latitude":"25.0429756","Longitude":"-77.2645597","Name":"Baruch Way"},{"Latitude":"25.0548968","Longitude":"-77.4884335","Name":"Bashful Lane"},{"Latitude":"26.4933292","Longitude":"-78.6893494","Name":"Basin Lane"},{"Latitude":"26.5296368","Longitude":"-78.6885476","Name":"Bass Lane"},{"Latitude":"26.5631112","Longitude":"-78.5845422","Name":"Batkentine Drive"},{"Latitude":"25.0301105","Longitude":"-77.3144990","Name":"Bay Berry Drive"},{"Latitude":"26.5208956","Longitude":"-78.6901065","Name":"Bay Berry Lane"},{"Latitude":"24.9868591","Longitude":"-77.4669882","Name":"Bay Berry Street"},{"Latitude":"25.0395135","Longitude":"-77.3160480","Name":"Bay Cedar Avenue"},{"Latitude":"25.0389998","Longitude":"-77.3163788","Name":"Bay Cedar Close"},{"Latitude":"25.0548641","Longitude":"-77.2937704","Name":"Bay Court"},{"Latitude":"25.0410482","Longitude":"-77.5079750","Name":"Bay Creek Drive"},{"Latitude":"25.0608314","Longitude":"-77.3018964","Name":"Bay Estate Terrace"},{"Latitude":"25.0274392","Longitude":"-77.3348969","Name":"Bay Geranium Avenue"},{"Latitude":"25.0454456","Longitude":"-77.2875852","Name":"Bay Leaf Court"},{"Latitude":"24.9981794","Longitude":"-77.4511257","Name":"Bay Leaf Lane"},{"Latitude":"25.0293645","Longitude":"-77.3127685","Name":"Bay Lilly Drive"},{"Latitude":"25.0328339","Longitude":"-77.3115362","Name":"Bay Lilly Grove"},{"Latitude":"25.0739294","Longitude":"-77.3814152","Name":"Bay Shore Close"},{"Latitude":"24.9717664","Longitude":"-76.1866201","Name":"Bay Street"},{"Latitude":"25.0368892","Longitude":"-77.3396332","Name":"Bayberry Street"},{"Latitude":"26.5272519","Longitude":"-78.6196878","Name":"Bayshore Circle"},{"Latitude":"26.5277706","Longitude":"-78.6188367","Name":"Bayshore Road"},{"Latitude":"25.0189278","Longitude":"-77.5437072","Name":"Bayswater Lane"},{"Latitude":"26.4979333","Longitude":"-78.7108022","Name":"Bayview Drive"},{"Latitude":"25.0812351","Longitude":"-77.3120695","Name":"Bayview Lane"},{"Latitude":"25.1203384","Longitude":"-76.1476378","Name":"Beach Access"},{"Latitude":"25.0775826","Longitude":"-77.4312547","Name":"Beach Lane"},{"Latitude":"26.5195759","Longitude":"-78.6725742","Name":"Beachway Drive"},{"Latitude":"25.0390532","Longitude":"-77.2905834","Name":"Beacon Close"},{"Latitude":"26.5204840","Longitude":"-78.6814706","Name":"Beaconsfield Avenue"},{"Latitude":"26.6686981","Longitude":"-77.2821634","Name":"Beakhead Way"},{"Latitude":"25.0382870","Longitude":"-77.3139540","Name":"Beatrice Avenue"},{"Latitude":"25.0428686","Longitude":"-77.3515289","Name":"Beaufort Lane"},{"Latitude":"25.0566249","Longitude":"-77.3745250","Name":"Beaufort Road"},{"Latitude":"25.0404196","Longitude":"-77.3438107","Name":"Beaumontia Avenue"},{"Latitude":"25.0032980","Longitude":"-77.4187505","Name":"Bedrock Court"},{"Latitude":"26.5163297","Longitude":"-78.7112568","Name":"Beginning Drive"},{"Latitude":"25.0212204","Longitude":"-77.3737732","Name":"Beldock Street"},{"Latitude":"26.5284365","Longitude":"-78.7024693","Name":"Belgrave Crescent"},{"Latitude":"26.5287844","Longitude":"-78.7012731","Name":"Belgrave Lane"},{"Latitude":"25.0163170","Longitude":"-77.3832561","Name":"Belize Way"},{"Latitude":"25.0462952","Longitude":"-77.3681388","Name":"Bell Court"},{"Latitude":"25.0476332","Longitude":"-77.3350085","Name":"Bell Road"},{"Latitude":"26.5174337","Longitude":"-78.6323743","Name":"Bellamy Court"},{"Latitude":"26.5437959","Longitude":"-78.7021132","Name":"Bellevue Lane"},{"Latitude":"25.0531037","Longitude":"-77.3782788","Name":"Bellock Lane"},{"Latitude":"25.0273480","Longitude":"-77.3907412","Name":"Bellot Road"},{"Latitude":"25.0189587","Longitude":"-77.3724437","Name":"Belport Avenue"},{"Latitude":"25.0209603","Longitude":"-77.3744424","Name":"Belshore Street"},{"Latitude":"25.0211703","Longitude":"-77.3715885","Name":"Belsnow Close"},{"Latitude":"25.0561274","Longitude":"-77.3009093","Name":"Belview Street"},{"Latitude":"25.0170075","Longitude":"-77.3736042","Name":"Belville Circle"},{"Latitude":"26.5520445","Longitude":"-77.1014930","Name":"Ben Curry Drive"},{"Latitude":"25.0470412","Longitude":"-77.3464763","Name":"Beneby Court"},{"Latitude":"25.0642707","Longitude":"-77.3231884","Name":"Benico Road"},{"Latitude":"26.5511301","Longitude":"-78.6078215","Name":"Bennington Avenue"},{"Latitude":"25.0432782","Longitude":"-77.2832402","Name":"Benny Close"},{"Latitude":"25.0201352","Longitude":"-77.2761119","Name":"Bens Bay Circle"},{"Latitude":"25.0557736","Longitude":"-77.3173961","Name":"Benson Crescent"},{"Latitude":"25.1665441","Longitude":"-76.1758506","Name":"Benson Lane"},{"Latitude":"25.0558071","Longitude":"-77.3164518","Name":"Benson Road"},{"Latitude":"26.4974425","Longitude":"-78.6881370","Name":"Bentley Drive"},{"Latitude":"25.0302113","Longitude":"-77.3363873","Name":"Berda Road"},{"Latitude":"26.5256571","Longitude":"-78.6835245","Name":"Bering Lane"},{"Latitude":"25.0134167","Longitude":"-77.3445129","Name":"Berkley Avenue"},{"Latitude":"26.5083968","Longitude":"-78.6895937","Name":"Berkley Drive"},{"Latitude":"25.0470027","Longitude":"-77.3431528","Name":"Berkley Street"},{"Latitude":"26.5723740","Longitude":"-78.5788055","Name":"Bermuda Close"},{"Latitude":"25.0589895","Longitude":"-77.4718487","Name":"Bernard Close"},{"Latitude":"25.0389176","Longitude":"-77.3037853","Name":"Bernard Drive"},{"Latitude":"25.0453122","Longitude":"-77.2930197","Name":"Bernard Road"},{"Latitude":"25.0246307","Longitude":"-77.2909975","Name":"Berry Avenue"},{"Latitude":"26.5278217","Longitude":"-78.6754216","Name":"Bessemer Road"},{"Latitude":"25.0518475","Longitude":"-77.3759758","Name":"Bethel Avenue"},{"Latitude":"25.3297182","Longitude":"-76.3751399","Name":"Bethel Street"},{"Latitude":"26.5216466","Longitude":"-78.6507047","Name":"Bethnal Green Place"},{"Latitude":"26.5344645","Longitude":"-77.0582249","Name":"Bettee's Way"},{"Latitude":"25.0221363","Longitude":"-77.5332239","Name":"Beverly Lane"},{"Latitude":"25.0219018","Longitude":"-77.3845151","Name":"Bevus Lane"},{"Latitude":"25.0353922","Longitude":"-77.2593643","Name":"Biak Avenue"},{"Latitude":"25.0700290","Longitude":"-77.3468080","Name":"Bias Street"},{"Latitude":"25.0125514","Longitude":"-77.3993887","Name":"Bible Way"},{"Latitude":"25.0721769","Longitude":"-77.3238131","Name":"Bilney Lane"},{"Latitude":"25.0579999","Longitude":"-77.3455850","Name":"Bimini Avenue"},{"Latitude":"26.5060042","Longitude":"-78.6690483","Name":"Bimini Drive"},{"Latitude":"25.7062821","Longitude":"-79.2978216","Name":"Bimini Sands Road"},{"Latitude":"25.7607251","Longitude":"-79.2713372","Name":"Bimini Way"},{"Latitude":"25.0205838","Longitude":"-77.3833926","Name":"Bird Road"},{"Latitude":"26.5199501","Longitude":"-78.6527300","Name":"Birdcage Walk"},{"Latitude":"25.0214774","Longitude":"-77.2886493","Name":"Birdwood Lane"},{"Latitude":"25.0323386","Longitude":"-77.2956959","Name":"Biscuit Court"},{"Latitude":"25.3921314","Longitude":"-76.5574280","Name":"Biscuit Street"},{"Latitude":"25.0562597","Longitude":"-77.3785481","Name":"Bishop Eldon Drive"},{"Latitude":"25.0366447","Longitude":"-77.3237345","Name":"Bishop Street"},{"Latitude":"26.5231936","Longitude":"-78.6367431","Name":"Bishops Place"},{"Latitude":"25.0354046","Longitude":"-77.3316509","Name":"Bishops Way"},{"Latitude":"25.0305303","Longitude":"-77.3180233","Name":"Bitter Root Street"},{"Latitude":"26.4741361","Longitude":"-77.0917187","Name":"Black Knight Circle"},{"Latitude":"26.5601438","Longitude":"-78.5680552","Name":"Black Pearl Close"},{"Latitude":"25.0197319","Longitude":"-77.3778535","Name":"Black Sun Avenue"},{"Latitude":"26.5191513","Longitude":"-78.6252203","Name":"Blackbeard Place"},{"Latitude":"25.0510664","Longitude":"-77.2872460","Name":"Blackbeard Terrace"},{"Latitude":"25.0229877","Longitude":"-77.2754138","Name":"Blackbeards Avenue"},{"Latitude":"26.5140760","Longitude":"-78.7208310","Name":"Blair Circle"},{"Latitude":"25.0558505","Longitude":"-77.3103626","Name":"Blair Court"},{"Latitude":"26.5259971","Longitude":"-78.6797380","Name":"Blake Court"},{"Latitude":"25.0672159","Longitude":"-77.4537086","Name":"Blake Road"},{"Latitude":"25.0485375","Longitude":"-77.3771136","Name":"Blenheim Close"},{"Latitude":"25.0489048","Longitude":"-77.3782184","Name":"Blenheim Road"},{"Latitude":"26.5272172","Longitude":"-78.6536085","Name":"Blenny Way"},{"Latitude":"26.5423125","Longitude":"-78.5931939","Name":"Blockade Drive"},{"Latitude":"25.0394991","Longitude":"-77.2906814","Name":"Blue Berry Hill"},{"Latitude":"25.0206808","Longitude":"-77.3383818","Name":"Blue Bonnet Drive"},{"Latitude":"24.9941881","Longitude":"-77.4514086","Name":"Blue Heron Crescent"},{"Latitude":"25.0414341","Longitude":"-77.3563842","Name":"Blue Hill Drive"},{"Latitude":"26.5622310","Longitude":"-78.5720195","Name":"Blue Jay Drive"},{"Latitude":"26.5654355","Longitude":"-78.5758229","Name":"Blue Jay Lane"},{"Latitude":"25.0628604","Longitude":"-77.4298302","Name":"Blue Marlin Drive"},{"Latitude":"26.5267427","Longitude":"-78.7144555","Name":"Blue Violet Close"},{"Latitude":"25.0168887","Longitude":"-77.2967602","Name":"Blue Water Cay Drive"},{"Latitude":"26.5331115","Longitude":"-78.6527626","Name":"Bluebill Circle"},{"Latitude":"25.0429449","Longitude":"-77.3076762","Name":"Bluebird Close"},{"Latitude":"26.5086280","Longitude":"-78.6933262","Name":"Bluefish Street"},{"Latitude":"25.0660971","Longitude":"-77.3194097","Name":"Bluesky Lane"},{"Latitude":"25.1536220","Longitude":"-78.0094955","Name":"Bluff Road"},{"Latitude":"25.0033918","Longitude":"-77.4157240","Name":"Blyden Road"},{"Latitude":"25.0510434","Longitude":"-77.3800784","Name":"Blyton Way"},{"Latitude":"26.5645212","Longitude":"-78.5820575","Name":"Boathook Avenue"},{"Latitude":"24.9994092","Longitude":"-77.4418476","Name":"Boatswain Hill"},{"Latitude":"25.0456224","Longitude":"-77.3130077","Name":"Bobolink Close"},{"Latitude":"25.0417695","Longitude":"-77.3530329","Name":"Boiling Brook Road"},{"Latitude":"26.5731362","Longitude":"-78.5680606","Name":"Bombard Close"},{"Latitude":"26.5741720","Longitude":"-78.5697199","Name":"Bombard Court"},{"Latitude":"26.5748247","Longitude":"-78.5682760","Name":"Bombard Road"},{"Latitude":"25.0624223","Longitude":"-77.3189233","Name":"Bonaby Alley"},{"Latitude":"26.5183718","Longitude":"-78.7176091","Name":"Bond Street"},{"Latitude":"26.5078567","Longitude":"-78.6934641","Name":"Bone Fish Street"},{"Latitude":"25.0128813","Longitude":"-77.3597378","Name":"Bonefish Drive"},{"Latitude":"26.5086280","Longitude":"-78.6933262","Name":"Bonita Lane"},{"Latitude":"26.5148991","Longitude":"-78.6598071","Name":"Bonito Street"},{"Latitude":"25.0528242","Longitude":"-77.3073923","Name":"Bonnet Court"},{"Latitude":"25.0585135","Longitude":"-77.3001387","Name":"Bonney Way"},{"Latitude":"26.5289324","Longitude":"-78.6079441","Name":"Booty Drive"},{"Latitude":"25.0435103","Longitude":"-77.2658147","Name":"Boris Road"},{"Latitude":"26.4747664","Longitude":"-77.0951949","Name":"Boris Way"},{"Latitude":"25.0116307","Longitude":"-77.3807680","Name":"Boswaina Court"},{"Latitude":"26.5295642","Longitude":"-77.0654764","Name":"Bougainville Drive"},{"Latitude":"25.0753010","Longitude":"-77.3774898","Name":"Bougainvillea Avenue"},{"Latitude":"25.0145240","Longitude":"-77.3434932","Name":"Bougainvillea Boulevard"},{"Latitude":"25.0288940","Longitude":"-77.5204552","Name":"Bougainvillea Drive"},{"Latitude":"25.0638269","Longitude":"-77.3516741","Name":"Bowe Alley"},{"Latitude":"25.0474430","Longitude":"-77.3379436","Name":"Bowe Avenue"},{"Latitude":"25.0591620","Longitude":"-77.3184635","Name":"Bowelee Avenue"},{"Latitude":"25.0541158","Longitude":"-77.3135290","Name":"Bowes Cove Close"},{"Latitude":"26.5657394","Longitude":"-78.5842681","Name":"Bowline Avenue"},{"Latitude":"26.5646915","Longitude":"-78.5840531","Name":"Bowsprit Lane"},{"Latitude":"25.0696591","Longitude":"-77.3598894","Name":"Boyd Road"},{"Latitude":"25.0421492","Longitude":"-77.3701684","Name":"Bozine Drive"},{"Latitude":"25.0453475","Longitude":"-77.3706597","Name":"Bozine Town Road"},{"Latitude":"25.0609728","Longitude":"-77.3033788","Name":"Brace Ridge Road"},{"Latitude":"26.5744612","Longitude":"-78.6060807","Name":"Bradfield Lane"},{"Latitude":"25.0231091","Longitude":"-77.3870759","Name":"Bradley Street"},{"Latitude":"26.5114924","Longitude":"-78.7186383","Name":"Braemar Circle"},{"Latitude":"26.5118787","Longitude":"-78.7176807","Name":"Braemar Court"},{"Latitude":"26.5128077","Longitude":"-78.7166293","Name":"Braemar Drive"},{"Latitude":"26.5651402","Longitude":"-78.5598901","Name":"Brain Coral Close"},{"Latitude":"25.0422137","Longitude":"-77.3553019","Name":"Brakenbury Drive"},{"Latitude":"25.0549408","Longitude":"-77.3050926","Name":"Braynen Road"},{"Latitude":"25.0220603","Longitude":"-77.3270742","Name":"Brazilita Street"},{"Latitude":"26.5318810","Longitude":"-78.6745280","Name":"Breadfruit Road"},{"Latitude":"25.0239399","Longitude":"-77.3368136","Name":"Breadfruit Street"},{"Latitude":"26.5717601","Longitude":"-78.5645789","Name":"Breech Drive"},{"Latitude":"25.0662627","Longitude":"-77.3075349","Name":"Breezy Hill Road"},{"Latitude":"25.0554842","Longitude":"-77.4888380","Name":"Breezy Lane"},{"Latitude":"25.0150924","Longitude":"-77.3638951","Name":"Brian's Way"},{"Latitude":"25.0403752","Longitude":"-77.2916517","Name":"Brice Lane"},{"Latitude":"25.0100885","Longitude":"-77.4033480","Name":"Bricknoch Subdivision"},{"Latitude":"25.0222965","Longitude":"-77.3696911","Name":"Bridge Close"},{"Latitude":"26.5626194","Longitude":"-78.5894324","Name":"Brig Court"},{"Latitude":"26.5484763","Longitude":"-78.6029159","Name":"Brig Lane"},{"Latitude":"26.6751718","Longitude":"-77.2744735","Name":"Brigantine Bay Drive"},{"Latitude":"26.6757566","Longitude":"-77.2788160","Name":"Brigantine Beach Road"},{"Latitude":"26.5060980","Longitude":"-78.6750523","Name":"Brigantine Boulevard"},{"Latitude":"26.5665606","Longitude":"-78.5849088","Name":"Brigantine Road"},{"Latitude":"26.5184035","Longitude":"-78.7276914","Name":"Brighton Drive"},{"Latitude":"26.5785102","Longitude":"-78.5571603","Name":"Brighton Lane"},{"Latitude":"25.0193483","Longitude":"-77.5405561","Name":"Brighton Place"},{"Latitude":"24.9826483","Longitude":"-77.4592401","Name":"Brighton Road"},{"Latitude":"26.6741340","Longitude":"-77.2722151","Name":"Brigsail Crescent"},{"Latitude":"25.0589314","Longitude":"-77.3657844","Name":"Brillo Lane"},{"Latitude":"26.5583398","Longitude":"-78.6105493","Name":"Brinkhill Road"},{"Latitude":"25.0320752","Longitude":"-77.2793633","Name":"Bristol Road"},{"Latitude":"25.0561635","Longitude":"-77.3099491","Name":"Bristol Street"},{"Latitude":"26.5156999","Longitude":"-78.6807987","Name":"Britannia Drive"},{"Latitude":"25.0419965","Longitude":"-77.2840199","Name":"Broad Shade Close"},{"Latitude":"25.0413096","Longitude":"-77.2709130","Name":"Broadfields Road"},{"Latitude":"26.5368292","Longitude":"-77.0834527","Name":"Bromeliad Lane"},{"Latitude":"26.5194467","Longitude":"-78.7234495","Name":"Brompton Road"},{"Latitude":"26.5479649","Longitude":"-78.5719873","Name":"Bronze Drive"},{"Latitude":"26.5489438","Longitude":"-78.5745944","Name":"Bronze Lane"},{"Latitude":"25.0599797","Longitude":"-77.3130232","Name":"Brooklyn Road"},{"Latitude":"25.0643146","Longitude":"-77.3448712","Name":"Brougham Street"},{"Latitude":"25.0629954","Longitude":"-77.3196666","Name":"Brown Alley"},{"Latitude":"25.0466381","Longitude":"-77.3737597","Name":"Brown Road"},{"Latitude":"25.0234617","Longitude":"-77.3675702","Name":"Browning Court"},{"Latitude":"26.5282960","Longitude":"-78.6897290","Name":"Bruce Avenue"},{"Latitude":"25.0455510","Longitude":"-77.3458668","Name":"Bruce Street"},{"Latitude":"25.0548674","Longitude":"-77.3094383","Name":"Buccaneer Road"},{"Latitude":"25.0511485","Longitude":"-77.2957225","Name":"Buckleys Avenue"},{"Latitude":"25.0724536","Longitude":"-77.3287006","Name":"Buen Retiro Road"},{"Latitude":"25.0210761","Longitude":"-77.3651077","Name":"Bullen Terrace"},{"Latitude":"26.5707620","Longitude":"-78.5960253","Name":"Bulmer Close"},{"Latitude":"26.5706907","Longitude":"-78.5980625","Name":"Bulmer Court"},{"Latitude":"26.5714530","Longitude":"-78.5946948","Name":"Bulmer Lane"},{"Latitude":"26.5707620","Longitude":"-78.5960253","Name":"Bulmer Road"},{"Latitude":"25.0308597","Longitude":"-77.3405233","Name":"Bunca Court"},{"Latitude":"25.0696437","Longitude":"-77.3558239","Name":"Bunttings Avenue"},{"Latitude":"26.5262060","Longitude":"-78.6252461","Name":"Burgh Place"},{"Latitude":"25.0685437","Longitude":"-77.3366777","Name":"Burial Ground Corner"},{"Latitude":"25.0764993","Longitude":"-77.3363183","Name":"Burnside Lane"},{"Latitude":"25.1416727","Longitude":"-78.0019565","Name":"Burnside Road"},{"Latitude":"25.0386433","Longitude":"-77.2980467","Name":"Burvic Cove"},{"Latitude":"25.0603938","Longitude":"-77.3391114","Name":"Butler Alley"},{"Latitude":"25.0479005","Longitude":"-77.2888631","Name":"Butlers Lane"},{"Latitude":"25.0379494","Longitude":"-77.3183369","Name":"Butlers Street"},{"Latitude":"25.0183441","Longitude":"-77.3412417","Name":"Buttercup Lane"},{"Latitude":"26.5070743","Longitude":"-78.6925280","Name":"Butterfish Court"},{"Latitude":"25.0361961","Longitude":"-77.3446051","Name":"Butterfly Close"},{"Latitude":"26.5435215","Longitude":"-77.0859146","Name":"Butterfly Court"},{"Latitude":"26.5478609","Longitude":"-78.6054343","Name":"Butterwick Road"},{"Latitude":"25.0294295","Longitude":"-77.3168383","Name":"Button Lane"},{"Latitude":"25.0303531","Longitude":"-77.3295322","Name":"Buttonwood Avenue"},{"Latitude":"25.0303181","Longitude":"-77.3160408","Name":"Buttonwood Drive"},{"Latitude":"25.0267327","Longitude":"-77.3297188","Name":"CW Saunders Highway"},{"Latitude":"25.0758597","Longitude":"-77.4112660","Name":"Cable Beach Manor"},{"Latitude":"26.5245262","Longitude":"-78.6836395","Name":"Cabot Drive"},{"Latitude":"25.0425494","Longitude":"-77.3473860","Name":"Cactus Avenue"},{"Latitude":"26.5640437","Longitude":"-78.5954837","Name":"Cadney Avenue"},{"Latitude":"26.5635678","Longitude":"-78.5943995","Name":"Cadney Close"},{"Latitude":"26.5635659","Longitude":"-78.5982304","Name":"Cadney Drive"},{"Latitude":"26.5618022","Longitude":"-78.5951633","Name":"Cadney Lane"},{"Latitude":"26.5617943","Longitude":"-78.5981871","Name":"Cadney Place"},{"Latitude":"26.5258628","Longitude":"-78.7067316","Name":"Cadwallader Jones Drive"},{"Latitude":"25.0462164","Longitude":"-77.3668158","Name":"Cadwell Road"},{"Latitude":"26.5362159","Longitude":"-78.6333538","Name":"Caliban Drive"},{"Latitude":"25.0241978","Longitude":"-77.2762289","Name":"Calico Jacks Drive"},{"Latitude":"25.0514692","Longitude":"-77.3185596","Name":"Calvin Street"},{"Latitude":"25.0280720","Longitude":"-77.5123433","Name":"Cambell Street"},{"Latitude":"25.0746273","Longitude":"-77.4139453","Name":"Cambridge Avenue"},{"Latitude":"25.0122185","Longitude":"-77.3464875","Name":"Cambridge Drive"},{"Latitude":"25.0713394","Longitude":"-77.3471107","Name":"Cambridge Lane"},{"Latitude":"25.0340588","Longitude":"-77.2782601","Name":"Cambridge Road"},{"Latitude":"25.0707305","Longitude":"-77.3504242","Name":"Cambridge Street"},{"Latitude":"25.0706588","Longitude":"-77.3442229","Name":"Cameron Street"},{"Latitude":"25.0604935","Longitude":"-77.3233770","Name":"Campbell Avenue"},{"Latitude":"25.0453635","Longitude":"-77.2784173","Name":"Camperdown Drive"},{"Latitude":"25.0738793","Longitude":"-77.3306626","Name":"Canaan Lane"},{"Latitude":"25.0176207","Longitude":"-77.3823278","Name":"Canada Avenue"},{"Latitude":"26.5032360","Longitude":"-78.6646982","Name":"Canal Court"},{"Latitude":"25.0539895","Longitude":"-77.3050432","Name":"Canal Street"},{"Latitude":"26.5126214","Longitude":"-78.6674326","Name":"Canary Avenue"},{"Latitude":"25.0452484","Longitude":"-77.3099554","Name":"Canary Terrace"},{"Latitude":"26.5062993","Longitude":"-78.6925125","Name":"Candlefish Street"},{"Latitude":"24.9950335","Longitude":"-77.4534895","Name":"Candy Lane"},{"Latitude":"25.0527183","Longitude":"-77.2985940","Name":"Candy Tuft"},{"Latitude":"26.5662742","Longitude":"-78.6020595","Name":"Caneby Avenue"},{"Latitude":"26.5669095","Longitude":"-78.5630055","Name":"Cannon Ball Lane"},{"Latitude":"26.5417639","Longitude":"-78.5852896","Name":"Cannon Drive"},{"Latitude":"25.0288471","Longitude":"-77.5288095","Name":"Canoe Drive"},{"Latitude":"26.5325735","Longitude":"-78.6754161","Name":"Cantaloupe Street"},{"Latitude":"26.5317521","Longitude":"-78.6971884","Name":"Canterbury"},{"Latitude":"26.5317562","Longitude":"-78.6963555","Name":"Canterbury Street"},{"Latitude":"25.0246273","Longitude":"-77.3751425","Name":"Canterburyl Road"},{"Latitude":"25.0332198","Longitude":"-77.3399390","Name":"Cape Close"},{"Latitude":"25.0669389","Longitude":"-77.3171342","Name":"Capest"},{"Latitude":"26.5562284","Longitude":"-78.5949844","Name":"Capstan Drive"},{"Latitude":"26.5470053","Longitude":"-78.5807674","Name":"Captain Hull Square"},{"Latitude":"24.9999939","Longitude":"-77.4522547","Name":"Captain Road"},{"Latitude":"26.5132024","Longitude":"-77.0718058","Name":"Captain Shervin Archer Circle"},{"Latitude":"25.0242796","Longitude":"-77.3861998","Name":"Caravel Road"},{"Latitude":"23.4888309","Longitude":"-75.7640151","Name":"Caravelle Road"},{"Latitude":"25.0407825","Longitude":"-77.3104860","Name":"Caraway Street"},{"Latitude":"25.0766681","Longitude":"-77.4332702","Name":"Cardney Close"},{"Latitude":"25.0397259","Longitude":"-77.3413344","Name":"Carefree Court"},{"Latitude":"25.0645892","Longitude":"-77.3330864","Name":"Carew Street"},{"Latitude":"25.0610692","Longitude":"-77.3250464","Name":"Carib Road"},{"Latitude":"23.4373559","Longitude":"-75.5975123","Name":"Caribbean Drive"},{"Latitude":"26.5199169","Longitude":"-78.6894102","Name":"Carissa Street"},{"Latitude":"25.0499167","Longitude":"-77.3019715","Name":"Carlo Close"},{"Latitude":"25.0195199","Longitude":"-77.3571851","Name":"Carmen Drive"},{"Latitude":"25.0203267","Longitude":"-77.3785656","Name":"Carmichael Road"},{"Latitude":"25.0592661","Longitude":"-77.4692175","Name":"Carmilla Way"},{"Latitude":"25.0380833","Longitude":"-77.3430006","Name":"Carnation Lane"},{"Latitude":"25.0293142","Longitude":"-77.2739741","Name":"Carrot Road"},{"Latitude":"25.0188392","Longitude":"-77.2928830","Name":"Carter Close"},{"Latitude":"25.0647944","Longitude":"-77.3560399","Name":"Carter Street"},{"Latitude":"25.0472811","Longitude":"-77.3449118","Name":"Carteret Street"},{"Latitude":"26.5253391","Longitude":"-78.6752941","Name":"Cartier Circle"},{"Latitude":"26.5397914","Longitude":"-76.9584673","Name":"Cary Lane"},{"Latitude":"26.5726534","Longitude":"-78.5812180","Name":"Casaurina Bridge"},{"Latitude":"25.0405410","Longitude":"-77.3543822","Name":"Casbin Road"},{"Latitude":"25.0255243","Longitude":"-77.3379718","Name":"Cascarilla Street"},{"Latitude":"25.0833603","Longitude":"-77.3143083","Name":"Casino Drive"},{"Latitude":"25.0412267","Longitude":"-77.3277388","Name":"Caspian Road East"},{"Latitude":"25.0389643","Longitude":"-77.3279448","Name":"Caspian Road West"},{"Latitude":"25.0228864","Longitude":"-77.3632365","Name":"Cassandra Close"},{"Latitude":"25.0400499","Longitude":"-77.3109023","Name":"Cassia Close"},{"Latitude":"25.0613865","Longitude":"-77.4755517","Name":"Castor Bean Road"},{"Latitude":"25.0701221","Longitude":"-77.3764792","Name":"Castor Street"},{"Latitude":"25.0752149","Longitude":"-77.3733995","Name":"Casuarina Avenue"},{"Latitude":"25.0568416","Longitude":"-77.4201249","Name":"Casuarina Close"},{"Latitude":"26.5744915","Longitude":"-78.5813542","Name":"Casuarina Drive"},{"Latitude":"25.0319476","Longitude":"-77.3139364","Name":"Casurine Circle"},{"Latitude":"25.0238433","Longitude":"-77.2906143","Name":"Cat Island Avenue"},{"Latitude":"26.5626283","Longitude":"-78.5831378","Name":"Catamaran Avenue"},{"Latitude":"26.5547774","Longitude":"-78.5998411","Name":"Cathay Street"},{"Latitude":"25.0342964","Longitude":"-77.2665961","Name":"Catherine's Way"},{"Latitude":"25.0366794","Longitude":"-77.3452453","Name":"Catnik Close"},{"Latitude":"25.0090529","Longitude":"-77.5306774","Name":"Catnip Road"},{"Latitude":"25.0567707","Longitude":"-77.4161489","Name":"Cattleya Lane"},{"Latitude":"25.0715677","Longitude":"-77.3365652","Name":"Catto Street"},{"Latitude":"25.0256818","Longitude":"-77.2859696","Name":"Cavern Way"},{"Latitude":"25.0772074","Longitude":"-77.3787700","Name":"Cay View Lane"},{"Latitude":"26.5143148","Longitude":"-78.6714838","Name":"Cayman Drive"},{"Latitude":"25.0708862","Longitude":"-77.3574966","Name":"Cecila Street"},{"Latitude":"25.0635890","Longitude":"-77.3304292","Name":"Cedar Lane"},{"Latitude":"26.5442425","Longitude":"-78.6967871","Name":"Cedar Street"},{"Latitude":"25.0304960","Longitude":"-77.3991232","Name":"Cedar Terrace"},{"Latitude":"25.0237646","Longitude":"-77.3652507","Name":"Cedar Way"},{"Latitude":"25.0346535","Longitude":"-77.3024825","Name":"Ceira Close"},{"Latitude":"25.0492904","Longitude":"-77.3601701","Name":"Celery Drive"},{"Latitude":"26.5256465","Longitude":"-78.6341792","Name":"Celia Circle"},{"Latitude":"26.5401536","Longitude":"-76.9577256","Name":"Cemetery Road"},{"Latitude":"25.0121084","Longitude":"-77.3843076","Name":"Center Drive"},{"Latitude":"26.5536355","Longitude":"-78.6025040","Name":"Centerboard Lane"},{"Latitude":"25.0091031","Longitude":"-77.3489206","Name":"Central Avenue"},{"Latitude":"24.9980283","Longitude":"-77.4561391","Name":"Central Drive"},{"Latitude":"24.9974787","Longitude":"-77.4531979","Name":"Central Drive East"},{"Latitude":"26.5295063","Longitude":"-76.9671995","Name":"Centre Line Road"},{"Latitude":"25.0434507","Longitude":"-77.3389226","Name":"Cereus Street"},{"Latitude":"25.0276069","Longitude":"-77.3720284","Name":"Chafer Court"},{"Latitude":"25.0243862","Longitude":"-77.3758342","Name":"Chalene Close"},{"Latitude":"25.0624833","Longitude":"-77.3049727","Name":"Chamberlain Street"},{"Latitude":"25.0433081","Longitude":"-77.2641925","Name":"Chancery Lane"},{"Latitude":"25.0425426","Longitude":"-77.3566050","Name":"Chapel Drive"},{"Latitude":"26.5690102","Longitude":"-78.5845902","Name":"Chapel Road"},{"Latitude":"25.0672624","Longitude":"-77.3457273","Name":"Chapel Street"},{"Latitude":"26.4987345","Longitude":"-78.6881804","Name":"Chapman Circle"},{"Latitude":"26.5688326","Longitude":"-78.5852291","Name":"Chappel Close"},{"Latitude":"26.5218550","Longitude":"-78.7106128","Name":"Charles Chillingsworth Court"},{"Latitude":"25.0082125","Longitude":"-77.3635791","Name":"Charles Drive"},{"Latitude":"26.5341248","Longitude":"-77.0685552","Name":"Charles Sawyer Boulevard"},{"Latitude":"24.9728047","Longitude":"-76.1797405","Name":"Charles Street"},{"Latitude":"25.0544331","Longitude":"-77.3378418","Name":"Charles Vincent Street"},{"Latitude":"25.0334188","Longitude":"-77.3198579","Name":"Charles Williams Street"},{"Latitude":"25.0351966","Longitude":"-77.2986323","Name":"Charleston Court"},{"Latitude":"25.0399348","Longitude":"-77.5042794","Name":"Charleston Lane"},{"Latitude":"25.0462337","Longitude":"-77.3454186","Name":"Charleston Street"},{"Latitude":"25.0392021","Longitude":"-77.5056339","Name":"Charlotte Drive"},{"Latitude":"25.0753925","Longitude":"-77.3420098","Name":"Charlotte Street"},{"Latitude":"25.0502374","Longitude":"-77.4931888","Name":"Charlotteville Boulevard"},{"Latitude":"25.0223632","Longitude":"-77.3572374","Name":"Chase Avenue"},{"Latitude":"25.0361525","Longitude":"-77.2757921","Name":"Chasier Road"},{"Latitude":"26.5710147","Longitude":"-78.5890174","Name":"Chatley Close"},{"Latitude":"26.5706431","Longitude":"-78.5877973","Name":"Chatley Road"},{"Latitude":"25.0048708","Longitude":"-77.4829162","Name":"Chazon Estate"},{"Latitude":"25.0279988","Longitude":"-77.5280499","Name":"Chelsea Place"},{"Latitude":"25.0388861","Longitude":"-77.3386737","Name":"Chenile Avenue"},{"Latitude":"25.0406508","Longitude":"-77.3405642","Name":"Chenille Street"},{"Latitude":"26.5324915","Longitude":"-78.6745072","Name":"Cherry Corner"},{"Latitude":"26.5515549","Longitude":"-78.5930375","Name":"Chesapeake Drive"},{"Latitude":"25.0696363","Longitude":"-77.4197810","Name":"Cheshire Street"},{"Latitude":"25.0616986","Longitude":"-77.3226957","Name":"Chespeake Road"},{"Latitude":"26.5690536","Longitude":"-78.5899914","Name":"Chesterford Road"},{"Latitude":"25.0608720","Longitude":"-77.3938626","Name":"Chestnut Road"},{"Latitude":"25.0278424","Longitude":"-77.3303940","Name":"Chestnut Street"},{"Latitude":"26.5259971","Longitude":"-78.6797380","Name":"Chichester Crescent"},{"Latitude":"26.5681424","Longitude":"-78.5953226","Name":"Chickney Lane"},{"Latitude":"26.5681090","Longitude":"-78.5970301","Name":"Chickney Road"},{"Latitude":"26.5662244","Longitude":"-78.5924330","Name":"Chignall Court"},{"Latitude":"26.5675756","Longitude":"-78.5926969","Name":"Chignall Lane"},{"Latitude":"26.5671267","Longitude":"-78.5915132","Name":"Chignall Road"},{"Latitude":"26.5267445","Longitude":"-78.7136487","Name":"China Rose Close"},{"Latitude":"25.0766663","Longitude":"-77.3607922","Name":"Chippingham Road"},{"Latitude":"26.5699205","Longitude":"-78.5896487","Name":"Chippinghill Drive"},{"Latitude":"25.0389908","Longitude":"-77.2956103","Name":"Chipps End"},{"Latitude":"25.0202797","Longitude":"-77.3887517","Name":"Chou Close"},{"Latitude":"24.7356615","Longitude":"-76.2189094","Name":"Chris Fireman Brown Boulevard"},{"Latitude":"25.0760837","Longitude":"-77.3325553","Name":"Christe Street"},{"Latitude":"25.0425426","Longitude":"-77.3566050","Name":"Christian Way"},{"Latitude":"25.0562636","Longitude":"-77.3848788","Name":"Christie Avenue"},{"Latitude":"25.0236328","Longitude":"-77.5281760","Name":"Christie Terrace"},{"Latitude":"25.0640025","Longitude":"-77.3588596","Name":"Christopher Road"},{"Latitude":"25.0407392","Longitude":"-77.3451115","Name":"Chrysanthemum Avenue"},{"Latitude":"26.5070695","Longitude":"-78.6911118","Name":"Chub Lane"},{"Latitude":"25.0378440","Longitude":"-77.3406907","Name":"Chukar Way"},{"Latitude":"25.0353672","Longitude":"-77.3498466","Name":"Church Lane"},{"Latitude":"26.5486869","Longitude":"-77.0480100","Name":"Church Street"},{"Latitude":"25.0660493","Longitude":"-77.3628581","Name":"Churchill Avenue"},{"Latitude":"25.0406409","Longitude":"-77.2650937","Name":"Churchill Close"},{"Latitude":"26.4997373","Longitude":"-78.7067845","Name":"Churchill Court"},{"Latitude":"26.5349367","Longitude":"-78.5938124","Name":"Churchill Drive"},{"Latitude":"26.4994207","Longitude":"-78.7163793","Name":"Churchill Lane"},{"Latitude":"25.0269424","Longitude":"-77.2796122","Name":"Churchill Place"},{"Latitude":"26.4993725","Longitude":"-78.7089860","Name":"Churchill Road"},{"Latitude":"25.0296643","Longitude":"-77.2709443","Name":"Circus Road"},{"Latitude":"25.0554948","Longitude":"-77.2968442","Name":"Citrus Drive"},{"Latitude":"26.5677658","Longitude":"-78.5877733","Name":"Clacton Court"},{"Latitude":"26.5672528","Longitude":"-78.5894985","Name":"Clacton Road"},{"Latitude":"25.0668755","Longitude":"-77.3237884","Name":"Claire Avenue"},{"Latitude":"26.5045061","Longitude":"-78.6638180","Name":"Claire Court"},{"Latitude":"25.0621929","Longitude":"-77.3065248","Name":"Clarence Street"},{"Latitude":"25.0541101","Longitude":"-77.3300923","Name":"Claridge Road"},{"Latitude":"25.0563562","Longitude":"-77.3280085","Name":"Clarine Close"},{"Latitude":"26.5335680","Longitude":"-78.7034167","Name":"Clark Avenue"},{"Latitude":"25.0661756","Longitude":"-77.3199236","Name":"Clarke Lane"},{"Latitude":"25.0422748","Longitude":"-77.3004444","Name":"Clayton Close"},{"Latitude":"25.0659383","Longitude":"-77.3553869","Name":"Clayton Road"},{"Latitude":"25.0380135","Longitude":"-77.4999805","Name":"Clearview Heights Drive"},{"Latitude":"25.0069900","Longitude":"-77.3655710","Name":"Cleveland Street"},{"Latitude":"25.0279849","Longitude":"-77.5407699","Name":"Clifton Bay Drive"},{"Latitude":"25.0610344","Longitude":"-77.3339309","Name":"Clifton Street"},{"Latitude":"26.5555279","Longitude":"-78.5808994","Name":"Clipper Circle"},{"Latitude":"26.5544075","Longitude":"-78.5862404","Name":"Clipper Drive"},{"Latitude":"25.0761912","Longitude":"-77.4321174","Name":"Clipper Island"},{"Latitude":"26.5558985","Longitude":"-78.5814902","Name":"Clipper Road"},{"Latitude":"26.5363389","Longitude":"-78.6885405","Name":"Clive Avenue"},{"Latitude":"25.0792537","Longitude":"-77.3061532","Name":"Cloister Drive East"},{"Latitude":"25.0795513","Longitude":"-77.3078242","Name":"Cloister Drive West"},{"Latitude":"25.0498790","Longitude":"-77.4978014","Name":"Club Drive"},{"Latitude":"25.0486954","Longitude":"-77.4985521","Name":"Club Lane"},{"Latitude":"26.5177785","Longitude":"-78.6545191","Name":"Coach Road"},{"Latitude":"26.5180515","Longitude":"-78.6499205","Name":"Cobia Place"},{"Latitude":"25.0609140","Longitude":"-77.4717918","Name":"Cochran Street"},{"Latitude":"25.0458149","Longitude":"-77.2976906","Name":"Cockburn Close"},{"Latitude":"25.0474062","Longitude":"-77.2967260","Name":"Cockburn Street"},{"Latitude":"25.0364287","Longitude":"-77.3148213","Name":"Coco Plum Lane"},{"Latitude":"25.0499750","Longitude":"-77.3409581","Name":"Coco Plum Road"},{"Latitude":"26.5320550","Longitude":"-78.6749639","Name":"Coco Plum Street"},{"Latitude":"25.0520749","Longitude":"-77.3452316","Name":"Coconut Grove Avenue"},{"Latitude":"25.0363248","Longitude":"-77.3123737","Name":"Coconut Palm Avenue"},{"Latitude":"26.5329295","Longitude":"-78.6740910","Name":"Coconut Road"},{"Latitude":"25.0776365","Longitude":"-77.3356059","Name":"Colebrooke Lane"},{"Latitude":"25.4972261","Longitude":"-76.6349059","Name":"Colebrooke Street"},{"Latitude":"25.0584182","Longitude":"-77.3402019","Name":"Coleman Lane"},{"Latitude":"25.0612530","Longitude":"-77.3585901","Name":"College Avenue"},{"Latitude":"25.0365046","Longitude":"-77.3045461","Name":"College Garden Road"},{"Latitude":"25.0478103","Longitude":"-77.3460420","Name":"Colleton Street"},{"Latitude":"25.0365915","Longitude":"-77.3348929","Name":"Collies Avenue"},{"Latitude":"25.0750545","Longitude":"-77.3334511","Name":"Collins Avenue"},{"Latitude":"25.0455297","Longitude":"-77.2704533","Name":"Collins Close"},{"Latitude":"25.0074512","Longitude":"-77.3647650","Name":"Collins Drive"},{"Latitude":"25.0258527","Longitude":"-77.2836380","Name":"Colony Close"},{"Latitude":"25.0362551","Longitude":"-77.2826406","Name":"Colony Village Road"},{"Latitude":"25.0335921","Longitude":"-77.5217346","Name":"Columbia Road"},{"Latitude":"25.0746674","Longitude":"-77.3607523","Name":"Columbus Avenue"},{"Latitude":"26.5334167","Longitude":"-78.6844156","Name":"Columbus Drive"},{"Latitude":"26.5030362","Longitude":"-78.7189052","Name":"Columbus Way"},{"Latitude":"26.5519530","Longitude":"-78.5888402","Name":"Comet Road"},{"Latitude":"25.0213929","Longitude":"-77.3645269","Name":"Comet Terrace"},{"Latitude":"25.0349106","Longitude":"-77.3041890","Name":"Comfort Lane"},{"Latitude":"25.0720514","Longitude":"-77.3420013","Name":"Comfort Street"},{"Latitude":"25.0436247","Longitude":"-77.3605441","Name":"Commerce Lane"},{"Latitude":"25.3823847","Longitude":"-76.5440024","Name":"Commonage Road"},{"Latitude":"25.0609022","Longitude":"-77.3085928","Name":"Commonwealth Avenue"},{"Latitude":"25.0370033","Longitude":"-77.2854619","Name":"Commonwealth Boulevard"},{"Latitude":"26.5579653","Longitude":"-78.5980843","Name":"Compass Avenue"},{"Latitude":"25.0235355","Longitude":"-77.3620842","Name":"Compass Court"},{"Latitude":"25.0652264","Longitude":"-77.3164465","Name":"Conch End"},{"Latitude":"24.9699249","Longitude":"-76.1881028","Name":"Conch Shell Alley"},{"Latitude":"25.1167625","Longitude":"-77.9993174","Name":"Conch Sound Drive"},{"Latitude":"25.0299992","Longitude":"-77.2977407","Name":"Concha Road"},{"Latitude":"25.0504808","Longitude":"-77.3917173","Name":"Concord Drive"},{"Latitude":"26.5797473","Longitude":"-78.5706983","Name":"Cone Close"},{"Latitude":"26.5800031","Longitude":"-78.5699375","Name":"Cone Lane"},{"Latitude":"26.5098629","Longitude":"-78.7037578","Name":"Confederates Walk"},{"Latitude":"26.5781641","Longitude":"-78.5718800","Name":"Conifer Close"},{"Latitude":"26.5813229","Longitude":"-78.5705948","Name":"Conifer Drive"},{"Latitude":"25.0665981","Longitude":"-77.3639520","Name":"Constitution Drive"},{"Latitude":"25.0323913","Longitude":"-77.2637134","Name":"Continental Avenue"},{"Latitude":"26.5579108","Longitude":"-78.5693815","Name":"Cook Close"},{"Latitude":"25.0630345","Longitude":"-77.3256118","Name":"Cool Bush Street"},{"Latitude":"24.9654737","Longitude":"-76.1823020","Name":"Cool Springs Estate"},{"Latitude":"26.5696990","Longitude":"-78.5823520","Name":"Copford Lane"},{"Latitude":"26.5697730","Longitude":"-78.5837938","Name":"Copford Road"},{"Latitude":"26.5393920","Longitude":"-78.5942512","Name":"Copper Road"},{"Latitude":"25.0644445","Longitude":"-77.3199025","Name":"Coppers Terrace Road"},{"Latitude":"25.0286621","Longitude":"-77.3057779","Name":"Coptan Close"},{"Latitude":"25.0746997","Longitude":"-77.4260106","Name":"Coral Beach"},{"Latitude":"24.9905922","Longitude":"-77.4553315","Name":"Coral Boulevard"},{"Latitude":"25.0237512","Longitude":"-77.2784202","Name":"Coral Close East"},{"Latitude":"25.0237484","Longitude":"-77.2784873","Name":"Coral Close West"},{"Latitude":"26.5216624","Longitude":"-78.6578652","Name":"Coral Court"},{"Latitude":"25.0750914","Longitude":"-77.3785905","Name":"Coral Drive"},{"Latitude":"24.9969558","Longitude":"-77.4553607","Name":"Coral East Boulevard"},{"Latitude":"26.5048324","Longitude":"-78.6943586","Name":"Coral Fish Street"},{"Latitude":"25.0497449","Longitude":"-77.4620692","Name":"Coral Harbour Road"},{"Latitude":"24.9956013","Longitude":"-77.4606524","Name":"Coral Lake Avenue"},{"Latitude":"25.0216277","Longitude":"-77.5347282","Name":"Coral Lane"},{"Latitude":"25.0540283","Longitude":"-77.3107870","Name":"Coral Place"},{"Latitude":"26.5292011","Longitude":"-78.6707025","Name":"Coral Reef Boulevard"},{"Latitude":"26.5272890","Longitude":"-78.6720090","Name":"Coral Reef Circle"},{"Latitude":"26.5309043","Longitude":"-78.6723232","Name":"Coral Reef Court"},{"Latitude":"26.5280960","Longitude":"-78.6727671","Name":"Coral Reef Drive"},{"Latitude":"26.5301525","Longitude":"-78.6727433","Name":"Coral Reef Lane"},{"Latitude":"26.5303091","Longitude":"-78.6726564","Name":"Coral Reef Loop"},{"Latitude":"26.5264791","Longitude":"-78.6697470","Name":"Coral Reef Square"},{"Latitude":"26.5294249","Longitude":"-78.6723159","Name":"Coral Reef Way"},{"Latitude":"26.5134514","Longitude":"-78.6632981","Name":"Coral Road"},{"Latitude":"25.0013899","Longitude":"-77.4631726","Name":"Coral Terrace"},{"Latitude":"26.5177451","Longitude":"-78.6659588","Name":"Coral Way"},{"Latitude":"25.0632051","Longitude":"-77.3279777","Name":"Coralita Lane"},{"Latitude":"25.0307401","Longitude":"-77.2645077","Name":"Corbel Avenue"},{"Latitude":"25.0544331","Longitude":"-77.3378418","Name":"Cordeaux Avenue"},{"Latitude":"25.0378112","Longitude":"-77.2693848","Name":"Cordell Way"},{"Latitude":"25.0429537","Longitude":"-77.3364268","Name":"Cordia Avenue"},{"Latitude":"25.0404247","Longitude":"-77.2957788","Name":"Cordia Corner"},{"Latitude":"25.0284726","Longitude":"-77.3305619","Name":"Cordia Street"},{"Latitude":"26.5290850","Longitude":"-78.6344499","Name":"Corin Way"},{"Latitude":"25.0289630","Longitude":"-77.3092218","Name":"Cork Corner"},{"Latitude":"25.0629572","Longitude":"-77.3224222","Name":"Corlet Road"},{"Latitude":"25.0624052","Longitude":"-77.4754062","Name":"Corn Flower Road"},{"Latitude":"25.0684899","Longitude":"-77.3212524","Name":"Coronation Road"},{"Latitude":"26.5496921","Longitude":"-77.0429871","Name":"Cottman Lane"},{"Latitude":"26.5051602","Longitude":"-78.7106041","Name":"Cotton Ball Lane"},{"Latitude":"25.0457422","Longitude":"-77.2875832","Name":"Cotton Tree Lane"},{"Latitude":"25.0260566","Longitude":"-77.3383607","Name":"Cottonwood Street"},{"Latitude":"25.0115641","Longitude":"-77.5166894","Name":"Country Club Drive"},{"Latitude":"24.9886787","Longitude":"-77.4676979","Name":"Country Club Road"},{"Latitude":"25.0409779","Longitude":"-77.3132163","Name":"Court Street"},{"Latitude":"25.3323789","Longitude":"-76.4160578","Name":"Cove Lane"},{"Latitude":"25.0067382","Longitude":"-77.3850810","Name":"Cow Pen Road"},{"Latitude":"25.0354997","Longitude":"-77.3505044","Name":"Cowman Lane"},{"Latitude":"25.0094717","Longitude":"-77.3786643","Name":"Cox Avenue"},{"Latitude":"25.0323581","Longitude":"-77.2986967","Name":"Cox Close"},{"Latitude":"26.5205461","Longitude":"-78.6221456","Name":"Cox Cove"},{"Latitude":"25.0465230","Longitude":"-77.2979112","Name":"Cox Street"},{"Latitude":"25.0300599","Longitude":"-77.3446379","Name":"Cox Way"},{"Latitude":"25.0608309","Longitude":"-77.4729096","Name":"Cozby Close"},{"Latitude":"25.0363538","Longitude":"-77.3496718","Name":"Crabapple Road"},{"Latitude":"25.0437387","Longitude":"-77.3091716","Name":"Crane Street"},{"Latitude":"25.0471351","Longitude":"-77.3470274","Name":"Craven Street"},{"Latitude":"25.0574993","Longitude":"-77.3659262","Name":"Crawford Street"},{"Latitude":"25.0393947","Longitude":"-77.3472957","Name":"Crepe Myrtle Avenue"},{"Latitude":"25.0247953","Longitude":"-77.5256762","Name":"Crescent Drive"},{"Latitude":"26.5712562","Longitude":"-78.5932096","Name":"Cressing Court"},{"Latitude":"26.5714942","Longitude":"-78.5907215","Name":"Cressling Close"},{"Latitude":"26.5346346","Longitude":"-78.6240318","Name":"Creswell Road"},{"Latitude":"25.0773402","Longitude":"-77.3673171","Name":"Crispin Road"},{"Latitude":"25.0405123","Longitude":"-77.3536593","Name":"Crispin Street"},{"Latitude":"26.5377241","Longitude":"-77.0669702","Name":"Crockett Drive"},{"Latitude":"25.0429098","Longitude":"-77.3466914","Name":"Crocus Avenue"},{"Latitude":"26.5262439","Longitude":"-78.6502379","Name":"Cromwell Drive"},{"Latitude":"25.0658362","Longitude":"-77.3595572","Name":"Cromwell Street"},{"Latitude":"25.0551723","Longitude":"-77.3425914","Name":"Crooked Island Street"},{"Latitude":"25.3390613","Longitude":"-76.4381718","Name":"Cross Island Drive"},{"Latitude":"26.5519251","Longitude":"-78.5987004","Name":"Cross Jack"},{"Latitude":"25.0269596","Longitude":"-77.2993527","Name":"Cross Wind Road"},{"Latitude":"26.5280627","Longitude":"-78.6083088","Name":"Crossbones Close"},{"Latitude":"25.0750914","Longitude":"-77.3785905","Name":"Croton Avenue"},{"Latitude":"25.0526545","Longitude":"-77.2967869","Name":"Croton Court"},{"Latitude":"25.0140891","Longitude":"-77.3751094","Name":"Croton Road"},{"Latitude":"25.0290557","Longitude":"-77.3307404","Name":"Croton Street"},{"Latitude":"25.0565594","Longitude":"-77.3164774","Name":"Crouch Close"},{"Latitude":"25.0459881","Longitude":"-77.3114724","Name":"Crow Close"},{"Latitude":"26.5099352","Longitude":"-78.6969635","Name":"Crown Circle"},{"Latitude":"25.3367918","Longitude":"-76.4231457","Name":"Crown Lane"},{"Latitude":"25.5015385","Longitude":"-76.6377154","Name":"Crown Street"},{"Latitude":"26.5080918","Longitude":"-78.7120268","Name":"Crows Nest Cove"},{"Latitude":"25.0859742","Longitude":"-77.3653592","Name":"Crystal Cay Bridge"},{"Latitude":"25.0231211","Longitude":"-77.2783855","Name":"Crystal Close East"},{"Latitude":"25.0230802","Longitude":"-77.2793308","Name":"Crystal Close West"},{"Latitude":"25.0384077","Longitude":"-77.3337360","Name":"Crystal Way"},{"Latitude":"26.5510381","Longitude":"-77.0995905","Name":"Cubell Avenue"},{"Latitude":"25.0580616","Longitude":"-77.3240596","Name":"Cubic Close"},{"Latitude":"25.0398184","Longitude":"-77.2763441","Name":"Cuckoo Drive"},{"Latitude":"25.0377192","Longitude":"-77.2733371","Name":"Culberts Hill Close"},{"Latitude":"25.0427096","Longitude":"-77.2727521","Name":"Culberts Hill Road"},{"Latitude":"25.0652451","Longitude":"-77.3183287","Name":"Culmer Lane"},{"Latitude":"24.9715114","Longitude":"-76.1853549","Name":"Culmer Street"},{"Latitude":"25.0333734","Longitude":"-77.3409273","Name":"Culmigo Close"},{"Latitude":"25.0592826","Longitude":"-77.3420216","Name":"Cumberbatch Avenue"},{"Latitude":"25.0776963","Longitude":"-77.3452121","Name":"Cumberland Street"},{"Latitude":"25.0433338","Longitude":"-77.2785860","Name":"Cumelemi Lane"},{"Latitude":"25.0612752","Longitude":"-77.3197735","Name":"Cunningham Alley"},{"Latitude":"25.0780491","Longitude":"-77.3500648","Name":"Cunningham Lane"},{"Latitude":"25.0247423","Longitude":"-77.3586802","Name":"Curacao Street"},{"Latitude":"26.5420203","Longitude":"-78.6835482","Name":"Curley Tail Way"},{"Latitude":"25.0210798","Longitude":"-77.2961726","Name":"Current Road"},{"Latitude":"26.5514300","Longitude":"-77.0979851","Name":"Curry's Lane"},{"Latitude":"25.0490530","Longitude":"-77.2909347","Name":"Curtis Close"},{"Latitude":"25.0638798","Longitude":"-77.4776246","Name":"Curtis Road"},{"Latitude":"25.0659803","Longitude":"-77.3521700","Name":"Curtis Street"},{"Latitude":"26.5338569","Longitude":"-78.6741369","Name":"Custard Apple Road"},{"Latitude":"26.5353437","Longitude":"-78.6752097","Name":"Custard Apple Street"},{"Latitude":"26.6694113","Longitude":"-77.2804633","Name":"Cut Water Way"},{"Latitude":"26.5531859","Longitude":"-78.6044529","Name":"Cutlass Avenue"},{"Latitude":"26.5545303","Longitude":"-78.5844672","Name":"Cutwater Drive"},{"Latitude":"25.0230958","Longitude":"-77.3056903","Name":"Cyclops Court"},{"Latitude":"25.0255476","Longitude":"-77.3201998","Name":"Cypress Avenue"},{"Latitude":"25.0269496","Longitude":"-77.5053619","Name":"Cypress Drive"},{"Latitude":"25.0441496","Longitude":"-77.3485415","Name":"Daffodil Avenue"},{"Latitude":"26.5846656","Longitude":"-78.5857795","Name":"Dagenham Circle"},{"Latitude":"26.5861600","Longitude":"-78.5790891","Name":"Dagenham Drive"},{"Latitude":"26.5829637","Longitude":"-78.5868892","Name":"Dagenham Lane"},{"Latitude":"26.5826623","Longitude":"-78.5842894","Name":"Dagenham Road"},{"Latitude":"26.5267568","Longitude":"-78.7128713","Name":"Dahlia Close"},{"Latitude":"25.0623264","Longitude":"-77.4745789","Name":"Daisy Road"},{"Latitude":"25.0297334","Longitude":"-77.2972483","Name":"Daks Close"},{"Latitude":"25.0166388","Longitude":"-77.3438390","Name":"Dale Court"},{"Latitude":"25.0229762","Longitude":"-77.3949134","Name":"Dame Doris Drive"},{"Latitude":"25.0689234","Longitude":"-77.3439533","Name":"Dames Alley"},{"Latitude":"25.0223716","Longitude":"-77.3668407","Name":"Damian Walk"},{"Latitude":"26.5234263","Longitude":"-78.6842996","Name":"Dampier Drive"},{"Latitude":"25.0400090","Longitude":"-77.3368636","Name":"Dandelion Street"},{"Latitude":"25.0235851","Longitude":"-77.3226873","Name":"Danielle Street"},{"Latitude":"25.0190360","Longitude":"-77.3478606","Name":"Danita Drive"},{"Latitude":"25.0657877","Longitude":"-77.3166905","Name":"Danza Close"},{"Latitude":"25.0611487","Longitude":"-77.3429142","Name":"Darling Lane"},{"Latitude":"25.0384100","Longitude":"-77.3160006","Name":"Darlng Plum Grove"},{"Latitude":"26.5169980","Longitude":"-78.6541302","Name":"Dartmoor Way"},{"Latitude":"26.5353466","Longitude":"-78.6744824","Name":"Date Corner"},{"Latitude":"25.0121401","Longitude":"-77.3492666","Name":"Datura Avenue"},{"Latitude":"25.0514668","Longitude":"-77.3730084","Name":"David Smalley Close"},{"Latitude":"25.0433030","Longitude":"-77.2914660","Name":"Davis Street"},{"Latitude":"26.5503119","Longitude":"-77.0960751","Name":"Dawkins Place"},{"Latitude":"25.0517628","Longitude":"-77.3177087","Name":"Dawson Street"},{"Latitude":"25.0322717","Longitude":"-77.3027762","Name":"Daybreak Avenue"},{"Latitude":"25.0711747","Longitude":"-77.3376821","Name":"Dead Cat Alley"},{"Latitude":"25.0577424","Longitude":"-77.2970330","Name":"Deals Heights Alley"},{"Latitude":"25.0757093","Longitude":"-77.3536512","Name":"Deans Lane"},{"Latitude":"25.0702664","Longitude":"-77.3509794","Name":"Deans Street"},{"Latitude":"26.5815602","Longitude":"-78.5685164","Name":"Debden Circle"},{"Latitude":"26.5737517","Longitude":"-78.5887883","Name":"Debden Close"},{"Latitude":"26.5809139","Longitude":"-78.5876030","Name":"Debden Court"},{"Latitude":"26.5779083","Longitude":"-78.5889092","Name":"Debden Drive"},{"Latitude":"26.5774621","Longitude":"-78.5902315","Name":"Debden Lane"},{"Latitude":"26.5570132","Longitude":"-78.5979591","Name":"Defender Avenue"},{"Latitude":"25.0340644","Longitude":"-77.3197552","Name":"Dehavilland Newton Street"},{"Latitude":"25.0197748","Longitude":"-77.3646952","Name":"Deity Court"},{"Latitude":"25.0748886","Longitude":"-77.3478162","Name":"Delancy Street"},{"Latitude":"25.0460790","Longitude":"-77.3578127","Name":"Dennis Court East"},{"Latitude":"25.0470381","Longitude":"-77.3667538","Name":"Dennis Court West"},{"Latitude":"25.0071869","Longitude":"-77.4210722","Name":"Dequel Close"},{"Latitude":"25.0558649","Longitude":"-77.3149532","Name":"Derby Close"},{"Latitude":"24.9832370","Longitude":"-77.4611956","Name":"Derby Road"},{"Latitude":"25.0211790","Longitude":"-77.3435966","Name":"Devaughan Drive"},{"Latitude":"25.0762903","Longitude":"-77.3339560","Name":"Deveaux Street"},{"Latitude":"26.5853349","Longitude":"-78.5512484","Name":"Devonshire Drive"},{"Latitude":"25.0746527","Longitude":"-77.4063408","Name":"Devonshire Street"},{"Latitude":"25.0224973","Longitude":"-77.2783510","Name":"Diamond Close East"},{"Latitude":"25.0224944","Longitude":"-77.2784186","Name":"Diamond Close West"},{"Latitude":"26.5342444","Longitude":"-78.5954574","Name":"Diamond Row"},{"Latitude":"25.0649844","Longitude":"-77.3020406","Name":"Dicks Point Road"},{"Latitude":"25.0130772","Longitude":"-77.4027736","Name":"Dignity Gardens"},{"Latitude":"25.0733327","Longitude":"-77.3457596","Name":"Dillet Street"},{"Latitude":"25.0603124","Longitude":"-77.3119445","Name":"Dipper Court"},{"Latitude":"25.0486846","Longitude":"-77.3231551","Name":"Discover Close"},{"Latitude":"25.0181385","Longitude":"-77.3676237","Name":"Dive Court"},{"Latitude":"25.0531804","Longitude":"-77.4893091","Name":"Doc Road"},{"Latitude":"25.0481576","Longitude":"-77.2784122","Name":"Dodge Road"},{"Latitude":"25.0749720","Longitude":"-77.3309147","Name":"Dog Flea Alley"},{"Latitude":"26.5055717","Longitude":"-78.6911091","Name":"Dogfish Street"},{"Latitude":"26.5394035","Longitude":"-78.5998502","Name":"Dollar Row"},{"Latitude":"25.0592994","Longitude":"-77.4889769","Name":"Dolphin Avenue"},{"Latitude":"25.0542019","Longitude":"-77.3098669","Name":"Dolphin Close"},{"Latitude":"25.0633854","Longitude":"-77.3753624","Name":"Dolphin Drive"},{"Latitude":"25.0544333","Longitude":"-77.3102534","Name":"Dolphin Road"},{"Latitude":"26.5048348","Longitude":"-78.6934681","Name":"Dolphin Street"},{"Latitude":"25.0317599","Longitude":"-77.3413507","Name":"Domingo Drive"},{"Latitude":"26.5104760","Longitude":"-78.6683445","Name":"Dominica Avenue"},{"Latitude":"25.0259371","Longitude":"-77.3587027","Name":"Dominica Street"},{"Latitude":"25.0306594","Longitude":"-77.3550219","Name":"Dominica Way"},{"Latitude":"26.5136821","Longitude":"-77.0716572","Name":"Don Mackay Boulevard"},{"Latitude":"25.0238517","Longitude":"-77.3661509","Name":"Donahue Terrace"},{"Latitude":"25.0516499","Longitude":"-77.4876866","Name":"Dopey Drive"},{"Latitude":"25.0778950","Longitude":"-77.3479008","Name":"Dorchester Street"},{"Latitude":"25.0206936","Longitude":"-77.3452646","Name":"Dorsett Drive"},{"Latitude":"25.0707876","Longitude":"-77.3481362","Name":"Dorsett Street"},{"Latitude":"25.3313268","Longitude":"-76.4082204","Name":"Dory Lane"},{"Latitude":"25.0156009","Longitude":"-77.3765697","Name":"Doubloon Drive"},{"Latitude":"25.3348129","Longitude":"-76.4196627","Name":"Doubloon Lane"},{"Latitude":"24.9970911","Longitude":"-77.4651860","Name":"Doubloon Road"},{"Latitude":"26.6839363","Longitude":"-77.2989621","Name":"Doubloon Way"},{"Latitude":"26.5330831","Longitude":"-78.6860115","Name":"Doughty Lane"},{"Latitude":"25.0605661","Longitude":"-77.4764184","Name":"Douglas Road"},{"Latitude":"25.0280525","Longitude":"-77.5107922","Name":"Douglas Street"},{"Latitude":"25.0456455","Longitude":"-77.3107643","Name":"Dove Court"},{"Latitude":"25.3324916","Longitude":"-76.4200186","Name":"Dove Lane"},{"Latitude":"25.0343205","Longitude":"-77.2707759","Name":"Dove Street"},{"Latitude":"25.0116087","Longitude":"-77.3441143","Name":"Dover Avenue"},{"Latitude":"25.0760837","Longitude":"-77.3325553","Name":"Dowdeswell Street"},{"Latitude":"25.0449988","Longitude":"-77.3563259","Name":"Doyle Street"},{"Latitude":"25.0142009","Longitude":"-77.5313316","Name":"Dragonfly Drive"},{"Latitude":"26.5381812","Longitude":"-78.6885248","Name":"Drake Avenue"},{"Latitude":"25.0189342","Longitude":"-77.3017412","Name":"Dray Lane"},{"Latitude":"25.0321678","Longitude":"-77.3042065","Name":"Dreamers Close"},{"Latitude":"25.0509292","Longitude":"-77.4950454","Name":"Driftwood Circle"},{"Latitude":"26.5040060","Longitude":"-78.6934352","Name":"Drumfish Street"},{"Latitude":"26.5125609","Longitude":"-78.7109122","Name":"Duchess Way"},{"Latitude":"26.5341378","Longitude":"-78.6326376","Name":"Duke Drive"},{"Latitude":"25.0762850","Longitude":"-77.3451061","Name":"Duke Street"},{"Latitude":"26.5137339","Longitude":"-78.7066782","Name":"Dukes Way"},{"Latitude":"25.0656623","Longitude":"-77.3511065","Name":"Dumping Ground Corner"},{"Latitude":"25.0257356","Longitude":"-77.3689689","Name":"Duncanson Road North"},{"Latitude":"25.0247435","Longitude":"-77.3683237","Name":"Duncanson Road South"},{"Latitude":"25.0407336","Longitude":"-77.2661512","Name":"Duncombe Close"},{"Latitude":"25.0632827","Longitude":"-77.3224117","Name":"Dundas Close"},{"Latitude":"26.4943382","Longitude":"-78.7120900","Name":"Dundee Bay Drive"},{"Latitude":"25.0339989","Longitude":"-77.2964790","Name":"Dunkah Court"},{"Latitude":"25.0595559","Longitude":"-77.3025927","Name":"Dunkirk Road"},{"Latitude":"25.0721409","Longitude":"-77.3597285","Name":"Dunmore Avenue"},{"Latitude":"24.9851218","Longitude":"-77.4594002","Name":"Dunmore Drive East"},{"Latitude":"24.9851768","Longitude":"-77.4606306","Name":"Dunmore Drive West"},{"Latitude":"25.0767762","Longitude":"-77.3352427","Name":"Dunmore Lane"},{"Latitude":"25.0641597","Longitude":"-77.3471737","Name":"Dunmore Street"},{"Latitude":"26.5779527","Longitude":"-78.5868292","Name":"Dunmow Close"},{"Latitude":"26.5755070","Longitude":"-78.5841215","Name":"Dunnow Court"},{"Latitude":"26.5802183","Longitude":"-78.5856624","Name":"Dunton Court"},{"Latitude":"26.5775334","Longitude":"-78.5845874","Name":"Dunton Lane"},{"Latitude":"26.5789420","Longitude":"-78.5862056","Name":"Dunton Road"},{"Latitude":"26.5809285","Longitude":"-78.5567204","Name":"Durham Circle"},{"Latitude":"26.5767835","Longitude":"-78.5570316","Name":"Durham Close"},{"Latitude":"26.5762079","Longitude":"-78.5567001","Name":"Durham Lane"},{"Latitude":"25.0616219","Longitude":"-77.3337903","Name":"Durham Street"},{"Latitude":"25.0175240","Longitude":"-77.3553874","Name":"Dwight Avenue"},{"Latitude":"25.0289213","Longitude":"-77.5469686","Name":"E.P. Taylor Drive"},{"Latitude":"25.0434337","Longitude":"-77.3085111","Name":"Eagle Court"},{"Latitude":"25.0357650","Longitude":"-77.3403161","Name":"Earls Court"},{"Latitude":"25.0366841","Longitude":"-77.3172378","Name":"East Alexandra Boulevard"},{"Latitude":"26.5134499","Longitude":"-78.6926928","Name":"East Atlantic Drive"},{"Latitude":"25.0140999","Longitude":"-77.3837738","Name":"East Avenue"},{"Latitude":"26.5467243","Longitude":"-77.0505464","Name":"East Bay Street"},{"Latitude":"26.5150776","Longitude":"-78.6876303","Name":"East Beach Drive"},{"Latitude":"26.5445904","Longitude":"-78.6166984","Name":"East Beach Road"},{"Latitude":"25.0704314","Longitude":"-77.3745446","Name":"East Brook Street"},{"Latitude":"25.0346846","Longitude":"-77.3181414","Name":"East Catherine Street"},{"Latitude":"25.0306711","Longitude":"-77.2741486","Name":"East Close"},{"Latitude":"25.0621017","Longitude":"-77.3356826","Name":"East Court"},{"Latitude":"25.0359443","Longitude":"-77.3475756","Name":"East Crabapple Road"},{"Latitude":"25.0754597","Longitude":"-77.3430592","Name":"East Hill Street"},{"Latitude":"26.5412782","Longitude":"-78.6473992","Name":"East Indiaman Drive"},{"Latitude":"26.5377919","Longitude":"-78.6545539","Name":"East Indiaman Road"},{"Latitude":"25.0647216","Longitude":"-77.3091036","Name":"East Lynn Road"},{"Latitude":"26.5186372","Longitude":"-78.6953235","Name":"East Mall Drive"},{"Latitude":"26.5305179","Longitude":"-78.6209267","Name":"East Redford Place"},{"Latitude":"26.5448930","Longitude":"-78.6473549","Name":"East Settler's Way"},{"Latitude":"25.0109250","Longitude":"-77.3434018","Name":"East Street"},{"Latitude":"26.5159387","Longitude":"-78.6869553","Name":"East Sunrise Highway"},{"Latitude":"25.0708989","Longitude":"-77.3333201","Name":"East Terrace"},{"Latitude":"25.0473689","Longitude":"-77.3343306","Name":"East West Highway"},{"Latitude":"25.0118445","Longitude":"-77.5164984","Name":"East Wind Lane"},{"Latitude":"26.5112485","Longitude":"-78.6659896","Name":"Easter Avenue"},{"Latitude":"25.0364415","Longitude":"-77.2751514","Name":"Eastern Estate"},{"Latitude":"25.0515020","Longitude":"-77.2810213","Name":"Eastern Road"},{"Latitude":"26.5513421","Longitude":"-77.0380803","Name":"Eastern Shores"},{"Latitude":"26.5114394","Longitude":"-78.7233797","Name":"Eastview Court"},{"Latitude":"25.0637395","Longitude":"-77.3151805","Name":"Eastville Road"},{"Latitude":"24.9904932","Longitude":"-77.4169760","Name":"Eastward Drive"},{"Latitude":"25.3373292","Longitude":"-76.4443122","Name":"Easy Lane"},{"Latitude":"25.0752719","Longitude":"-77.4083106","Name":"Eaton Avenue"},{"Latitude":"25.0444711","Longitude":"-77.3563249","Name":"Eaton Road"},{"Latitude":"25.0363884","Longitude":"-77.2741835","Name":"Ebony Close"},{"Latitude":"24.8659809","Longitude":"-76.1591949","Name":"Ebony Lane"},{"Latitude":"25.0433412","Longitude":"-77.3480745","Name":"Edelweis Avenue"},{"Latitude":"25.0655170","Longitude":"-77.3605869","Name":"Eden Street"},{"Latitude":"25.0342841","Longitude":"-77.3038073","Name":"Edgar Close"},{"Latitude":"26.5215710","Longitude":"-78.6664656","Name":"Edgar Place"},{"Latitude":"25.0248885","Longitude":"-77.3959125","Name":"Edgars Close"},{"Latitude":"25.0353533","Longitude":"-77.5228130","Name":"Edgewater Drive"},{"Latitude":"26.4976019","Longitude":"-78.7178836","Name":"Edinburgh Lane"},{"Latitude":"25.0589418","Longitude":"-77.3218766","Name":"Edward Avenue"},{"Latitude":"26.5231461","Longitude":"-78.7087647","Name":"Edward Birch Court"},{"Latitude":"25.0609628","Longitude":"-77.3162570","Name":"Edward Street"},{"Latitude":"26.5335799","Longitude":"-78.6515782","Name":"Egret Circle"},{"Latitude":"26.5052135","Longitude":"-78.6553901","Name":"Egret Lane"},{"Latitude":"25.0387826","Longitude":"-77.2757789","Name":"Egret Street"},{"Latitude":"25.0497229","Longitude":"-77.3423073","Name":"Eight Street"},{"Latitude":"25.0638602","Longitude":"-77.3360630","Name":"Eight Terrace"},{"Latitude":"25.0414885","Longitude":"-77.2724494","Name":"Eisenhower Close"},{"Latitude":"25.0304361","Longitude":"-77.3418449","Name":"El-bo Avenue"},{"Latitude":"26.6680414","Longitude":"-77.2757105","Name":"Elbow Crescent"},{"Latitude":"25.0270031","Longitude":"-77.3024473","Name":"Elbow Lane"},{"Latitude":"25.0377237","Longitude":"-77.3515432","Name":"Electric Drive"},{"Latitude":"25.0566054","Longitude":"-77.3451890","Name":"Eleuthera Close"},{"Latitude":"25.0225718","Longitude":"-77.2916500","Name":"Eleuthera Drive"},{"Latitude":"26.5193818","Longitude":"-78.6490651","Name":"Elgin Lane"},{"Latitude":"25.0761491","Longitude":"-77.3377062","Name":"Elizabeth Avenue"},{"Latitude":"26.5433515","Longitude":"-78.7420051","Name":"Elizabeth Lane"},{"Latitude":"25.0604714","Longitude":"-77.3166480","Name":"Elizabeth Street"},{"Latitude":"26.5216076","Longitude":"-78.7155091","Name":"Ellis Lightfoot Avenue"},{"Latitude":"25.0193010","Longitude":"-77.2788623","Name":"Emerald Circle"},{"Latitude":"26.5186003","Longitude":"-78.6669131","Name":"Emerald Drive"},{"Latitude":"25.0419126","Longitude":"-77.3287709","Name":"Emerald Ridge Road"},{"Latitude":"25.0660917","Longitude":"-77.3754568","Name":"Emery Street"},{"Latitude":"25.0206567","Longitude":"-77.3445460","Name":"Emile Drive"},{"Latitude":"24.9928436","Longitude":"-77.4537039","Name":"Emily Street"},{"Latitude":"25.0523730","Longitude":"-77.4136257","Name":"Emma Close"},{"Latitude":"25.0354738","Longitude":"-77.3461661","Name":"Emmanuel Drive"},{"Latitude":"26.6214935","Longitude":"-78.2790323","Name":"Emmanuel Way"},{"Latitude":"25.0574764","Longitude":"-77.3838511","Name":"Eneas Avenue"},{"Latitude":"25.0681784","Longitude":"-77.3383223","Name":"Eneas Corner"},{"Latitude":"25.0664744","Longitude":"-77.3524929","Name":"Eneas Street"},{"Latitude":"26.5529838","Longitude":"-78.5764130","Name":"Ensign Drive"},{"Latitude":"26.5502686","Longitude":"-78.5789085","Name":"Ensign Road"},{"Latitude":"26.5225782","Longitude":"-78.6787340","Name":"Epson Road"},{"Latitude":"26.5481373","Longitude":"-78.6065291","Name":"Epsworth Lane"},{"Latitude":"26.5284868","Longitude":"-78.6834953","Name":"Erickson Drive"},{"Latitude":"25.0746565","Longitude":"-77.3232306","Name":"Ernest Street"},{"Latitude":"26.5234146","Longitude":"-78.6776782","Name":"Esher Court"},{"Latitude":"25.0390863","Longitude":"-77.3193807","Name":"Esmeralda Avenue"},{"Latitude":"25.0786104","Longitude":"-77.3517912","Name":"Esplanade Way"},{"Latitude":"25.0327207","Longitude":"-77.2789342","Name":"Essex Road"},{"Latitude":"25.0702532","Longitude":"-77.3193497","Name":"Essex Street"},{"Latitude":"25.0487752","Longitude":"-77.3360994","Name":"Ethel Street"},{"Latitude":"25.0676915","Longitude":"-77.3150127","Name":"Evans Lane"},{"Latitude":"25.0713852","Longitude":"-77.3409694","Name":"Evans Street"},{"Latitude":"25.0354872","Longitude":"-77.2755183","Name":"Eve Road"},{"Latitude":"25.0522992","Longitude":"-77.2992651","Name":"Evebury Close"},{"Latitude":"25.0345797","Longitude":"-77.2717159","Name":"Everglades Road"},{"Latitude":"25.0226712","Longitude":"-77.3975007","Name":"Evergreen Close"},{"Latitude":"26.5801428","Longitude":"-78.5675558","Name":"Evergreen Court"},{"Latitude":"26.5346309","Longitude":"-78.6885328","Name":"Explorer's Way"},{"Latitude":"26.5331899","Longitude":"-78.7016898","Name":"Explorer's Way West"},{"Latitude":"25.0226375","Longitude":"-77.2942179","Name":"Exuma Avenue"},{"Latitude":"26.5036155","Longitude":"-78.6701832","Name":"Exuma Lane"},{"Latitude":"25.0550436","Longitude":"-77.3418811","Name":"Exuma Street"},{"Latitude":"25.0453838","Longitude":"-77.3447765","Name":"Fair Fax Street"},{"Latitude":"25.0270441","Longitude":"-77.3012396","Name":"Fairbair End"},{"Latitude":"25.0097146","Longitude":"-77.3501773","Name":"Fairlain Drive"},{"Latitude":"25.0160919","Longitude":"-77.3739619","Name":"Faith Avenue"},{"Latitude":"25.0271063","Longitude":"-77.3500836","Name":"Faith United Way"},{"Latitude":"25.0453172","Longitude":"-77.3087704","Name":"Falcon Close"},{"Latitude":"25.0341715","Longitude":"-77.2748295","Name":"Falcon Crescent"},{"Latitude":"26.5718400","Longitude":"-78.5756689","Name":"Falkland Close"},{"Latitude":"25.0378726","Longitude":"-77.3090923","Name":"Falls Court"},{"Latitude":"25.0304960","Longitude":"-77.3991232","Name":"Falls End"},{"Latitude":"26.5386448","Longitude":"-78.6300951","Name":"Falstaff Drive"},{"Latitude":"25.0374123","Longitude":"-77.3436633","Name":"Family Street"},{"Latitude":"25.0647781","Longitude":"-77.3619081","Name":"Famingo Avenue"},{"Latitude":"25.0096010","Longitude":"-77.3884692","Name":"Farmingale Road"},{"Latitude":"26.5226079","Longitude":"-78.6739068","Name":"Farnham Crescent"},{"Latitude":"25.0605813","Longitude":"-77.3737048","Name":"Farrington Road"},{"Latitude":"25.3425278","Longitude":"-76.4482998","Name":"Farview Road"},{"Latitude":"25.0607281","Longitude":"-77.3465605","Name":"Father Calnan Road"},{"Latitude":"26.5301283","Longitude":"-78.6876855","Name":"Fawcett Lane"},{"Latitude":"25.0607813","Longitude":"-77.3648680","Name":"Fawkes Court"},{"Latitude":"25.0182759","Longitude":"-77.2892385","Name":"Feather Lane"},{"Latitude":"26.6214053","Longitude":"-78.2871661","Name":"Felix Slope"},{"Latitude":"25.0481381","Longitude":"-77.2956425","Name":"Feltondale Drive"},{"Latitude":"26.5118742","Longitude":"-78.6740348","Name":"Felucca Drive"},{"Latitude":"26.5281049","Longitude":"-78.6399040","Name":"Fenchurch Drive"},{"Latitude":"25.0475777","Longitude":"-77.3232145","Name":"Ferdinard Drive"},{"Latitude":"25.0194728","Longitude":"-77.3478437","Name":"Ferguson Drive"},{"Latitude":"25.0245112","Longitude":"-77.3714732","Name":"Ferguson Estates Road"},{"Latitude":"25.0779391","Longitude":"-77.3677712","Name":"Ferguson Road"},{"Latitude":"25.0659455","Longitude":"-77.3506486","Name":"Ferguson Street"},{"Latitude":"25.0542211","Longitude":"-77.3252221","Name":"Ferguson Way"},{"Latitude":"26.4767699","Longitude":"-77.0938093","Name":"Ferguson's Drive"},{"Latitude":"26.4968177","Longitude":"-78.7145151","Name":"Fern Court"},{"Latitude":"25.0720488","Longitude":"-77.3610111","Name":"Fernander Close"},{"Latitude":"25.0638962","Longitude":"-77.4780175","Name":"Fernander Road"},{"Latitude":"25.0198959","Longitude":"-77.3039972","Name":"Fernbury Avenue"},{"Latitude":"26.5223548","Longitude":"-78.6611656","Name":"Ferry House Lane"},{"Latitude":"25.0608720","Longitude":"-77.3938626","Name":"Ficus Drive East"},{"Latitude":"25.0615758","Longitude":"-77.3952236","Name":"Ficus Drive West"},{"Latitude":"25.0232467","Longitude":"-77.3274427","Name":"Ficus Street"},{"Latitude":"26.5327523","Longitude":"-78.6511596","Name":"Fiddlers Green Road"},{"Latitude":"25.0516570","Longitude":"-77.3442033","Name":"Fifth Street"},{"Latitude":"25.0688840","Longitude":"-77.3334332","Name":"Fifth Terrace"},{"Latitude":"26.5353348","Longitude":"-78.6737467","Name":"Fig Corner"},{"Latitude":"25.0484714","Longitude":"-77.3025902","Name":"Fig Tree Court"},{"Latitude":"26.5406121","Longitude":"-76.9592742","Name":"Fig Tree Lane"},{"Latitude":"25.0363423","Longitude":"-77.2838569","Name":"Figi Court"},{"Latitude":"26.5105127","Longitude":"-78.6652195","Name":"Fiji Avenue"},{"Latitude":"26.5742583","Longitude":"-78.6112254","Name":"Filey Drive"},{"Latitude":"25.0293991","Longitude":"-77.2833931","Name":"Fillet Court"},{"Latitude":"25.0457248","Longitude":"-77.4995771","Name":"Fincastle Bridge"},{"Latitude":"25.0455070","Longitude":"-77.4986988","Name":"Fincastle Drive"},{"Latitude":"25.0658052","Longitude":"-77.3516526","Name":"Finlayson Street"},{"Latitude":"26.5360699","Longitude":"-78.6393795","Name":"Fircroft Road"},{"Latitude":"25.0063553","Longitude":"-77.4100315","Name":"Fire Fly Close"},{"Latitude":"25.0331977","Longitude":"-77.2823283","Name":"Fire Road"},{"Latitude":"25.0324134","Longitude":"-77.3833815","Name":"Fire Trail Road"},{"Latitude":"25.0606195","Longitude":"-77.3311012","Name":"Firefly Bend"},{"Latitude":"25.0543164","Longitude":"-77.3780964","Name":"Firefly Lane"},{"Latitude":"25.0508515","Longitude":"-77.3483837","Name":"First Street"},{"Latitude":"25.0736910","Longitude":"-77.3325046","Name":"First Terrace"},{"Latitude":"25.0285690","Longitude":"-77.2733810","Name":"Fish Close"},{"Latitude":"25.3348241","Longitude":"-76.4125912","Name":"Fisherman's Drive"},{"Latitude":"26.5331817","Longitude":"-78.7444586","Name":"Fishing Hole Road Causeway"},{"Latitude":"25.0304598","Longitude":"-77.2661292","Name":"Flag End"},{"Latitude":"25.0323666","Longitude":"-77.3966871","Name":"Flamingo Close"},{"Latitude":"25.0808474","Longitude":"-77.3171580","Name":"Flamingo Drive"},{"Latitude":"26.5036777","Longitude":"-78.6597371","Name":"Flamingo Lane"},{"Latitude":"25.0350593","Longitude":"-77.3488434","Name":"Flax Terrace"},{"Latitude":"26.5321452","Longitude":"-78.6433488","Name":"Fleet Place"},{"Latitude":"25.0240391","Longitude":"-77.2854533","Name":"Fleming Avenue"},{"Latitude":"26.5285126","Longitude":"-78.6782990","Name":"Fleming Road"},{"Latitude":"25.0635007","Longitude":"-77.3472803","Name":"Fleming Street"},{"Latitude":"25.0684719","Longitude":"-77.3415671","Name":"Flint Street"},{"Latitude":"25.0488888","Longitude":"-77.3694618","Name":"Florence L. Nixon Crescent"},{"Latitude":"25.0503331","Longitude":"-77.3403221","Name":"Florida Court"},{"Latitude":"26.5058232","Longitude":"-78.6970563","Name":"Florin Drive East"},{"Latitude":"26.5058651","Longitude":"-78.6980544","Name":"Florin Drive West"},{"Latitude":"26.5040060","Longitude":"-78.6934352","Name":"Flying Fish Street"},{"Latitude":"25.0221522","Longitude":"-77.2885210","Name":"Fodder Lane"},{"Latitude":"26.5363470","Longitude":"-78.6448296","Name":"Foolers Green"},{"Latitude":"25.0696029","Longitude":"-77.3620359","Name":"Forbes Close"},{"Latitude":"25.0314982","Longitude":"-77.3456176","Name":"Forbes Court"},{"Latitude":"25.0376220","Longitude":"-77.3196911","Name":"Forbes Street"},{"Latitude":"26.5335209","Longitude":"-78.6106802","Name":"Fords Road"},{"Latitude":"26.5419684","Longitude":"-78.7025454","Name":"Forest Avenue"},{"Latitude":"25.0456639","Longitude":"-77.2732588","Name":"Forest Drive"},{"Latitude":"26.5565476","Longitude":"-77.1085194","Name":"Forest Drive Way"},{"Latitude":"26.5008968","Longitude":"-78.7058664","Name":"Forest Lane"},{"Latitude":"25.0247011","Longitude":"-77.3441171","Name":"Forest Street"},{"Latitude":"24.8985650","Longitude":"-77.9317129","Name":"Forfar Road"},{"Latitude":"25.0347189","Longitude":"-77.3339685","Name":"Forg Avenue"},{"Latitude":"26.5529583","Longitude":"-77.1076853","Name":"Forrest Drive"},{"Latitude":"25.0765660","Longitude":"-77.3562952","Name":"Fort Charlotte Circle"},{"Latitude":"26.5291819","Longitude":"-78.6149457","Name":"Fortune Bay Circle"},{"Latitude":"26.5457722","Longitude":"-78.5645660","Name":"Fortune Bay Drive"},{"Latitude":"26.5294728","Longitude":"-78.6122027","Name":"Fortune Bay Inlet"},{"Latitude":"26.5293801","Longitude":"-78.6141322","Name":"Fortune Bay Point"},{"Latitude":"25.0654110","Longitude":"-77.3593587","Name":"Foster Street"},{"Latitude":"25.0519977","Longitude":"-77.3449053","Name":"Fourth Street"},{"Latitude":"25.0696313","Longitude":"-77.3336257","Name":"Fourth Terrace"},{"Latitude":"25.1428025","Longitude":"-78.0046576","Name":"Fowler Street"},{"Latitude":"25.0480591","Longitude":"-77.2986065","Name":"Fox Alley"},{"Latitude":"25.0438628","Longitude":"-77.2945546","Name":"Fox Dale Drive"},{"Latitude":"25.0584308","Longitude":"-77.4720573","Name":"Fox Glove Close"},{"Latitude":"25.0446174","Longitude":"-77.2928643","Name":"Fox Hill Park Roundabout"},{"Latitude":"25.0451139","Longitude":"-77.2925530","Name":"Fox Hill Road"},{"Latitude":"26.6767178","Longitude":"-77.2816865","Name":"Fox Lane"},{"Latitude":"25.0191586","Longitude":"-77.2976254","Name":"Foxhill Avenue"},{"Latitude":"25.0508703","Longitude":"-77.3730550","Name":"Frances Ledee Road"},{"Latitude":"25.0436504","Longitude":"-77.2903555","Name":"Francis Avenue"},{"Latitude":"25.0415109","Longitude":"-77.3383885","Name":"Frangipani Avenue"},{"Latitude":"25.0395961","Longitude":"-77.2940192","Name":"Frank Edgecomb Street"},{"Latitude":"25.0086978","Longitude":"-77.5307104","Name":"Frank Watson Boulevard"},{"Latitude":"25.0680655","Longitude":"-77.3574633","Name":"Franklyn Avenue"},{"Latitude":"25.0434289","Longitude":"-77.3254927","Name":"Fraz Close"},{"Latitude":"25.0431889","Longitude":"-77.3250201","Name":"Frazier Road"},{"Latitude":"25.0780876","Longitude":"-77.3426677","Name":"Frederick Street"},{"Latitude":"25.0695372","Longitude":"-77.3141417","Name":"Free Town Lane"},{"Latitude":"25.0425782","Longitude":"-77.3208873","Name":"Freeman Smith Subdivision Road"},{"Latitude":"25.0300788","Longitude":"-77.2641718","Name":"Friele Terrace"},{"Latitude":"23.4900734","Longitude":"-75.7651392","Name":"Frigate Road"},{"Latitude":"26.5755118","Longitude":"-78.5774680","Name":"Fringe Close"},{"Latitude":"25.0634378","Longitude":"-77.3374677","Name":"Fritz Lane"},{"Latitude":"26.5241422","Longitude":"-78.6901842","Name":"Frobisher Circle"},{"Latitude":"26.5328214","Longitude":"-78.6879066","Name":"Frobisher Drive"},{"Latitude":"25.0622220","Longitude":"-77.3425565","Name":"Frogman Lane"},{"Latitude":"26.5355335","Longitude":"-78.6462136","Name":"Fulmar Lane"},{"Latitude":"26.5583512","Longitude":"-78.5998674","Name":"Fulston Court"},{"Latitude":"26.5582157","Longitude":"-78.6028218","Name":"Fulston Drive"},{"Latitude":"26.5583512","Longitude":"-78.5998674","Name":"Fulston Lane"},{"Latitude":"26.5591184","Longitude":"-78.6016059","Name":"Fulston Place"},{"Latitude":"26.4761769","Longitude":"-77.0919870","Name":"Fulton Drive"},{"Latitude":"26.5267533","Longitude":"-78.7120900","Name":"Fuschia Close"},{"Latitude":"24.1745397","Longitude":"-76.4416012","Name":"G & B Highway"},{"Latitude":"25.0416343","Longitude":"-77.3092599","Name":"Gabon End"},{"Latitude":"25.0215732","Longitude":"-77.3626054","Name":"Gaiety Way"},{"Latitude":"26.5547806","Longitude":"-78.6117777","Name":"Gainsborough Road"},{"Latitude":"25.0705801","Longitude":"-77.3319570","Name":"Gale Street"},{"Latitude":"26.5135049","Longitude":"-78.6733733","Name":"Galleon Avenue"},{"Latitude":"26.6689654","Longitude":"-77.2790954","Name":"Galleon Bay Drive"},{"Latitude":"25.0548443","Longitude":"-77.3108185","Name":"Galleon Cove"},{"Latitude":"23.4914284","Longitude":"-75.7670999","Name":"Galleon Road"},{"Latitude":"26.5570503","Longitude":"-78.5585946","Name":"Galleonbay Drive"},{"Latitude":"24.9981843","Longitude":"-77.4503618","Name":"Galley Road"},{"Latitude":"26.5341495","Longitude":"-78.6442671","Name":"Gallinule Drive"},{"Latitude":"25.0637625","Longitude":"-77.4748957","Name":"Gambier Close"},{"Latitude":"25.0631779","Longitude":"-77.4747688","Name":"Gambier Court"},{"Latitude":"26.5217278","Longitude":"-78.6762879","Name":"Gambier Drive"},{"Latitude":"26.5234599","Longitude":"-78.6692391","Name":"Gambier Loop"},{"Latitude":"25.0550150","Longitude":"-77.3757588","Name":"Gannet Road"},{"Latitude":"26.5616507","Longitude":"-78.5750668","Name":"Gantline Drive"},{"Latitude":"26.5632820","Longitude":"-78.5780771","Name":"Gantline Lane"},{"Latitude":"26.5311401","Longitude":"-78.6398269","Name":"Ganymede Drive"},{"Latitude":"25.0722052","Longitude":"-77.3430343","Name":"Gaol Alley"},{"Latitude":"25.0522578","Longitude":"-77.3078173","Name":"Garden Close"},{"Latitude":"25.0818235","Longitude":"-77.3074314","Name":"Garden Drive"},{"Latitude":"25.0409900","Longitude":"-77.3142667","Name":"Garden Road"},{"Latitude":"25.0518916","Longitude":"-77.3080921","Name":"Garden View Road"},{"Latitude":"25.0723890","Longitude":"-77.3153969","Name":"Garden Well Corner"},{"Latitude":"25.0335903","Longitude":"-77.2714582","Name":"Gardenia Terrace"},{"Latitude":"25.0463391","Longitude":"-77.3651171","Name":"Gardner Court"},{"Latitude":"25.0489865","Longitude":"-77.3724960","Name":"Gary V. Curry Street"},{"Latitude":"25.0340689","Longitude":"-77.2951830","Name":"Gatewood Lane"},{"Latitude":"25.0307767","Longitude":"-77.3530934","Name":"Gaudloupe Street"},{"Latitude":"25.0530274","Longitude":"-77.3018904","Name":"Gauge Way"},{"Latitude":"25.0367916","Longitude":"-77.3300724","Name":"Gaulin Avenue"},{"Latitude":"26.5490000","Longitude":"-78.6097302","Name":"Gedney Drive"},{"Latitude":"26.5353348","Longitude":"-78.6737467","Name":"Genip Street"},{"Latitude":"26.5452675","Longitude":"-77.0803181","Name":"George Albury Boulevard"},{"Latitude":"24.9711197","Longitude":"-76.1816526","Name":"George Street"},{"Latitude":"25.0402576","Longitude":"-77.3636623","Name":"Geralds Road"},{"Latitude":"25.0386513","Longitude":"-77.3458274","Name":"Geranium Avenue"},{"Latitude":"25.0113806","Longitude":"-77.5305296","Name":"Geranium Road"},{"Latitude":"25.0346820","Longitude":"-77.2857703","Name":"Ghana Circle"},{"Latitude":"25.0435518","Longitude":"-77.2850262","Name":"Gibbon Road"},{"Latitude":"25.0670830","Longitude":"-77.3381761","Name":"Gibbs Corner"},{"Latitude":"25.0745059","Longitude":"-77.3537609","Name":"Gibbs Lane"},{"Latitude":"26.5701866","Longitude":"-78.5743532","Name":"Gibraltar Close"},{"Latitude":"25.0229197","Longitude":"-77.2915732","Name":"Gibson Avenue"},{"Latitude":"25.4972256","Longitude":"-76.6353292","Name":"Gibson Street"},{"Latitude":"26.5235651","Longitude":"-78.6878069","Name":"Gilbert Crescent"},{"Latitude":"25.0342955","Longitude":"-77.3326252","Name":"Gilbert Street"},{"Latitude":"25.0318404","Longitude":"-77.3364077","Name":"Gilda Street"},{"Latitude":"26.5222072","Longitude":"-78.6809369","Name":"Gilford Crest"},{"Latitude":"26.5458577","Longitude":"-78.5980311","Name":"Gimbal Avenue"},{"Latitude":"25.0554751","Longitude":"-77.3756134","Name":"Gladiator Road"},{"Latitude":"25.0589968","Longitude":"-77.4732611","Name":"Gladiolus Road"},{"Latitude":"25.0328929","Longitude":"-77.3995604","Name":"Gladstone Road"},{"Latitude":"26.5208575","Longitude":"-78.6832653","Name":"Gladstone Terrace"},{"Latitude":"25.4374445","Longitude":"-76.6040414","Name":"Glass Window Bridge"},{"Latitude":"25.0166693","Longitude":"-77.3451054","Name":"Glen Court"},{"Latitude":"26.5405893","Longitude":"-78.6456477","Name":"Glenburn Drive"},{"Latitude":"26.5099252","Longitude":"-78.7264050","Name":"Glencoe Circle"},{"Latitude":"26.5090177","Longitude":"-78.7269692","Name":"Glencoe Drive"},{"Latitude":"25.0383476","Longitude":"-77.3118710","Name":"Gleniston Park Avenue"},{"Latitude":"25.0427251","Longitude":"-77.3180661","Name":"Gleniston Subdivision Road"},{"Latitude":"26.5529679","Longitude":"-78.6146168","Name":"Glethan Drive"},{"Latitude":"25.0716922","Longitude":"-77.3426723","Name":"Glinton Square"},{"Latitude":"25.0059665","Longitude":"-77.4872694","Name":"Gloria Ville Road"},{"Latitude":"26.5335682","Longitude":"-78.6965951","Name":"Gloucester Lane"},{"Latitude":"26.4933292","Longitude":"-78.6893494","Name":"Glover Lane"},{"Latitude":"25.5002181","Longitude":"-76.6354529","Name":"Goal Lane"},{"Latitude":"26.4758890","Longitude":"-77.0950016","Name":"Goats Lane"},{"Latitude":"25.0303501","Longitude":"-77.3623540","Name":"Godet Avenue"},{"Latitude":"25.0181132","Longitude":"-77.3885460","Name":"Godet Road"},{"Latitude":"26.5424272","Longitude":"-77.0747930","Name":"Godrey Cooper Avenue"},{"Latitude":"25.0403339","Longitude":"-77.3311422","Name":"Goggle Eye Road"},{"Latitude":"25.0342546","Longitude":"-77.3363735","Name":"Gold Coconut Court"},{"Latitude":"26.5007872","Longitude":"-78.6970322","Name":"Gold Coin Lane"},{"Latitude":"25.3351549","Longitude":"-76.4214028","Name":"Gold Lane"},{"Latitude":"25.0636182","Longitude":"-77.4689067","Name":"Goldcrest Close"},{"Latitude":"25.0210761","Longitude":"-77.3651077","Name":"Golden Gates Straight Court"},{"Latitude":"26.6066911","Longitude":"-78.3644795","Name":"Golden Grove"},{"Latitude":"26.5485711","Longitude":"-78.5983305","Name":"Golden Hind Drive"},{"Latitude":"26.5470308","Longitude":"-78.5980396","Name":"Golden Hind Lane"},{"Latitude":"25.0104903","Longitude":"-77.3902757","Name":"Golden Isles Road"},{"Latitude":"26.5239359","Longitude":"-78.6238251","Name":"Golden Point Circle"},{"Latitude":"26.5262309","Longitude":"-78.6230017","Name":"Golden Point Road"},{"Latitude":"25.0298593","Longitude":"-77.3542864","Name":"Golden Sun Drive"},{"Latitude":"25.0251425","Longitude":"-77.3645651","Name":"Goldenway Close"},{"Latitude":"25.0262781","Longitude":"-77.3625215","Name":"Goldenway Place"},{"Latitude":"25.0260502","Longitude":"-77.3158796","Name":"Golf Course Boulevard"},{"Latitude":"25.0450024","Longitude":"-77.3552059","Name":"Golf Court"},{"Latitude":"26.5082544","Longitude":"-78.7265106","Name":"Golf Lane"},{"Latitude":"26.5067973","Longitude":"-78.7227325","Name":"Golf View Lane"},{"Latitude":"25.0581802","Longitude":"-77.3026732","Name":"Goodman Close"},{"Latitude":"25.0316229","Longitude":"-77.3959180","Name":"Goombay Close"},{"Latitude":"26.5210326","Longitude":"-78.6962698","Name":"Goombay Drive"},{"Latitude":"25.0514528","Longitude":"-77.3915738","Name":"Gooseberry Close"},{"Latitude":"26.5351043","Longitude":"-78.6708537","Name":"Gooseberry Drive"},{"Latitude":"26.5190028","Longitude":"-78.6834289","Name":"Gordon Avenue"},{"Latitude":"25.0503685","Longitude":"-77.3111120","Name":"Gordon Place"},{"Latitude":"25.0168217","Longitude":"-77.3577597","Name":"Gospel Light Way"},{"Latitude":"26.5276429","Longitude":"-78.6817220","Name":"Gough Lane"},{"Latitude":"25.0719197","Longitude":"-77.4314716","Name":"Governor's Cay"},{"Latitude":"25.0503912","Longitude":"-77.3229613","Name":"Grace Avenue"},{"Latitude":"25.0573563","Longitude":"-77.3065718","Name":"Graham Avenue"},{"Latitude":"25.0455265","Longitude":"-77.3553848","Name":"Graham Drive"},{"Latitude":"26.5792879","Longitude":"-78.6096099","Name":"Grand Bahama Highway"},{"Latitude":"26.5331334","Longitude":"-78.7477647","Name":"Grand Bahamian Way"},{"Latitude":"26.6791389","Longitude":"-77.2664936","Name":"Grand Close"},{"Latitude":"25.0721409","Longitude":"-77.3597285","Name":"Granger Street"},{"Latitude":"25.5042754","Longitude":"-76.6387205","Name":"Grant Street"},{"Latitude":"26.5525577","Longitude":"-77.0978936","Name":"Granville Davis Place"},{"Latitude":"26.5332949","Longitude":"-78.6691022","Name":"Grapefruit Road"},{"Latitude":"26.5283940","Longitude":"-78.6092217","Name":"Grapling Close"},