[{"Latitude":"64.1704559","Longitude":"-51.7296695","Name":"400-rtalik"},{"Latitude":"65.4137282","Longitude":"-52.9000962","Name":"A. W. Nielsenip Aqq."},{"Latitude":"68.7105140","Longitude":"-52.8357749","Name":"Aadarujuup Aqquserna"},{"Latitude":"60.9085085","Longitude":"-46.0430479","Name":"Aalisartut Aqq."},{"Latitude":"65.4127461","Longitude":"-52.8941256","Name":"Aalisartut Aqqutaa"},{"Latitude":"64.1693777","Longitude":"-51.7282409","Name":"Aalisartut Aqqutaat"},{"Latitude":"66.9375589","Longitude":"-53.6707660","Name":"Aalup Aqquserna"},{"Latitude":"69.2512867","Longitude":"-53.5372195","Name":"Aammaruutissat Aqquserna"},{"Latitude":"60.9103356","Longitude":"-46.0579437","Name":"Aaninngivit"},{"Latitude":"60.9067190","Longitude":"-46.0511060","Name":"Aantuukuluup Aqq."},{"Latitude":"69.2194747","Longitude":"-51.0959169","Name":"Aaron Mathiesenip Aqq."},{"Latitude":"69.2199013","Longitude":"-51.0880746","Name":"Aaron Mathiesenip Aqquserna"},{"Latitude":"68.7437010","Longitude":"-52.3295101","Name":"Aataap Aqquserna"},{"Latitude":"69.2456338","Longitude":"-53.5436887","Name":"Aatuup Aqquserna"},{"Latitude":"69.2458924","Longitude":"-53.5417628","Name":"Adam Mølgaardip Aqquserna"},{"Latitude":"66.9351199","Longitude":"-53.6569453","Name":"Adammip Aqquserna"},{"Latitude":"64.1712964","Longitude":"-51.7276542","Name":"Adolf Jensensvej"},{"Latitude":"65.4134269","Longitude":"-52.8976607","Name":"Affarleq"},{"Latitude":"68.8241321","Longitude":"-51.1910674","Name":"Affarleq Uta"},{"Latitude":"65.4140340","Longitude":"-52.8982599","Name":"Ajoqinnguup Aqq."},{"Latitude":"64.1668039","Longitude":"-51.6809085","Name":"Akeq"},{"Latitude":"65.4134715","Longitude":"-52.9042590","Name":"Akerbut"},{"Latitude":"60.9131118","Longitude":"-46.0568977","Name":"Akillermiut"},{"Latitude":"69.2495857","Longitude":"-53.5355619","Name":"Akinguit Aqquserna"},{"Latitude":"69.2249239","Longitude":"-51.0888660","Name":"Akinnguata Qaava"},{"Latitude":"68.8245550","Longitude":"-51.1810203","Name":"Akulliit Aqquserna"},{"Latitude":"64.1861947","Longitude":"-51.7193132","Name":"Akunnerit"},{"Latitude":"60.9148760","Longitude":"-46.0458345","Name":"Akureyip Aqq."},{"Latitude":"69.2161779","Longitude":"-51.1008257","Name":"Alanngukasik"},{"Latitude":"69.2156827","Longitude":"-51.0958429","Name":"Alanngukasiup Qaava"},{"Latitude":"60.7238073","Longitude":"-46.0400456","Name":"Alanngunnguit"},{"Latitude":"60.9099902","Longitude":"-46.0442284","Name":"Alannguup Saqqaa"},{"Latitude":"60.7167174","Longitude":"-46.0229516","Name":"Alleriisanngivit"},{"Latitude":"69.2181703","Longitude":"-51.1123063","Name":"Alliit Aqqutaat"},{"Latitude":"70.4849120","Longitude":"-21.9667331","Name":"Aluarpiip Aqqulaa"},{"Latitude":"60.1442744","Longitude":"-45.2435833","Name":"Alugmio"},{"Latitude":"69.2473722","Longitude":"-53.5292155","Name":"Alunguupp Aqquserna"},{"Latitude":"69.2170096","Longitude":"-51.1161391","Name":"Amaasa Fly Aqq."},{"Latitude":"69.2506691","Longitude":"-53.5254177","Name":"Ammassavinnguaq"},{"Latitude":"69.2089448","Longitude":"-51.0898605","Name":"Ammukajaaq"},{"Latitude":"60.9121581","Longitude":"-46.0502499","Name":"Andaliarsip Aqq."},{"Latitude":"60.7195405","Longitude":"-46.0378660","Name":"Anders Olsensvej"},{"Latitude":"66.9396249","Longitude":"-53.6622799","Name":"Ane Sofiap Aqquserna"},{"Latitude":"69.2526627","Longitude":"-53.5204503","Name":"Angakkussarfiup Aqquserna"},{"Latitude":"68.7442807","Longitude":"-52.3308014","Name":"Anguasaap Aqquserna"},{"Latitude":"66.9507358","Longitude":"-53.6617580","Name":"Anguteeqqap Aqquserna"},{"Latitude":"65.4196451","Longitude":"-52.8847275","Name":"Annertusoq"},{"Latitude":"66.9484234","Longitude":"-53.6641740","Name":"Antuup Aqquserna"},{"Latitude":"69.2143624","Longitude":"-51.1145440","Name":"Apaajap Aqq."},{"Latitude":"67.0116798","Longitude":"-50.7336990","Name":"Aqisseq"},{"Latitude":"64.1941504","Longitude":"-51.6730842","Name":"Aqisseqarajooq"},{"Latitude":"66.9325317","Longitude":"-53.6742666","Name":"Aqissilik"},{"Latitude":"69.2460666","Longitude":"-53.5369647","Name":"Aqqalualip Aqquserna"},{"Latitude":"66.9365939","Longitude":"-53.6634989","Name":"Aqqaluartaap Aqquserna"},{"Latitude":"66.9401994","Longitude":"-53.6478042","Name":"Aqqartarfik"},{"Latitude":"69.2454494","Longitude":"-53.5414946","Name":"Aqqartariannguaq"},{"Latitude":"68.7101614","Longitude":"-52.8457957","Name":"Aqqulluk"},{"Latitude":"66.9405242","Longitude":"-53.6661395","Name":"Aqqup Aqquserna"},{"Latitude":"64.1682768","Longitude":"-51.7261151","Name":"Aqqusinersuaq"},{"Latitude":"69.2455552","Longitude":"-53.5300285","Name":"Aqqusinertaaq"},{"Latitude":"72.7864405","Longitude":"-56.1474565","Name":"Aquttup Aqq"},{"Latitude":"60.1372927","Longitude":"-45.2447100","Name":"Araatip Aqq."},{"Latitude":"69.2417242","Longitude":"-53.5392761","Name":"Arfvik"},{"Latitude":"64.1748826","Longitude":"-51.6723730","Name":"Asiarpak"},{"Latitude":"72.7836637","Longitude":"-56.1438637","Name":"Assakaatarfik"},{"Latitude":"66.9496155","Longitude":"-53.6666246","Name":"Asummiunut"},{"Latitude":"65.4169978","Longitude":"-52.8936589","Name":"Ataqqap Aqqutaa"},{"Latitude":"69.2155134","Longitude":"-51.0836703","Name":"Atersuit"},{"Latitude":"64.1878673","Longitude":"-51.7039035","Name":"Atertaq"},{"Latitude":"64.1930009","Longitude":"-51.7077279","Name":"Attartu"},{"Latitude":"68.8205215","Longitude":"-51.1940567","Name":"Atuarfip Aqquserna"},{"Latitude":"68.7044490","Longitude":"-52.8746587","Name":"Atuarfittaamut"},{"Latitude":"60.7207469","Longitude":"-46.0366582","Name":"Augo Lyngesvej"},{"Latitude":"64.1793366","Longitude":"-51.7352649","Name":"Augo Lyngip Aqqutaa"},{"Latitude":"64.1907230","Longitude":"-51.7105658","Name":"Avaalaaqiaq"},{"Latitude":"64.1895246","Longitude":"-51.7110882","Name":"Avalequt"},{"Latitude":"64.1890325","Longitude":"-51.7264522","Name":"Avallia"},{"Latitude":"64.1834489","Longitude":"-51.7383670","Name":"Avannamukaanut"},{"Latitude":"60.9123943","Longitude":"-46.0532124","Name":"Avannarlermut"},{"Latitude":"64.1809844","Longitude":"-51.7443985","Name":"Avannarliit"},{"Latitude":"67.0102565","Longitude":"-50.6979495","Name":"Balchen-ip Aqq."},{"Latitude":"64.1789315","Longitude":"-51.7448614","Name":"Ballesvej"},{"Latitude":"66.9405242","Longitude":"-53.6636531","Name":"Berthelsenip Aqquserna"},{"Latitude":"60.7195772","Longitude":"-46.0455678","Name":"Bjergsti"},{"Latitude":"67.0071405","Longitude":"-50.6978427","Name":"Bluie West Eight-ip Aqq."},{"Latitude":"65.4181221","Longitude":"-52.8975876","Name":"Bolethe Josefsenip Aqq."},{"Latitude":"66.9337351","Longitude":"-53.6560043","Name":"Bolethep Aqquserna"},{"Latitude":"64.1854379","Longitude":"-51.7033783","Name":"Borgm. Anniita"},{"Latitude":"64.1846850","Longitude":"-51.7003090","Name":"Borgmester Aniita Aqqusernga"},{"Latitude":"64.1790074","Longitude":"-51.7306619","Name":"Børnehjemsvej"},{"Latitude":"64.1834074","Longitude":"-51.7348132","Name":"C. E Janssensvej"},{"Latitude":"64.1751197","Longitude":"-51.7279859","Name":"C. P. Holbøllsvej"},{"Latitude":"60.9110215","Longitude":"-46.0409472","Name":"Carl Egede Aqq."},{"Latitude":"64.1736163","Longitude":"-51.7332272","Name":"Ceresvej"},{"Latitude":"60.1411773","Longitude":"-45.2424299","Name":"Chemnitzip Aqq."},{"Latitude":"66.9396784","Longitude":"-53.6714916","Name":"Christian 28-ip Aqq"},{"Latitude":"66.9312705","Longitude":"-53.6810913","Name":"Daarngup Aqquserna"},{"Latitude":"69.2502605","Longitude":"-53.5311879","Name":"Dalagip Aqquserna"},{"Latitude":"66.9421399","Longitude":"-53.6558265","Name":"Deichmannip Aqquserna"},{"Latitude":"66.9407328","Longitude":"-53.6526623","Name":"Dorthe Lennertip Aqquserna"},{"Latitude":"66.9377357","Longitude":"-53.6707084","Name":"Dortheeqqap Aqquserna"},{"Latitude":"64.1697881","Longitude":"-51.7361114","Name":"Dronning Ingridsvej"},{"Latitude":"60.7172526","Longitude":"-46.0421131","Name":"Duplexvej"},{"Latitude":"68.7047579","Longitude":"-52.8784310","Name":"Edv. Johansenip Aqquserna"},{"Latitude":"69.2207704","Longitude":"-51.1028463","Name":"Edvard Sivertsenip Aqq."},{"Latitude":"66.9308254","Longitude":"-53.6728584","Name":"Eliarsip Aqquserna"},{"Latitude":"69.2151744","Longitude":"-51.0881308","Name":"ElisabethThomsenip Aqq."},{"Latitude":"66.9470262","Longitude":"-53.6671440","Name":"Emiliap Aqquserna"},{"Latitude":"69.2161028","Longitude":"-51.1193757","Name":"Enok Kristiansenip Aqq."},{"Latitude":"64.1855515","Longitude":"-51.7211784","Name":"Eqalugalinnguit"},{"Latitude":"64.1878744","Longitude":"-51.7146977","Name":"Eqalugalinnguit / Lige tal"},{"Latitude":"64.1870959","Longitude":"-51.7123886","Name":"Eqalugalinnguit / Ulige tal"},{"Latitude":"60.9144619","Longitude":"-46.0597571","Name":"Eqortorfik"},{"Latitude":"65.4098410","Longitude":"-52.9113257","Name":"Eqqaavik"},{"Latitude":"66.9332286","Longitude":"-53.6672949","Name":"Eqqaavimmut Aqqut"},{"Latitude":"66.9301430","Longitude":"-53.6718249","Name":"Eqqavimmut Aqqut"},{"Latitude":"65.4179775","Longitude":"-52.8941059","Name":"Esbjergip Aqq."},{"Latitude":"69.2473332","Longitude":"-53.5350037","Name":"Estap Aqquserna"},{"Latitude":"64.1681966","Longitude":"-51.7381779","Name":"Evakueringsvej"},{"Latitude":"66.9375845","Longitude":"-53.6535976","Name":"Fahlip Aqquserna"},{"Latitude":"60.9146681","Longitude":"-46.0517819","Name":"Farip Aqq."},{"Latitude":"64.1814705","Longitude":"-51.7364827","Name":"Farip Aqqutaa"},{"Latitude":"64.1737374","Longitude":"-51.7287555","Name":"Fjeldvej"},{"Latitude":"64.1787434","Longitude":"-51.7288124","Name":"Flygården"},{"Latitude":"69.2199364","Longitude":"-51.0993421","Name":"Fredericiap Aqqutaa"},{"Latitude":"68.7097310","Longitude":"-52.8608590","Name":"Frederik Lyngesvej"},{"Latitude":"66.9352305","Longitude":"-53.6709305","Name":"Gerdap Aqquserna"},{"Latitude":"60.9141518","Longitude":"-46.0519106","Name":"Gertip Palasip Aqq."},{"Latitude":"64.1847206","Longitude":"-51.7365697","Name":"Gertrud Raskvej"},{"Latitude":"68.8221939","Longitude":"-51.1833579","Name":"Gl. Kirkevej"},{"Latitude":"60.9104295","Longitude":"-46.0404483","Name":"Gladsaxip Aqq."},{"Latitude":"66.9361010","Longitude":"-53.6665161","Name":"Glahnip Aqquserna"},{"Latitude":"67.0213321","Longitude":"-50.6586632","Name":"Golfertarfimmut"},{"Latitude":"60.1394842","Longitude":"-45.2443149","Name":"Gustav Holmip Aqq."},{"Latitude":"66.9382464","Longitude":"-53.6614707","Name":"Guutaap Aqquserna"},{"Latitude":"68.8218354","Longitude":"-51.1765533","Name":"H. Blicher Nielsensvej"},{"Latitude":"64.1775315","Longitude":"-51.7311960","Name":"H.J. Rinksvej"},{"Latitude":"69.2129941","Longitude":"-51.0936760","Name":"Hafnarfjodurip Aqq."},{"Latitude":"64.1780115","Longitude":"-51.7451594","Name":"Hans Egedesvej"},{"Latitude":"64.1696224","Longitude":"-51.6697869","Name":"Hans Lyngep Aqqusernga"},{"Latitude":"68.7079515","Longitude":"-52.8597273","Name":"Hans Lyngep aqquserna"},{"Latitude":"60.7198935","Longitude":"-46.0287022","Name":"Hastrupvej"},{"Latitude":"60.7184071","Longitude":"-46.0336483","Name":"Havnevej"},{"Latitude":"64.1810022","Longitude":"-51.7411405","Name":"Hellmannit Aqqutaat"},{"Latitude":"69.2460922","Longitude":"-53.5333840","Name":"Holten Møllerip Aqquserna"},{"Latitude":"69.2507261","Longitude":"-53.5192219","Name":"Høje Tåstrupip Aqquserna"},{"Latitude":"64.1768601","Longitude":"-51.7091664","Name":"Iggiaanut"},{"Latitude":"64.1691247","Longitude":"-51.6797897","Name":"Igimaq"},{"Latitude":"64.1913214","Longitude":"-51.7037520","Name":"Iiminaq"},{"Latitude":"64.1811366","Longitude":"-51.7464176","Name":"Iisaajap Aqq."},{"Latitude":"68.8252981","Longitude":"-51.1781013","Name":"Ikamiut Aqquserna"},{"Latitude":"68.7035188","Longitude":"-52.8796344","Name":"Ikerasannguaq"},{"Latitude":"68.7025522","Longitude":"-52.8802728","Name":"Ikerasannguup Qaava"},{"Latitude":"68.8258796","Longitude":"-51.1765158","Name":"Ilimanap Aqquserna"},{"Latitude":"60.1421489","Longitude":"-45.2428056","Name":"Ilivileq"},{"Latitude":"60.9096523","Longitude":"-46.0381711","Name":"Ilivilermiunut"},{"Latitude":"64.1762195","Longitude":"-51.7405186","Name":"Ilivinnguaq"},{"Latitude":"69.2157009","Longitude":"-51.1124714","Name":"Illumiut"},{"Latitude":"65.4211751","Longitude":"-52.8897187","Name":"Illunguit Qulaat"},{"Latitude":"65.4200438","Longitude":"-52.8959674","Name":"Iluliumaneq"},{"Latitude":"64.1746261","Longitude":"-51.7381687","Name":"Imaneq"},{"Latitude":"65.4145664","Longitude":"-52.9123295","Name":"Imeqarfik"},{"Latitude":"66.9924812","Longitude":"-50.6819272","Name":"Imeqarfimmut"},{"Latitude":"69.2132852","Longitude":"-51.0982222","Name":"Imersuarmut"},{"Latitude":"68.7083543","Longitude":"-52.8661772","Name":"Imiilersuup Aqqutaa"},{"Latitude":"68.8248854","Longitude":"-51.1825055","Name":"Iminnguaq"},{"Latitude":"60.9134927","Longitude":"-46.0475430","Name":"Indaleeqqap Aqq."},{"Latitude":"68.8257974","Longitude":"-51.1816383","Name":"Industrivej"},{"Latitude":"64.1852243","Longitude":"-51.7344170","Name":"Innannguaq"},{"Latitude":"64.1800381","Longitude":"-51.7376765","Name":"Inspektørbakken"},{"Latitude":"64.1782294","Longitude":"-51.7417305","Name":"Intaleeqqap Aqqutaa"},{"Latitude":"64.1673398","Longitude":"-51.7260781","Name":"Inussuk"},{"Latitude":"68.7095455","Longitude":"-52.8544890","Name":"Inussukasik"},{"Latitude":"68.7085532","Longitude":"-52.8543979","Name":"Inussussuaq"},{"Latitude":"60.9154294","Longitude":"-46.0465797","Name":"Inuusuttut Aqq."},{"Latitude":"60.9165996","Longitude":"-46.0550851","Name":"Ippiissarsivasik"},{"Latitude":"60.9153191","Longitude":"-46.0420824","Name":"Isaap Aqq."},{"Latitude":"60.1487776","Longitude":"-45.2457365","Name":"Isafjordurip Aqq."},{"Latitude":"66.9305286","Longitude":"-53.6645357","Name":"Isikkiviup Aqquserna"},{"Latitude":"69.2103169","Longitude":"-51.0803411","Name":"Issortarfik"},{"Latitude":"64.1816928","Longitude":"-51.7218661","Name":"Issortarfimmut"},{"Latitude":"60.1432150","Longitude":"-45.2343981","Name":"Isua"},{"Latitude":"66.9391523","Longitude":"-53.6410820","Name":"Ittukasiup Aqquserna"},{"Latitude":"68.7053636","Longitude":"-52.8820484","Name":"Itussaannguaq"},{"Latitude":"65.4157146","Longitude":"-52.8899628","Name":"Ivissuaateralaa"},{"Latitude":"60.7238664","Longitude":"-46.0414838","Name":"J H Lytzensvej"},{"Latitude":"66.9397462","Longitude":"-53.6744061","Name":"JM Jensenip Aqquserna"},{"Latitude":"66.9366225","Longitude":"-53.6438891","Name":"Jaakunnguup Aqquserna"},{"Latitude":"69.2477155","Longitude":"-53.5332176","Name":"Jaappip Aqquserna"},{"Latitude":"60.7159741","Longitude":"-46.0295284","Name":"Jaaraartooq"},{"Latitude":"69.2465976","Longitude":"-53.5303125","Name":"Jacob Danielsenip Aqquserna"},{"Latitude":"64.1648106","Longitude":"-51.7348228","Name":"Jagtvej"},{"Latitude":"66.9322579","Longitude":"-53.6808031","Name":"Jansenip Aqquserna"},{"Latitude":"69.2507031","Longitude":"-53.5390377","Name":"Jelimip Aqq."},{"Latitude":"64.1697092","Longitude":"-51.7396112","Name":"Jens Kreutzmannip Aqqutaa"},{"Latitude":"69.2177273","Longitude":"-51.1038819","Name":"Jens Olsenip Aqq."},{"Latitude":"65.4148799","Longitude":"-52.8970063","Name":"Jenseralaap Aqqutaa"},{"Latitude":"69.2458585","Longitude":"-53.5441396","Name":"Jensi Ajoqip Aqquserna"},{"Latitude":"60.7165166","Longitude":"-46.0399345","Name":"Johan Dahlsvej"},{"Latitude":"64.1790446","Longitude":"-51.7417631","Name":"John Møllerip Aqqutaa"},{"Latitude":"68.7091365","Longitude":"-52.8553385","Name":"Johs. Dorfsvej"},{"Latitude":"64.1815730","Longitude":"-51.7413966","Name":"Jonathan Petersen-ip Aqq."},{"Latitude":"64.1824253","Longitude":"-51.7399131","Name":"Jonathan Petersen-ip Aqqutaa"},{"Latitude":"66.9392070","Longitude":"-53.6869586","Name":"Jooruaqqap Aqquserna"},{"Latitude":"60.9121141","Longitude":"-46.0553118","Name":"Josefip Aqq."},{"Latitude":"60.9104815","Longitude":"-46.0581671","Name":"Joserfip Aqq."},{"Latitude":"69.2469742","Longitude":"-53.5429648","Name":"Juannguup Aqquserna"},{"Latitude":"66.9384757","Longitude":"-53.6704511","Name":"Jukkorsuup Aqquserna"},{"Latitude":"72.7857784","Longitude":"-56.1485439","Name":"Julius Olsvig-p Aqq"},{"Latitude":"68.8217038","Longitude":"-51.1936190","Name":"Juliusip Avquserna"},{"Latitude":"68.8215853","Longitude":"-51.1837978","Name":"Junnarsip Aqquserna"},{"Latitude":"68.7098748","Longitude":"-52.8670822","Name":"Juuliaannap aqquserna"},{"Latitude":"69.2164718","Longitude":"-51.1107427","Name":"Jørgen Brønlundip Aqq."},{"Latitude":"69.2200610","Longitude":"-51.1021114","Name":"Jørgen Guldagerip Aqqutaa"},{"Latitude":"69.2145892","Longitude":"-51.1183034","Name":"Jørgen Petersenip Aqq."},{"Latitude":"69.2172912","Longitude":"-51.1203665","Name":"Jørgen Sverdrupip Aqq."},{"Latitude":"66.9398207","Longitude":"-53.6659048","Name":"Kaaleeqqap Aqquserna"},{"Latitude":"69.2180958","Longitude":"-51.1000608","Name":"Kaaleeraq Poulsenip Aqq."},{"Latitude":"66.9345795","Longitude":"-53.6697051","Name":"Kaaliikassaap Aqquserna"},{"Latitude":"66.9368427","Longitude":"-53.6637819","Name":"Kaassasuup Aqquserna"},{"Latitude":"64.1944272","Longitude":"-51.7048501","Name":"Kakillarnat"},{"Latitude":"68.7049311","Longitude":"-52.8817104","Name":"Kalissip Aqquserna"},{"Latitude":"60.9088445","Longitude":"-46.0437171","Name":"Kalistap Aqq."},{"Latitude":"60.1418530","Longitude":"-45.2492866","Name":"Kalistorfip Aqqutaa"},{"Latitude":"68.7001745","Longitude":"-52.8758824","Name":"Kangerlunnguamut"},{"Latitude":"65.4144826","Longitude":"-52.8968614","Name":"Kangilliit Ataat"},{"Latitude":"64.1954384","Longitude":"-51.7084864","Name":"Kangillinnguit"},{"Latitude":"64.1937663","Longitude":"-51.7093241","Name":"Kanngillinnguanut"},{"Latitude":"66.9348462","Longitude":"-53.6728263","Name":"Kapornip Aqquserna"},{"Latitude":"60.9128738","Longitude":"-46.0426744","Name":"Karip Aqq."},{"Latitude":"64.1750204","Longitude":"-51.7479929","Name":"Karl Lundip Aqqutaa"},{"Latitude":"68.8211343","Longitude":"-51.1880755","Name":"Karl Olsvigsvej"},{"Latitude":"66.9372097","Longitude":"-53.6586328","Name":"Karl Sivertsenip Aqquserna"},{"Latitude":"68.7065068","Longitude":"-52.8800770","Name":"Katsiaap Aqquserna"},{"Latitude":"66.9755475","Longitude":"-50.9500778","Name":"Kellyville-ip Aqq."},{"Latitude":"64.1732665","Longitude":"-51.7410373","Name":"Kiassaateqarfik"},{"Latitude":"60.1370100","Longitude":"-45.2465901","Name":"Kiffat Aqq."},{"Latitude":"64.1933840","Longitude":"-51.7111219","Name":"Kigutaarnat"},{"Latitude":"60.9161798","Longitude":"-46.0422669","Name":"Kilaalaap Aqq."},{"Latitude":"60.7127629","Longitude":"-46.0519534","Name":"Kilaalaap Aqqutaa"},{"Latitude":"68.7046024","Longitude":"-52.8763799","Name":"Killerpaat"},{"Latitude":"64.1924447","Longitude":"-51.7129908","Name":"Kimmernat"},{"Latitude":"60.9941117","Longitude":"-45.4484515","Name":"King's Road"},{"Latitude":"60.7172993","Longitude":"-46.0436009","Name":"Kirkegårdsvej"},{"Latitude":"64.1744874","Longitude":"-51.7346314","Name":"Kirkevej"},{"Latitude":"67.0124285","Longitude":"-50.7312630","Name":"Kissaviarsuk"},{"Latitude":"64.1802772","Longitude":"-51.7286242","Name":"Kisserneqqortuunnguaq"},{"Latitude":"60.1423443","Longitude":"-45.2466072","Name":"Klapmydsvej"},{"Latitude":"60.9130127","Longitude":"-46.0455546","Name":"Kong Frederik IX Aqq."},{"Latitude":"66.9382335","Longitude":"-53.6731335","Name":"Kong Frederik IX's Plads"},{"Latitude":"64.1750210","Longitude":"-51.7331364","Name":"Kongevej"},{"Latitude":"69.2147559","Longitude":"-51.0976050","Name":"Konrad Chemnitzip Aqq."},{"Latitude":"68.7088787","Longitude":"-52.8700948","Name":"Koorunnguaq"},{"Latitude":"60.7158534","Longitude":"-46.0316765","Name":"Krudthusvej"},{"Latitude":"64.1734409","Longitude":"-51.6687588","Name":"Kuanneq"},{"Latitude":"64.1649241","Longitude":"-51.7323808","Name":"Kujallerpaat"},{"Latitude":"64.1648106","Longitude":"-51.7348228","Name":"Kujammukaanut"},{"Latitude":"66.9381548","Longitude":"-53.6406233","Name":"Kunuuteralaap Aqquserna"},{"Latitude":"69.2184792","Longitude":"-51.0981639","Name":"Kussangajaannguaq"},{"Latitude":"66.9310742","Longitude":"-53.6654951","Name":"Kussangasoq"},{"Latitude":"69.2147672","Longitude":"-51.1032696","Name":"Kuunnguarsuk"},{"Latitude":"69.2141880","Longitude":"-51.1008505","Name":"Kuunnguarsuup Qaava"},{"Latitude":"64.1766685","Longitude":"-51.7391011","Name":"Kuussuaq"},{"Latitude":"67.0060028","Longitude":"-50.6947786","Name":"Kuussuraq"},{"Latitude":"69.2518664","Longitude":"-53.5083160","Name":"Kuusuup Aqquserna"},{"Latitude":"65.4161431","Longitude":"-52.8962982","Name":"Kuuttartoq"},{"Latitude":"67.0084524","Longitude":"-50.6964362","Name":"Kyle-ip Aqq."},{"Latitude":"60.1387597","Longitude":"-45.2481137","Name":"Lanap Aqqutaa"},{"Latitude":"65.4146611","Longitude":"-52.8990984","Name":"Langeskovip Aqq."},{"Latitude":"66.9406629","Longitude":"-53.6675906","Name":"Larsikkut Aqquserna"},{"Latitude":"67.0079414","Longitude":"-50.6922268","Name":"Leclair-ip Aqq."},{"Latitude":"69.2190259","Longitude":"-51.0920008","Name":"Lisbeth Hindgaulip Aqq."},{"Latitude":"60.1451203","Longitude":"-45.2409224","Name":"Louis Andreassenip Aqq."},{"Latitude":"60.9116604","Longitude":"-46.0516500","Name":"Louisep Aqq."},{"Latitude":"68.8199463","Longitude":"-51.1839312","Name":"Ludvig Olsvigsvej"},{"Latitude":"64.1730075","Longitude":"-51.7466981","Name":"Lyngby-Tårbæksvej"},{"Latitude":"69.2525818","Longitude":"-53.5197181","Name":"M.P. Porsildip Aqquserna"},{"Latitude":"60.7202358","Longitude":"-46.0358478","Name":"Majavej"},{"Latitude":"60.9163318","Longitude":"-46.0535453","Name":"Makkorsip Aqq."},{"Latitude":"66.9378343","Longitude":"-53.6581078","Name":"Makkorsip Aqquserna"},{"Latitude":"64.1890268","Longitude":"-51.6959904","Name":"Manguaraq"},{"Latitude":"66.9388151","Longitude":"-53.6569602","Name":"Mannarsip Aqquserna"},{"Latitude":"64.1814391","Longitude":"-51.7132376","Name":"Manngua"},{"Latitude":"64.1912591","Longitude":"-51.6948635","Name":"Manutooq"},{"Latitude":"68.8176818","Longitude":"-51.1987168","Name":"Margrethevej"},{"Latitude":"67.0200858","Longitude":"-50.6924500","Name":"Marius Olsen-ip Aqq."},{"Latitude":"69.2137768","Longitude":"-51.0904748","Name":"Marius Sivertsenip Aqq."},{"Latitude":"69.2182523","Longitude":"-51.0933536","Name":"Marralinnquaq"},{"Latitude":"69.2142671","Longitude":"-51.1190419","Name":"Mathias Steenholdtip Aqq."},{"Latitude":"69.2146435","Longitude":"-51.1122598","Name":"Mathias Storchip Aqq."},{"Latitude":"60.1424453","Longitude":"-45.2373124","Name":"Mathiessenip Aqq."},{"Latitude":"68.7080852","Longitude":"-52.8669094","Name":"Matiitap akia"},{"Latitude":"60.9138133","Longitude":"-46.0472765","Name":"Matillittaaqqap Aqq."},{"Latitude":"65.4139601","Longitude":"-52.9112870","Name":"Minneralak"},{"Latitude":"69.2134082","Longitude":"-51.1269079","Name":"Minnerup Aqqutaa"},{"Latitude":"66.9380407","Longitude":"-53.6339671","Name":"Mittarfimmut"},{"Latitude":"69.2344401","Longitude":"-51.0721681","Name":"Mittarfimmut Aqqut"},{"Latitude":"66.9491292","Longitude":"-53.6622092","Name":"Mosesip Aqquserna"},{"Latitude":"66.9396753","Longitude":"-53.6671829","Name":"Mukkup Aqquserna"},{"Latitude":"64.1756470","Longitude":"-51.6728291","Name":"Musaq"},{"Latitude":"66.9429333","Longitude":"-53.6595567","Name":"Muunup Aqq"},{"Latitude":"67.0067537","Longitude":"-50.6982976","Name":"Myer-ip Aqq."},{"Latitude":"64.1700849","Longitude":"-51.7225928","Name":"Naalagaasat"},{"Latitude":"60.1432705","Longitude":"-45.2447971","Name":"Naanup Aqqutaa"},{"Latitude":"60.7212815","Longitude":"-46.0362764","Name":"Nakkartarfik"},{"Latitude":"68.7100855","Longitude":"-52.8413647","Name":"Nalunnguarfik"},{"Latitude":"66.9373299","Longitude":"-53.6534700","Name":"Nalunnguarfimmut"},{"Latitude":"69.2134310","Longitude":"-51.0896123","Name":"Nammaarfik"},{"Latitude":"60.9115424","Longitude":"-46.0530043","Name":"Napparsimavimmut"},{"Latitude":"72.7867558","Longitude":"-56.1550169","Name":"Napparsimviup Aqq"},{"Latitude":"60.9118965","Longitude":"-46.0590776","Name":"Narsaararmiit"},{"Latitude":"66.9313761","Longitude":"-53.6585425","Name":"Narsannguaq"},{"Latitude":"64.1833569","Longitude":"-51.7048011","Name":"Narsarviaq"},{"Latitude":"64.1817062","Longitude":"-51.7059427","Name":"Narsaviaq"},{"Latitude":"66.9332084","Longitude":"-53.6761110","Name":"Nasiffimmut"},{"Latitude":"64.1891400","Longitude":"-51.7002573","Name":"Natsiaq"},{"Latitude":"67.0102807","Longitude":"-50.7335056","Name":"Nattoralik"},{"Latitude":"64.1921384","Longitude":"-51.7089220","Name":"Nerngallaa"},{"Latitude":"60.9071771","Longitude":"-46.0521347","Name":"Niaqornaarsummut"},{"Latitude":"69.2094342","Longitude":"-51.0928959","Name":"Niels Dorphip Aqq."},{"Latitude":"68.7109650","Longitude":"-52.8633500","Name":"Niels Egedes Vej"},{"Latitude":"64.1677628","Longitude":"-51.7365987","Name":"Niels Hammekenip Aqq."},{"Latitude":"65.4198475","Longitude":"-52.8949535","Name":"Niels Lyngep Aqq."},{"Latitude":"64.1771573","Longitude":"-51.7112296","Name":"Nigerleq"},{"Latitude":"64.1682620","Longitude":"-51.7286576","Name":"Niisi"},{"Latitude":"66.9375747","Longitude":"-53.6689246","Name":"Nikkorsuit"},{"Latitude":"64.1799163","Longitude":"-51.7393952","Name":"Nikolaj Rosingip Aqqutaa"},{"Latitude":"66.9340839","Longitude":"-53.6785426","Name":"Nikorsuit"},{"Latitude":"60.7219589","Longitude":"-46.0378988","Name":"Nipinngaaq"},{"Latitude":"72.7814660","Longitude":"-56.1515280","Name":"Niuertup Ottup Aqq"},{"Latitude":"66.9319689","Longitude":"-53.6549012","Name":"Niviarsiaq"},{"Latitude":"60.7160362","Longitude":"-46.0415907","Name":"Niviiganngivit"},{"Latitude":"69.2208631","Longitude":"-51.0972952","Name":"Noah Mølgaardip Aqq."},{"Latitude":"64.1709944","Longitude":"-51.7407535","Name":"Noorlernut"},{"Latitude":"64.1684420","Longitude":"-51.6720590","Name":"Norsaq"},{"Latitude":"60.7250187","Longitude":"-46.0312615","Name":"Nuiariaq"},{"Latitude":"69.2190019","Longitude":"-51.1054837","Name":"Nuisarianguaq"},{"Latitude":"64.1862900","Longitude":"-51.7036096","Name":"Nukalloq"},{"Latitude":"68.8178881","Longitude":"-51.1932605","Name":"Nunguaq"},{"Latitude":"64.1845243","Longitude":"-51.7043778","Name":"Nunngarut"},{"Latitude":"64.1857825","Longitude":"-51.7092471","Name":"Nunniaffik"},{"Latitude":"60.9200704","Longitude":"-46.0644902","Name":"Nuugaarmiunut"},{"Latitude":"60.1423129","Longitude":"-45.2366993","Name":"Nuugaarsuk"},{"Latitude":"60.9078013","Longitude":"-46.0266754","Name":"Nuugaarsummut"},{"Latitude":"64.1673813","Longitude":"-51.7324180","Name":"Nuukullak"},{"Latitude":"68.8173920","Longitude":"-51.1966789","Name":"Nuungup Saqqaa"},{"Latitude":"64.1811206","Longitude":"-51.7104578","Name":"Nuussuaq"},{"Latitude":"69.2262070","Longitude":"-51.0917904","Name":"Nuussuataap Aqqutaa"},{"Latitude":"60.9128348","Longitude":"-46.0504543","Name":"Nuviarissamut"},{"Latitude":"68.8200627","Longitude":"-51.1905659","Name":"Ny Kirkevej"},{"Latitude":"60.7174050","Longitude":"-46.0403687","Name":"Ny Vestervej"},{"Latitude":"64.1824080","Longitude":"-51.7105509","Name":"Ole Brandtip Aqq."},{"Latitude":"65.4170271","Longitude":"-52.8948237","Name":"Ole Petersenip Aqq."},{"Latitude":"60.7188911","Longitude":"-46.0386718","Name":"Olesvej"},{"Latitude":"66.9346066","Longitude":"-53.6709782","Name":"Olip Aqquserna"},{"Latitude":"66.9383359","Longitude":"-53.6750669","Name":"Olsenip Aqquserna"},{"Latitude":"72.7845183","Longitude":"-56.1513395","Name":"Oqaluffiup Aqq"},{"Latitude":"69.2469580","Longitude":"-53.5357631","Name":"Oqaluffiup Aqquserna"},{"Latitude":"69.2200444","Longitude":"-51.1084434","Name":"Oqaluffiup Aqqutaa"},{"Latitude":"64.1795707","Longitude":"-51.7430834","Name":"Organip Aqqutaa"},{"Latitude":"66.9388691","Longitude":"-53.6750380","Name":"Orlaap Aqquserna"},{"Latitude":"60.9153359","Longitude":"-46.0505770","Name":"Ortooqqap Aqq."},{"Latitude":"68.8228799","Longitude":"-51.1818988","Name":"Ortup Aqquserna"},{"Latitude":"68.7093640","Longitude":"-52.8672889","Name":"Otto Rosingsvej"},{"Latitude":"69.2475483","Longitude":"-53.5353258","Name":"P. H. Rosendahlip Aqquserna"},{"Latitude":"64.1773821","Longitude":"-51.7407470","Name":"P.H. Lundsteenvej"},{"Latitude":"69.2473183","Longitude":"-53.5385498","Name":"P.H. Rosendahlip Aqquserna"},{"Latitude":"66.9387129","Longitude":"-53.6470556","Name":"Paamaap Kuua"},{"Latitude":"66.9338774","Longitude":"-53.6539007","Name":"Paarnaqutit"},{"Latitude":"64.1944812","Longitude":"-51.7092756","Name":"Paarnarluit"},{"Latitude":"64.1726278","Longitude":"-51.6760795","Name":"Paarnarluk"},{"Latitude":"64.1898848","Longitude":"-51.7134035","Name":"Paarnat"},{"Latitude":"64.1652640","Longitude":"-51.7376297","Name":"Paassaasivik"},{"Latitude":"60.9270652","Longitude":"-46.0493734","Name":"Panernamut"},{"Latitude":"68.7065638","Longitude":"-52.8622955","Name":"Parpup aqqutaa"},{"Latitude":"65.4200728","Longitude":"-52.8909928","Name":"Pavia Petersen-ip Aqqutaa"},{"Latitude":"69.2148939","Longitude":"-51.1172818","Name":"Pele Seblonip Aqq."},{"Latitude":"65.4117071","Longitude":"-52.9152685","Name":"Pelikaat"},{"Latitude":"60.7199529","Longitude":"-46.0305536","Name":"Peter Høghsvej"},{"Latitude":"68.7099865","Longitude":"-52.8631595","Name":"Peter Olsensvej"},{"Latitude":"69.2169969","Longitude":"-51.1033627","Name":"Peter Rosinngip Aqq."},{"Latitude":"68.7116406","Longitude":"-52.8450394","Name":"Peter Siegstadsvej"},{"Latitude":"64.1868230","Longitude":"-51.7051543","Name":"Peter Thårup Høeghip Aqq."},{"Latitude":"69.2451377","Longitude":"-53.5341587","Name":"Piitaaqqap Aqquserna"},{"Latitude":"69.2457900","Longitude":"-53.5465429","Name":"Piitarsuup Aqquserna"},{"Latitude":"64.1733379","Longitude":"-51.6766550","Name":"Piloq"},{"Latitude":"60.9099118","Longitude":"-46.0475703","Name":"Piniartut Aqq."},{"Latitude":"64.1678192","Longitude":"-51.6682135","Name":"Pisisseq"},{"Latitude":"69.2178759","Longitude":"-51.1079473","Name":"Pitoqqiup Aqquserna"},{"Latitude":"65.4105798","Longitude":"-52.8936948","Name":"Portusumut"},{"Latitude":"68.7095593","Longitude":"-52.8667078","Name":"Pottersvej"},{"Latitude":"68.7021869","Longitude":"-52.8772365","Name":"Poul Bjergsvej"},{"Latitude":"68.8201202","Longitude":"-51.1855970","Name":"Poul Egedesvej"},{"Latitude":"68.8219217","Longitude":"-51.1882617","Name":"Poul Hansensvej"},{"Latitude":"60.7237002","Longitude":"-46.0467175","Name":"Poul Ibsensvej"},{"Latitude":"60.1428511","Longitude":"-45.2488857","Name":"Prinsesse Benediktip Aqq."},{"Latitude":"64.1750925","Longitude":"-51.7304734","Name":"Prinsessevej"},{"Latitude":"60.7165432","Longitude":"-46.0265640","Name":"Prs. Benediktesvej"},{"Latitude":"60.9135697","Longitude":"-46.0392972","Name":"Puilasunnguup Aqq."},{"Latitude":"68.7144034","Longitude":"-52.8358091","Name":"Pujooriarfik"},{"Latitude":"68.7145908","Longitude":"-52.8236726","Name":"Pujooriarfiup saqqaa"},{"Latitude":"64.1850460","Longitude":"-51.6928186","Name":"Pukuffik"},{"Latitude":"64.1729562","Longitude":"-51.6743619","Name":"Pupik"},{"Latitude":"65.4113131","Longitude":"-52.8949571","Name":"Puulukilvik"},{"Latitude":"66.9398791","Longitude":"-53.6606117","Name":"Qaassuup Aqquserna"},{"Latitude":"60.7224143","Longitude":"-46.0349666","Name":"Qaava"},{"Latitude":"69.2446570","Longitude":"-53.5299829","Name":"Qaavaap Aqquserna"},{"Latitude":"68.8228154","Longitude":"-51.1910181","Name":"Qaerssorassat"},{"Latitude":"66.9342939","Longitude":"-53.6546825","Name":"Qajaasat"},{"Latitude":"64.1790063","Longitude":"-51.7456346","Name":"Qanniviit"},{"Latitude":"72.7834132","Longitude":"-56.1481672","Name":"Qaqeqqaarfik"},{"Latitude":"60.9141748","Longitude":"-46.0403201","Name":"Qaqqakasik"},{"Latitude":"66.9341346","Longitude":"-53.6798099","Name":"Qaqqaliartarfik"},{"Latitude":"60.9167273","Longitude":"-46.0435329","Name":"Qaqqamut"},{"Latitude":"68.7060016","Longitude":"-52.8704383","Name":"Qaqqannguamut"},{"Latitude":"69.2501994","Longitude":"-53.5350358","Name":"Qaqqannguup Aqquserna"},{"Latitude":"68.7058704","Longitude":"-52.8675053","Name":"Qaqqap Tunua"},{"Latitude":"69.2434781","Longitude":"-53.5465908","Name":"Qaqqaq"},{"Latitude":"64.1892953","Longitude":"-51.7037505","Name":"Qarsaalik"},{"Latitude":"64.1734258","Longitude":"-51.6697261","Name":"Qarsoq"},{"Latitude":"64.1691163","Longitude":"-51.7265422","Name":"Qasapi"},{"Latitude":"68.8184308","Longitude":"-51.1985523","Name":"Qasina"},{"Latitude":"64.1823002","Longitude":"-51.7028858","Name":"Qassuserfik"},{"Latitude":"64.1701013","Longitude":"-51.7322132","Name":"Qatserisut"},{"Latitude":"64.1874222","Longitude":"-51.6970148","Name":"Qattaaq"},{"Latitude":"66.9328233","Longitude":"-53.6832965","Name":"Qeeqi"},{"Latitude":"64.1798665","Longitude":"-51.7011559","Name":"Qeqertanut"},{"Latitude":"67.0089825","Longitude":"-50.6944031","Name":"Qeqqa"},{"Latitude":"64.1858299","Longitude":"-51.7215674","Name":"Qernertunnguanut"},{"Latitude":"69.2113093","Longitude":"-51.0898310","Name":"Qilakitsoq"},{"Latitude":"69.2102961","Longitude":"-51.0798985","Name":"Qilakitsup Alanngua"},{"Latitude":"64.1722841","Longitude":"-51.7304375","Name":"Qimerlua"},{"Latitude":"67.0052738","Longitude":"-50.7203925","Name":"Qimmeqarfik"},{"Latitude":"60.9100305","Longitude":"-46.0392869","Name":"Qimmersalik"},{"Latitude":"69.2187418","Longitude":"-51.1068802","Name":"Qingartaq"},{"Latitude":"61.2562556","Longitude":"-45.5037394","Name":"Qinngua Kangilleq Road"},{"Latitude":"64.1704845","Longitude":"-51.6670360","Name":"Qisisseq"},{"Latitude":"64.1905974","Longitude":"-51.7248295","Name":"Qiterlia"},{"Latitude":"66.9321581","Longitude":"-53.6754961","Name":"Qiviarfik"},{"Latitude":"66.9363420","Longitude":"-53.6615754","Name":"Qivittoqarfik"},{"Latitude":"69.2138886","Longitude":"-51.0817668","Name":"Qoororsuup Aqq."},{"Latitude":"61.2000050","Longitude":"-45.5308055","Name":"Qordlortoq Road"},{"Latitude":"64.1750576","Longitude":"-51.7294758","Name":"Quassunnguaq"},{"Latitude":"68.8182389","Longitude":"-51.1934125","Name":"Quikoq"},{"Latitude":"60.1399501","Longitude":"-45.2415135","Name":"Qujanarteq"},{"Latitude":"69.2113446","Longitude":"-51.0925588","Name":"Qullissat Aqq."},{"Latitude":"68.8257787","Longitude":"-51.1782213","Name":"Qullissat Aqquserna"},{"Latitude":"60.7246161","Longitude":"-46.0278066","Name":"Qummut"},{"Latitude":"64.1740537","Longitude":"-51.6762568","Name":"Qunguleq"},{"Latitude":"69.2174842","Longitude":"-51.1135717","Name":"Qupaloraarsuk"},{"Latitude":"67.0118626","Longitude":"-50.7298196","Name":"Qupaloraasuk"},{"Latitude":"64.1796359","Longitude":"-51.7437310","Name":"Rasmus Berthelsenip Aqqutaa"},{"Latitude":"64.1789652","Longitude":"-51.7398355","Name":"Rasmuuseeqqap Aqqutaa"},{"Latitude":"60.7239032","Longitude":"-46.0480302","Name":"Regner Bentsensvej"},{"Latitude":"60.7187089","Longitude":"-46.0294497","Name":"Ringvej"},{"Latitude":"60.1426825","Longitude":"-45.2410631","Name":"Roskildip Aqq."},{"Latitude":"68.8198027","Longitude":"-51.1959926","Name":"S.M. Saxtorphsvej"},{"Latitude":"66.9371546","Longitude":"-53.6652568","Name":"Saalimiip Aqquserna"},{"Latitude":"66.9378088","Longitude":"-53.6633840","Name":"Saamuap Aqquserna"},{"Latitude":"66.9332657","Longitude":"-53.6825037","Name":"Salliaq"},{"Latitude":"64.1809496","Longitude":"-51.7072021","Name":"Salliarnaq"},{"Latitude":"64.1744663","Longitude":"-51.7402023","Name":"Samuel Kleinschmidt Aqqutaa"},{"Latitude":"64.1678923","Longitude":"-51.7387716","Name":"Sanamut Aqqutaa"},{"Latitude":"66.9321148","Longitude":"-53.6700519","Name":"Sanasup Aqquserna"},{"Latitude":"60.7182404","Longitude":"-46.0309435","Name":"Sanatorievej"},{"Latitude":"64.1832447","Longitude":"-51.7091873","Name":"Sangoriaq"},{"Latitude":"69.2110332","Longitude":"-51.0927402","Name":"Sangusariaq"},{"Latitude":"64.1743379","Longitude":"-51.7289517","Name":"Sanilia"},{"Latitude":"68.7085105","Longitude":"-52.8640642","Name":"Sanipik"},{"Latitude":"68.7070959","Longitude":"-52.8702860","Name":"Sannerut"},{"Latitude":"64.1803158","Longitude":"-51.7097848","Name":"Saqqaa"},{"Latitude":"60.9086600","Longitude":"-46.0470876","Name":"Saqqannguaq"},{"Latitude":"64.1714745","Longitude":"-51.7416097","Name":"Saqqarlernut"},{"Latitude":"64.1700838","Longitude":"-51.7478685","Name":"Saqqarliit"},{"Latitude":"64.1780457","Longitude":"-51.7189634","Name":"Sarfaannguit"},{"Latitude":"64.1844650","Longitude":"-51.7008220","Name":"Sarfaarsuit"},{"Latitude":"68.8259883","Longitude":"-51.1810610","Name":"Sarqarssuaq"},{"Latitude":"66.9450492","Longitude":"-53.6685231","Name":"Sarsuatsiivinnguup Qulaa"},{"Latitude":"66.9451752","Longitude":"-53.6681906","Name":"Sarsuatsiivnnguup Qulaa"},{"Latitude":"60.9106802","Longitude":"-46.0381477","Name":"Savaasat Qaqqaat"},{"Latitude":"65.4185965","Longitude":"-52.8992306","Name":"Savinnut"},{"Latitude":"64.1734823","Longitude":"-51.6730344","Name":"Seernaq"},{"Latitude":"69.2122507","Longitude":"-51.0815942","Name":"Seersuit Aqq."},{"Latitude":"68.7076220","Longitude":"-52.8594978","Name":"Seqinniarfik"},{"Latitude":"69.2114180","Longitude":"-51.1051655","Name":"Sermermiut Aqq."},{"Latitude":"67.0420593","Longitude":"-50.5557776","Name":"Sermersuarmut"},{"Latitude":"60.1408440","Longitude":"-45.2463945","Name":"Serratit"},{"Latitude":"66.9499600","Longitude":"-53.6610211","Name":"Sethip Aqquserna"},{"Latitude":"69.2144212","Longitude":"-51.1205310","Name":"Severin Kristoffersenip Aqq."},{"Latitude":"64.1899487","Longitude":"-51.7010376","Name":"Siaqqinneq"},{"Latitude":"68.7046525","Longitude":"-52.8814851","Name":"Siatsivik"},{"Latitude":"69.2245158","Longitude":"-51.0916361","Name":"Siatsiviup Qaava"},{"Latitude":"66.9361799","Longitude":"-53.6705739","Name":"Siimuup Aqquserna"},{"Latitude":"64.1784995","Longitude":"-51.7100677","Name":"Sinarsua"},{"Latitude":"69.2477790","Longitude":"-53.5302937","Name":"Siorarsuit Aqquserna"},{"Latitude":"64.1719591","Longitude":"-51.7375036","Name":"Sipisaq Avannarleq"},{"Latitude":"64.1778474","Longitude":"-51.7255597","Name":"Sipisaq Kangilleq"},{"Latitude":"64.1815925","Longitude":"-51.7225725","Name":"Sipisaq Kanilleq"},{"Latitude":"64.1664646","Longitude":"-51.7321924","Name":"Sipisaq Kujalleq"},{"Latitude":"66.9318499","Longitude":"-53.6826697","Name":"Sisit"},{"Latitude":"69.2105637","Longitude":"-51.0953685","Name":"Sisorarfik"},{"Latitude":"68.7065511","Longitude":"-52.8752168","Name":"Sissakkooriaq"},{"Latitude":"60.7250475","Longitude":"-46.0299687","Name":"Sivinganikasia"},{"Latitude":"68.8239105","Longitude":"-51.1823707","Name":"Skivevej"},{"Latitude":"60.1400630","Longitude":"-45.2438121","Name":"Skolevej"},{"Latitude":"64.1705824","Longitude":"-51.7389470","Name":"Solbakken"},{"Latitude":"68.7086622","Longitude":"-52.8525652","Name":"Sondemut"},{"Latitude":"64.1839598","Longitude":"-51.7044797","Name":"Sorlaat"},{"Latitude":"64.1800686","Longitude":"-51.7346474","Name":"Stadionvej"},{"Latitude":"72.7877471","Longitude":"-56.1562792","Name":"Stauningip Aqq"},{"Latitude":"64.1812893","Longitude":"-51.7429069","Name":"Steffen Møllerip Aqqutaa"},{"Latitude":"60.7192841","Longitude":"-46.0416969","Name":"Storesøvej"},{"Latitude":"64.1782327","Longitude":"-51.7088263","Name":"Sullorsuaq"},{"Latitude":"64.1659836","Longitude":"-51.6758541","Name":"Suloraq"},{"Latitude":"68.7100133","Longitude":"-52.8556329","Name":"Suulunnguup Aqquserna"},{"Latitude":"65.4153932","Longitude":"-52.9012817","Name":"Suusaap Aqq."},{"Latitude":"64.1685378","Longitude":"-51.7325700","Name":"Svend Jungep Aqqutaa"},{"Latitude":"68.7042190","Longitude":"-52.8814047","Name":"Svendborgip Aqquserna"},{"Latitude":"68.7073175","Longitude":"-52.8733238","Name":"Talittarfittaaq"},{"Latitude":"67.0159267","Longitude":"-50.7277985","Name":"Tankeqarfiup Aqq."},{"Latitude":"60.7193383","Longitude":"-46.0310675","Name":"Taparfik"},{"Latitude":"65.4137360","Longitude":"-52.9092470","Name":"Tasersuaq"},{"Latitude":"66.9821570","Longitude":"-50.6955207","Name":"Tasersuatsiaq"},{"Latitude":"61.1534194","Longitude":"-45.5418268","Name":"Tasiusaq Road"},{"Latitude":"60.7184602","Longitude":"-46.0394427","Name":"Tassuunaaqqunnerit tamaasa"},{"Latitude":"60.7186113","Longitude":"-46.0397904","Name":"Tassuunaqqunnerit tamaasa"},{"Latitude":"72.7862469","Longitude":"-56.1521356","Name":"Tatsip Aqq"},{"Latitude":"66.9347243","Longitude":"-53.6668289","Name":"Tattoqeqarfik"},{"Latitude":"72.7863460","Longitude":"-56.1388487","Name":"Telebakken"},{"Latitude":"66.9371263","Longitude":"-53.6739776","Name":"Tiinasip Aqquserna"},{"Latitude":"65.4177833","Longitude":"-52.8908980","Name":"Tikaasaq"},{"Latitude":"64.1740140","Longitude":"-51.6727992","Name":"Tikiusaaq"},{"Latitude":"64.1885084","Longitude":"-51.7226694","Name":"Timerlia"},{"Latitude":"69.2422575","Longitude":"-53.5356152","Name":"Timuup Aqquserna"},{"Latitude":"64.1851133","Longitude":"-51.7097517","Name":"Tinupattak"},{"Latitude":"68.7128378","Longitude":"-52.8517373","Name":"Tipitooq"},{"Latitude":"68.7154889","Longitude":"-52.8213222","Name":"Tipitooq kangilleq"},{"Latitude":"68.7122950","Longitude":"-52.8532807","Name":"Tipituup qaava"},{"Latitude":"68.7117406","Longitude":"-52.8539059","Name":"Tipituup saqqaa"},{"Latitude":"66.9394925","Longitude":"-53.6804759","Name":"Tittup Aqquserna"},{"Latitude":"60.9152547","Longitude":"-46.0528668","Name":"Tobiap Aqq."},{"Latitude":"69.2173668","Longitude":"-51.0968688","Name":"Tobias Gabrielsenip aqq."},{"Latitude":"60.7182535","Longitude":"-46.0381219","Name":"Torvet"},{"Latitude":"60.7184141","Longitude":"-46.0364887","Name":"Torvevej"},{"Latitude":"60.1427043","Longitude":"-45.2392330","Name":"Tuapammiut"},{"Latitude":"66.9340150","Longitude":"-53.6844109","Name":"Tuapannguanut"},{"Latitude":"64.1755294","Longitude":"-51.7460551","Name":"Tuapannguit"},{"Latitude":"60.7242055","Longitude":"-46.0300492","Name":"Tuia"},{"Latitude":"60.1419398","Longitude":"-45.2472447","Name":"Tukingasoq"},{"Latitude":"67.0100739","Longitude":"-50.7363284","Name":"Tulagaq"},{"Latitude":"65.4169018","Longitude":"-52.8861326","Name":"Tunoqqusaaq"},{"Latitude":"60.1451203","Longitude":"-45.2409224","Name":"Tunuliaritseq"},{"Latitude":"61.1760677","Longitude":"-45.5004634","Name":"Tunulliarfik Fjord Road"},{"Latitude":"64.1936529","Longitude":"-51.7068232","Name":"Tupaarnat"},{"Latitude":"64.1894910","Longitude":"-51.7002448","Name":"Uiaq"},{"Latitude":"69.2163043","Longitude":"-51.1145032","Name":"Uiarsaariaq"},{"Latitude":"64.1750794","Longitude":"-51.6683125","Name":"Uiffak"},{"Latitude":"64.1755410","Longitude":"-51.6681675","Name":"Uiffak / Paarnarissoq"},{"Latitude":"66.9342556","Longitude":"-53.6745938","Name":"Uigulukutsut"},{"Latitude":"66.9311487","Longitude":"-53.6623790","Name":"Ujaqqerivik"},{"Latitude":"60.7196740","Longitude":"-46.0549389","Name":"Ujaqqerivimmut"},{"Latitude":"67.0072287","Longitude":"-50.7550639","Name":"Ujarannquunnikunut"},{"Latitude":"60.9122636","Longitude":"-46.0450669","Name":"Ujuaannaap Aqq."},{"Latitude":"72.7850339","Longitude":"-56.1510748","Name":"Ukuarluup Aqq"},{"Latitude":"60.1385505","Longitude":"-45.2408912","Name":"Ulissannguit"},{"Latitude":"66.9389080","Longitude":"-53.6769421","Name":"Umiarsualivimmut"},{"Latitude":"66.9940817","Longitude":"-50.8350771","Name":"Umiarsualiviup Aqq."},{"Latitude":"66.9314255","Longitude":"-53.6723533","Name":"Umiivitsiaq"},{"Latitude":"64.1702866","Longitude":"-51.6696980","Name":"Unaaq"},{"Latitude":"65.4112767","Longitude":"-52.9247968","Name":"Ungusivik"},{"Latitude":"65.4097484","Longitude":"-52.9125568","Name":"Unnuartooq"},{"Latitude":"69.2432623","Longitude":"-53.5351142","Name":"Upernaviup Aqquserna"},{"Latitude":"64.1825857","Longitude":"-51.7417062","Name":"Uulineq"},{"Latitude":"60.7186819","Longitude":"-46.0344178","Name":"Vatikanbakken"},{"Latitude":"60.7177395","Longitude":"-46.0421745","Name":"Vestervej"},{"Latitude":"60.7185547","Longitude":"-46.0546230","Name":"Walsøvej"},{"Latitude":"68.7109522","Longitude":"-52.8450929","Name":"Wille Brandtsvej"},{"Latitude":"66.9406852","Longitude":"-53.6624362","Name":"Zionip Aqquserna"},{"Latitude":"60.7236680","Longitude":"-46.0446510","Name":"kamikoorfik"}]