[{"Latitude":"46.7764606","Longitude":"-56.1808792","Name":"Avenue du Commandant Roger Birot"},{"Latitude":"46.7867664","Longitude":"-56.1697616","Name":"Boulevard Constant Colmay"},{"Latitude":"46.7790588","Longitude":"-56.1850302","Name":"Boulevard Jean Levasseur"},{"Latitude":"46.7743383","Longitude":"-56.1777278","Name":"Boulevard Louis Héron de Villefosse"},{"Latitude":"46.7745514","Longitude":"-56.1701643","Name":"Boulevard Port-en-Bessin"},{"Latitude":"46.7869252","Longitude":"-56.1695939","Name":"Boulevard Thélot"},{"Latitude":"47.0979574","Longitude":"-56.3736488","Name":"Boulevard des Terre-Neuvas"},{"Latitude":"46.7743924","Longitude":"-56.1773951","Name":"Carrefour François René de Chateaubriand"},{"Latitude":"46.7851000","Longitude":"-56.1703685","Name":"Chemin des Contrebandiers"},{"Latitude":"46.7829869","Longitude":"-56.1712410","Name":"Couline des Graviers"},{"Latitude":"46.7784435","Longitude":"-56.1789975","Name":"Impasse Butte aux Pilotes"},{"Latitude":"46.7786786","Longitude":"-56.1781049","Name":"Impasse Marguerite"},{"Latitude":"46.7761667","Longitude":"-56.1790768","Name":"Impasse de Verdun"},{"Latitude":"46.7816944","Longitude":"-56.1711950","Name":"Impasse de l'Anse"},{"Latitude":"46.7828258","Longitude":"-56.1701321","Name":"Impasse de la Biscuiterie"},{"Latitude":"46.7853879","Longitude":"-56.1760353","Name":"Impasse de la Montagne"},{"Latitude":"46.7729686","Longitude":"-56.1778737","Name":"Impasse de la Prohibition"},{"Latitude":"46.7836024","Longitude":"-56.1708958","Name":"Impasse de la Tonnellerie"},{"Latitude":"46.7780732","Longitude":"-56.1757961","Name":"Impasse des Basques"},{"Latitude":"46.7717673","Longitude":"-56.1750339","Name":"Impasse des Fécampois"},{"Latitude":"46.7678544","Longitude":"-56.1815058","Name":"Impasse du Ranch"},{"Latitude":"46.7860856","Longitude":"-56.1701835","Name":"Passage Ernest Petipas"},{"Latitude":"46.7691328","Longitude":"-56.1775410","Name":"Place H. R. Gautier"},{"Latitude":"46.7802826","Longitude":"-56.1775996","Name":"Place Henri Claireaux"},{"Latitude":"47.1002977","Longitude":"-56.3783978","Name":"Place des Ardilliers"},{"Latitude":"46.7801187","Longitude":"-56.1714616","Name":"Place du Lieutenant-Colonel Pigeau"},{"Latitude":"46.8956980","Longitude":"-56.3011236","Name":"Pont Bellai"},{"Latitude":"46.7666303","Longitude":"-56.2331812","Name":"Route Anse à Brossard"},{"Latitude":"46.7762883","Longitude":"-56.1905685","Name":"Route Iphigénie"},{"Latitude":"46.7735741","Longitude":"-56.1771613","Name":"Route de Galantry"},{"Latitude":"46.7631340","Longitude":"-56.1895232","Name":"Route de Ravenel"},{"Latitude":"46.7836584","Longitude":"-56.1884022","Name":"Route de l'Anse à Pierre"},{"Latitude":"46.7676786","Longitude":"-56.1551955","Name":"Route de l'Incinérateur"},{"Latitude":"46.7714699","Longitude":"-56.1857973","Name":"Route de l'Étang du Milieu"},{"Latitude":"46.7687817","Longitude":"-56.2093520","Name":"Route de la Bellone"},{"Latitude":"46.7675194","Longitude":"-56.2134402","Name":"Route de la Cléopâtre"},{"Latitude":"46.7654783","Longitude":"-56.2291807","Name":"Route de la Plage"},{"Latitude":"46.7749732","Longitude":"-56.1605678","Name":"Route de la Point à Philibert"},{"Latitude":"46.7658964","Longitude":"-56.1789895","Name":"Route de la Pointe Blanche"},{"Latitude":"46.7694594","Longitude":"-56.1827418","Name":"Route de la Pérouse"},{"Latitude":"47.1144066","Longitude":"-56.3904243","Name":"Route de la Quarantaine"},{"Latitude":"46.7636860","Longitude":"-56.2004143","Name":"Route du Cap aux Basques"},{"Latitude":"47.1152244","Longitude":"-56.3816696","Name":"Route du Fond de l'Anse"},{"Latitude":"46.7656430","Longitude":"-56.2371887","Name":"Route du Gabion"},{"Latitude":"47.1025216","Longitude":"-56.3832197","Name":"Route du Stade"},{"Latitude":"46.7844217","Longitude":"-56.1711729","Name":"Rue Abbé Pierre Gervain"},{"Latitude":"46.7770190","Longitude":"-56.1810558","Name":"Rue Albert Briand"},{"Latitude":"46.7779143","Longitude":"-56.1769934","Name":"Rue Amiral Muselier"},{"Latitude":"46.7873585","Longitude":"-56.1712228","Name":"Rue Ange Gautier"},{"Latitude":"47.0977448","Longitude":"-56.3747888","Name":"Rue Ange Gelos"},{"Latitude":"47.0964462","Longitude":"-56.3725623","Name":"Rue Anne Claire du Pont de Renon"},{"Latitude":"47.0984424","Longitude":"-56.3810442","Name":"Rue Antoine Soucy"},{"Latitude":"47.1025470","Longitude":"-56.3789991","Name":"Rue Auguste Maufroy"},{"Latitude":"47.0966332","Longitude":"-56.3738155","Name":"Rue Baron de l'Espérance"},{"Latitude":"46.7801775","Longitude":"-56.1758348","Name":"Rue Beaussant"},{"Latitude":"46.7808523","Longitude":"-56.1718362","Name":"Rue Borda"},{"Latitude":"46.7859278","Longitude":"-56.1728223","Name":"Rue Bourilhon"},{"Latitude":"46.7802730","Longitude":"-56.1794072","Name":"Rue Boursaint"},{"Latitude":"46.7846476","Longitude":"-56.1723278","Name":"Rue Brue"},{"Latitude":"46.7850872","Longitude":"-56.1724976","Name":"Rue Bruslé"},{"Latitude":"46.7683390","Longitude":"-56.1830491","Name":"Rue Calmette"},{"Latitude":"46.7706937","Longitude":"-56.1824749","Name":"Rue Cavalier de la Salle"},{"Latitude":"46.7719340","Longitude":"-56.1803971","Name":"Rue Christophe Colomb"},{"Latitude":"46.7797604","Longitude":"-56.1777799","Name":"Rue Colbert"},{"Latitude":"46.7772224","Longitude":"-56.1824627","Name":"Rue Commandant Blaison"},{"Latitude":"46.7840930","Longitude":"-56.1731674","Name":"Rue Docteur Dunan"},{"Latitude":"46.7678097","Longitude":"-56.1845808","Name":"Rue Dominique Antoine Laurelli"},{"Latitude":"47.0999573","Longitude":"-56.3803129","Name":"Rue Dominique Brorota"},{"Latitude":"46.7825322","Longitude":"-56.1781770","Name":"Rue Ducouédic"},{"Latitude":"47.0987466","Longitude":"-56.3754121","Name":"Rue Ernest Petitpas"},{"Latitude":"47.0963932","Longitude":"-56.3724480","Name":"Rue Eugène Autin"},{"Latitude":"46.7820237","Longitude":"-56.1796666","Name":"Rue Eugène Grimaux"},{"Latitude":"46.7705937","Longitude":"-56.1714879","Name":"Rue Francis Leroux"},{"Latitude":"46.7810450","Longitude":"-56.1800078","Name":"Rue François Planté"},{"Latitude":"46.7690386","Longitude":"-56.1812209","Name":"Rue Frère Berger"},{"Latitude":"47.0996955","Longitude":"-56.3764495","Name":"Rue Gabriel Oyarzabal"},{"Latitude":"46.7852244","Longitude":"-56.1744050","Name":"Rue Georges Daguerre"},{"Latitude":"47.1012076","Longitude":"-56.3777428","Name":"Rue Georges Girardin"},{"Latitude":"46.7683038","Longitude":"-56.1786374","Name":"Rue Georges Landry"},{"Latitude":"46.7684037","Longitude":"-56.1794872","Name":"Rue Georges Messanot"},{"Latitude":"47.1005070","Longitude":"-56.3765449","Name":"Rue Gilles Detcheverry"},{"Latitude":"46.7830168","Longitude":"-56.1741621","Name":"Rue Gloanec"},{"Latitude":"46.7826465","Longitude":"-56.1726283","Name":"Rue Gouverneur d'Angeac"},{"Latitude":"46.7806883","Longitude":"-56.1725271","Name":"Rue Général Leclerc"},{"Latitude":"46.7781671","Longitude":"-56.1765896","Name":"Rue Henri Dagort"},{"Latitude":"46.7751741","Longitude":"-56.1807263","Name":"Rue Henri Morazé"},{"Latitude":"46.7865083","Longitude":"-56.1730432","Name":"Rue Hoche"},{"Latitude":"46.7796337","Longitude":"-56.1761170","Name":"Rue Jacques Cartier"},{"Latitude":"46.7833066","Longitude":"-56.1702781","Name":"Rue Jacques Debon"},{"Latitude":"46.7703984","Longitude":"-56.1687445","Name":"Rue Jacques Pépin le Halleur"},{"Latitude":"47.1046219","Longitude":"-56.3806997","Name":"Rue Jacques Vigneau"},{"Latitude":"46.7706239","Longitude":"-56.1808616","Name":"Rue Jean Cabot"},{"Latitude":"46.7710416","Longitude":"-56.1814406","Name":"Rue Jean Charcot"},{"Latitude":"46.7690067","Longitude":"-56.1816860","Name":"Rue Jean Déminiac"},{"Latitude":"46.7737947","Longitude":"-56.1673173","Name":"Rue Jean Récher"},{"Latitude":"46.7802201","Longitude":"-56.1767121","Name":"Rue Joseph Lehuenen"},{"Latitude":"46.7830896","Longitude":"-56.1761553","Name":"Rue Louis Pasteur"},{"Latitude":"46.7762432","Longitude":"-56.1859057","Name":"Rue Léon Leborgne"},{"Latitude":"46.7791321","Longitude":"-56.1811906","Name":"Rue Marceau"},{"Latitude":"46.7798028","Longitude":"-56.1747466","Name":"Rue Marcel Bonin"},{"Latitude":"46.7694089","Longitude":"-56.1766518","Name":"Rue Marcel Girardin"},{"Latitude":"46.7775053","Longitude":"-56.1798053","Name":"Rue Marguerite"},{"Latitude":"46.7699095","Longitude":"-56.1769956","Name":"Rue Marie Cormier"},{"Latitude":"46.7813621","Longitude":"-56.1743665","Name":"Rue Maréchal Foch"},{"Latitude":"46.7823584","Longitude":"-56.1759090","Name":"Rue Maréchal de Lattre de Tassigny"},{"Latitude":"46.7783660","Longitude":"-56.1776639","Name":"Rue Mathurin Le Hors"},{"Latitude":"46.7802730","Longitude":"-56.1794072","Name":"Rue Max Leban"},{"Latitude":"46.7842527","Longitude":"-56.1746604","Name":"Rue Maître Georges Lefêvre"},{"Latitude":"46.7761902","Longitude":"-56.1791884","Name":"Rue Molière"},{"Latitude":"46.7674488","Longitude":"-56.1829134","Name":"Rue Paul Audouze"},{"Latitude":"46.7793211","Longitude":"-56.1807958","Name":"Rue Paul Bert"},{"Latitude":"46.7835208","Longitude":"-56.1763146","Name":"Rue Paul Lebailly"},{"Latitude":"46.7786081","Longitude":"-56.1740623","Name":"Rue Paul Mazier"},{"Latitude":"47.1003503","Longitude":"-56.3761931","Name":"Rue Pierre Avril"},{"Latitude":"46.7686422","Longitude":"-56.1839176","Name":"Rue Pierre Frioult"},{"Latitude":"46.7698386","Longitude":"-56.1772083","Name":"Rue Pierre Hélène"},{"Latitude":"46.7797294","Longitude":"-56.1728942","Name":"Rue Pierre Lespagnol"},{"Latitude":"46.7692066","Longitude":"-56.1799780","Name":"Rue Pierre Perrin"},{"Latitude":"47.0995191","Longitude":"-56.3817076","Name":"Rue Pomme de Pres"},{"Latitude":"46.7761964","Longitude":"-56.1772166","Name":"Rue Port-en-Bessin"},{"Latitude":"46.7692595","Longitude":"-56.1802269","Name":"Rue Père Palussière"},{"Latitude":"46.7850872","Longitude":"-56.1724976","Name":"Rue René Autin"},{"Latitude":"46.7836739","Longitude":"-56.1730231","Name":"Rue Richard Bartlett"},{"Latitude":"46.7786964","Longitude":"-56.1748367","Name":"Rue Saint-Jean"},{"Latitude":"46.7844217","Longitude":"-56.1711729","Name":"Rue Saint-Malo"},{"Latitude":"46.7812572","Longitude":"-56.1723526","Name":"Rue Saint-Olivier"},{"Latitude":"47.0965049","Longitude":"-56.3768474","Name":"Rue Saint-Pierre"},{"Latitude":"46.7766303","Longitude":"-56.1792517","Name":"Rue Saint-Servan"},{"Latitude":"46.7786081","Longitude":"-56.1740623","Name":"Rue Sauveur Ledret"},{"Latitude":"47.1057845","Longitude":"-56.3823820","Name":"Rue Sourdeval"},{"Latitude":"46.7753167","Longitude":"-56.1799717","Name":"Rue Surcouf"},{"Latitude":"46.7811924","Longitude":"-56.1727178","Name":"Rue Sœur Césarine"},{"Latitude":"46.7706239","Longitude":"-56.1808616","Name":"Rue Vasco de Gama"},{"Latitude":"46.7761518","Longitude":"-56.1781727","Name":"Rue Verdun"},{"Latitude":"47.1025473","Longitude":"-56.3803525","Name":"Rue Victor Briand"},{"Latitude":"46.7773718","Longitude":"-56.1849701","Name":"Rue d'Alsace"},{"Latitude":"46.7769192","Longitude":"-56.1848585","Name":"Rue d'Anjou"},{"Latitude":"46.7680778","Longitude":"-56.1839777","Name":"Rue d'Aquitaine"},{"Latitude":"46.7678393","Longitude":"-56.1831436","Name":"Rue de Bourgogne"},{"Latitude":"46.7770810","Longitude":"-56.1797643","Name":"Rue de Chanzy"},{"Latitude":"46.7801775","Longitude":"-56.1758348","Name":"Rue de Granville"},{"Latitude":"46.7782452","Longitude":"-56.1834412","Name":"Rue de L'Occitanie"},{"Latitude":"46.7773777","Longitude":"-56.1840689","Name":"Rue de Normandie"},{"Latitude":"46.7824734","Longitude":"-56.1700006","Name":"Rue de Paris"},{"Latitude":"46.7711228","Longitude":"-56.1718140","Name":"Rue de Picardie"},{"Latitude":"46.7774776","Longitude":"-56.1858027","Name":"Rue de Shédiac"},{"Latitude":"46.7819606","Longitude":"-56.1695399","Name":"Rue de l'Anse"},{"Latitude":"46.7824410","Longitude":"-56.1798297","Name":"Rue de l'Espérance"},{"Latitude":"46.7867052","Longitude":"-56.1704016","Name":"Rue de l'Étang Rodrigue"},{"Latitude":"46.7795268","Longitude":"-56.1793074","Name":"Rue de la Fauvette"},{"Latitude":"46.7718987","Longitude":"-56.1779166","Name":"Rue de la Ferme"},{"Latitude":"46.7715343","Longitude":"-56.1784488","Name":"Rue de la Grange"},{"Latitude":"46.7813486","Longitude":"-56.1775017","Name":"Rue de la Laiterie"},{"Latitude":"46.7858609","Longitude":"-56.1710130","Name":"Rue de la Rade"},{"Latitude":"46.7790842","Longitude":"-56.1732469","Name":"Rue de la Roncière"},{"Latitude":"46.7716811","Longitude":"-56.1737997","Name":"Rue de la Schistière"},{"Latitude":"46.7699095","Longitude":"-56.1769956","Name":"Rue de la Tannerie"},{"Latitude":"46.7765883","Longitude":"-56.1801143","Name":"Rue des Antilles"},{"Latitude":"47.1034505","Longitude":"-56.3808679","Name":"Rue des Ateliers"},{"Latitude":"47.0982929","Longitude":"-56.3795597","Name":"Rue des Basques"},{"Latitude":"46.7743227","Longitude":"-56.1640013","Name":"Rue des Boyarts"},{"Latitude":"47.0970890","Longitude":"-56.3737211","Name":"Rue des Bretons"},{"Latitude":"46.7735901","Longitude":"-56.1663092","Name":"Rue des Calfats"},{"Latitude":"46.7837573","Longitude":"-56.1698131","Name":"Rue des Capelaniers"},{"Latitude":"46.7763230","Longitude":"-56.1822396","Name":"Rue des Charentes"},{"Latitude":"46.7761702","Longitude":"-56.1863680","Name":"Rue des Charpentiers"},{"Latitude":"47.0974922","Longitude":"-56.3744238","Name":"Rue des Embruns"},{"Latitude":"46.7795972","Longitude":"-56.1736240","Name":"Rue des Français Libres"},{"Latitude":"46.7738080","Longitude":"-56.1663155","Name":"Rue des Graves"},{"Latitude":"47.1048898","Longitude":"-56.3942083","Name":"Rue des Iles de la Madeleine"},{"Latitude":"47.1032607","Longitude":"-56.3797470","Name":"Rue des Marins"},{"Latitude":"46.7759468","Longitude":"-56.1860505","Name":"Rue des Maçons"},{"Latitude":"46.7756765","Longitude":"-56.1855269","Name":"Rue des Menuisiers"},{"Latitude":"46.7782007","Longitude":"-56.1774189","Name":"Rue des Miquelonnais"},{"Latitude":"46.7754262","Longitude":"-56.1876137","Name":"Rue des Métiers"},{"Latitude":"47.1042684","Longitude":"-56.3833398","Name":"Rue des Normands"},{"Latitude":"46.7843144","Longitude":"-56.1704825","Name":"Rue des Petits Pêcheurs"},{"Latitude":"46.7711228","Longitude":"-56.1718140","Name":"Rue des Prairies"},{"Latitude":"46.7726256","Longitude":"-56.1670618","Name":"Rue des Ramendeurs"},{"Latitude":"46.7738609","Longitude":"-56.1641783","Name":"Rue des Salines"},{"Latitude":"46.7759140","Longitude":"-56.1879227","Name":"Rue des Transporteurs"},{"Latitude":"46.7827236","Longitude":"-56.1782547","Name":"Rue des Écoles"},{"Latitude":"46.7763144","Longitude":"-56.1774922","Name":"Rue du 11 Novembre"},{"Latitude":"46.7708862","Longitude":"-56.1737309","Name":"Rue du Boulonnais"},{"Latitude":"46.7710522","Longitude":"-56.1758996","Name":"Rue du Béssin"},{"Latitude":"46.7778968","Longitude":"-56.1792456","Name":"Rue du Calvaire"},{"Latitude":"46.7697323","Longitude":"-56.1681879","Name":"Rue du Cap Noir"},{"Latitude":"46.7724925","Longitude":"-56.1754704","Name":"Rue du Château"},{"Latitude":"47.1046219","Longitude":"-56.3806997","Name":"Rue du Commerce"},{"Latitude":"46.7829512","Longitude":"-56.1760371","Name":"Rue du Feu Rouge"},{"Latitude":"46.7778556","Longitude":"-56.1811512","Name":"Rue du Fort Lorraine"},{"Latitude":"46.7721162","Longitude":"-56.1765347","Name":"Rue du Gascon"},{"Latitude":"46.7770460","Longitude":"-56.1832352","Name":"Rue du Maine"},{"Latitude":"46.7818364","Longitude":"-56.1806775","Name":"Rue du Pain de Sucre"},{"Latitude":"46.7725864","Longitude":"-56.1787534","Name":"Rue du Petit Chemin de Fer"},{"Latitude":"46.7762643","Longitude":"-56.1834584","Name":"Rue du Poitou"},{"Latitude":"46.7705408","Longitude":"-56.1788092","Name":"Rue du Père Tillard"},{"Latitude":"47.1031876","Longitude":"-56.3828592","Name":"Rue du Père Vauloup"},{"Latitude":"46.7708473","Longitude":"-56.1780889","Name":"Rue du Ranch"},{"Latitude":"46.7847827","Longitude":"-56.1742272","Name":"Rue du Temple"},{"Latitude":"46.7696828","Longitude":"-56.1806132","Name":"Rue Émile Letournel"},{"Latitude":"46.7738315","Longitude":"-56.1654915","Name":"Rue Émile Poirier"},{"Latitude":"46.7814534","Longitude":"-56.1699933","Name":"Rue Émile Sasco"},{"Latitude":"47.0975976","Longitude":"-56.3768646","Name":"Ruelle Charlotte"}]